loggingTime,loggingSample,identifierForVendor,deviceID,locationTimestamp_since1970,locationLatitude,locationLongitude,locationAltitude,locationSpeed,locationCourse,locationVerticalAccuracy,locationHorizontalAccuracy,locationFloor,locationHeadingTimestamp_since1970,locationHeadingX,locationHeadingY,locationHeadingZ,locationTrueHeading,locationMagneticHeading,locationHeadingAccuracy,accelerometerTimestamp_sinceReboot,accelerometerAccelerationX,accelerometerAccelerationY,accelerometerAccelerationZ,gyroTimestamp_sinceReboot,gyroRotationX,gyroRotationY,gyroRotationZ,motionTimestamp_sinceReboot,motionYaw,motionRoll,motionPitch,motionRotationRateX,motionRotationRateY,motionRotationRateZ,motionUserAccelerationX,motionUserAccelerationY,motionUserAccelerationZ,motionAttitudeReferenceFrame,motionQuaternionX,motionQuaternionY,motionQuaternionZ,motionQuaternionW,motionGravityX,motionGravityY,motionGravityZ,motionMagneticFieldX,motionMagneticFieldY,motionMagneticFieldZ,motionMagneticFieldCalibrationAccuracy,activityTimestamp_sinceReboot,activity,activityActivityConfidence,activityActivityStartDate,pedometerStartDate,pedometerNumberofSteps,pedometerDistance,pedometerFloorAscended,pedometerFloorDescended,pedometerEndDate,altimeterTimestamp_sinceReboot,altimeterReset,altimeterRelativeAltitude,altimeterPressure,IP_en0,IP_pdp_ip0,deviceOrientation,batteryState,batteryLevel,state
2016-03-02 02:30:42.013,1,234B9614-18C8-49ED-8B56-CAB6C4F40872,my_iOS_device_1,1456907440.999996,40.79925160393193,-96.68575792582396,370.4464,0,-1,3,10,-9999,1456907442.011185,5.584113121032715,43.80824279785156,16.29779052734375,354.4038696289062,351.1267395019531,25,10175.394498625,0.0938720703125,1.007217407226562,-0.037689208984375,10175.365016625,-0.01481756198909187,0.02018170105672948,-0.004488491701219548,10175.365016625,2.324338862732184,1.374242689552003,-1.467256513039547,0.003958930727094412,-0.009895286522805691,0.001392199425026774,0.002440681913867593,0.01124535221606493,-0.01716928370296955,XArbitraryCorrectedZVertical,-0.6380259446834472,-0.2878033668068177,0.3581647383336273,0.6179078703009142,0.1013648584485054,0.9946445226669312,-0.02018423192203045,4.400777816772461,45.40478134155273,14.18348026275635,1,10172.564338625,unknown,2,2016-03-02 02:30:39.136,null,0,0,0,0,null,10174.317237625,0,-0.06539917,97.42427,192.168.1.101,100.78.239.175,2,1,0.43,0
2016-03-02 02:30:42.039,2,234B9614-18C8-49ED-8B56-CAB6C4F40872,my_iOS_device_1,1456907440.999996,40.79925160393193,-96.68575792582396,370.4464,0,-1,3,10,-9999,1456907442.011185,5.584113121032715,43.80824279785156,16.29779052734375,354.4038696289062,351.1267395019531,25,10175.424790625,0.1050262451171875,1.010604858398438,0.0265960693359375,10175.400031625,-0.2273788296582023,0.05402142376393032,-0.01825011031809501,10175.400031625,2.368947938939011,1.419981027983832,-1.468223003295234,-0.2085980474948883,0.02394410967826843,-0.01236974354833364,-0.007359202485531569,0.01247343979775906,-0.02230516821146011,XArbitraryCorrectedZVertical,-0.6396937725330585,-0.2882704588618731,0.3570044859324307,0.6166358868522508,0.1012312695384026,0.9947439432144165,-0.01538403984159231,4.414281368255615,45.41556167602539,14.14470672607422,1,10172.564338625,unknown,2,2016-03-02 02:30:39.136,null,0,0,0,0,null,10174.317237625,0,-0.06539917,97.42427,192.168.1.101,100.78.239.175,2,1,0.43,0
2016-03-02 02:30:42.057,3,234B9614-18C8-49ED-8B56-CAB6C4F40872,my_iOS_device_1,1456907440.999996,40.79925160393193,-96.68575792582396,370.4464,0,-1,3,10,-9999,1456907442.011185,5.584113121032715,43.80824279785156,16.29779052734375,354.4038696289062,351.1267395019531,25,10175.455083625,0.096435546875,0.9981536865234375,-0.03521728515625,10175.435041625,0.009731723255367553,0.05528056632731979,-0.008412925883560313,10175.400031625,2.368947938939011,1.419981027983832,-1.468223003295234,-0.2085980474948883,0.02394410967826843,-0.01236974354833364,-0.007359202485531569,0.01247343979775906,-0.02230516821146011,XArbitraryCorrectedZVertical,-0.6396937725330585,-0.2882704588618731,0.3570044859324307,0.6166358868522508,0.1012312695384026,0.9947439432144165,-0.01538403984159231,4.414281368255615,45.41556167602539,14.14470672607422,1,10172.564338625,unknown,2,2016-03-02 02:30:39.136,null,0,0,0,0,null,10174.317237625,0,-0.06539917,97.42427,192.168.1.101,100.78.239.175,2,1,0.43,0
2016-03-02 02:30:42.089,4,234B9614-18C8-49ED-8B56-CAB6C4F40872,my_iOS_device_1,1456907441.999997,40.79925160393193,-96.68575792582396,370.3139,0,-1,3,10,-9999,1456907442.069499,6.069782257080078,43.94754028320312,15.5057373046875,353.0804138183594,349.8032836914062,25,10175.485376625,0.1048736572265625,1.004714965820312,-0.0042572021484375,10175.470050625,-0.08075982742443488,0.06586423481540368,-0.003338006110305317,10175.435041625,2.387913465113485,1.438997077257405,-1.468710053630338,0.02850496023893356,0.02520432695746422,-0.002532416954636574,-0.0002561527653597295,0.01086729019880295,-0.01175380125641823,XArbitraryCorrectedZVertical,-0.640302513427794,-0.2886457165535507,0.3566055379661183,0.6160591139697428,0.1010251939296722,0.994793713092804,-0.01339268311858177,4.395026206970215,45.35468292236328,14.34463596343994,1,10172.564338625,unknown,2,2016-03-02 02:30:39.136,null,0,0,0,0,null,10174.317237625,0,-0.06539917,97.42427,192.168.1.101,100.78.239.175,2,1,0.43,0
2016-03-02 02:30:42.118,5,234B9614-18C8-49ED-8B56-CAB6C4F40872,my_iOS_device_1,1456907441.999997,40.79925160393193,-96.68575792582396,370.3139,0,-1,3,10,-9999,1456907442.069499,6.069782257080078,43.94754028320312,15.5057373046875,353.0804138183594,349.8032836914062,25,10175.515669625,0.1081390380859375,1.010345458984375,-0.020172119140625,10175.505064625,-0.06800381843517335,0.05523981996264157,-0.003147323776255644,10175.470050625,2.404630906187488,1.456784631608385,-1.468931111606842,-0.06198671832680702,0.03578820824623108,0.002542461268603802,-0.001251721056178212,0.002696593524888158,-0.003262892831116915,XArbitraryCorrectedZVertical,-0.6410355060050484,-0.2885986052325427,0.355983968102058,0.6156782760118698,0.1010289415717125,0.9948162436485291,-0.01156865060329437,4.380905151367188,45.32704162597656,14.43603992462158,1,10172.564338625,unknown,2,2016-03-02 02:30:39.136,null,0,0,0,0,null,10174.317237625,0,-0.06539917,97.42427,192.168.1.101,100.78.239.175,2,1,0.43,0
2016-03-02 02:30:42.148,6,234B9614-18C8-49ED-8B56-CAB6C4F40872,my_iOS_device_1,1456907441.999997,40.79925160393193,-96.68575792582396,370.3139,0,-1,3,10,-9999,1456907442.129321,6.347312927246094,43.87791442871094,15.37371826171875,351.6650085449219,348.3878784179688,25,10175.545958625,0.10284423828125,1.008773803710938,0.006927490234375,10175.505064625,-0.06800381843517335,0.05523981996264157,-0.003147323776255644,10175.505064625,2.420559064950919,1.473590971226101,-1.468946017472748,-0.04923082515597343,0.02516397088766098,0.002733108121901751,0.006868409924209118,0.01195716299116611,0.0006361631094478071,XArbitraryCorrectedZVertical,-0.6417249989022986,-0.2885397035742715,0.3554912413148768,0.6152721695261998,0.1011943370103836,0.9948177337646484,-0.009867730550467968,4.370293617248535,45.31183242797852,14.48690700531006,1,10172.564338625,unknown,2,2016-03-02 02:30:39.136,null,0,0,0,0,null,10174.317237625,0,-0.06539917,97.42427,192.168.1.101,100.78.239.175,2,1,0.43,0
2016-03-02 02:30:42.192,7,234B9614-18C8-49ED-8B56-CAB6C4F40872,my_iOS_device_1,1456907441.999997,40.79925160393193,-96.68575792582396,370.3139,0,-1,3,10,-9999,1456907442.187503,6.173856735229492,43.84310913085938,15.4066162109375,352.0670776367188,348.7899475097656,25,10175.576235625,0.1052093505859375,1.00469970703125,-0.0325469970703125,10175.540066625,-0.08605365903929439,0.05947397977975855,-0.005543103492890927,10175.540066625,2.439732913827787,1.493461031545536,-1.468967418846699,-0.06727965921163559,0.02939825318753719,0.0003378360997885466,0.0007931433501653373,0.01340457238256931,0.008433366194367409,XArbitraryCorrectedZVertical,-0.642485436262101,-0.2885926158878893,0.3550010730656933,0.6147365324822024,0.1013491898775101,0.9948199391365051,-0.007853532209992409,4.36062479019165,45.2682991027832,14.62525272369385,1,10172.564338625,unknown,2,2016-03-02 02:30:39.136,null,0,0,0,0,null,10174.317237625,0,-0.06539917,97.42427,192.168.1.101,100.78.239.175,2,1,0.43,0
2016-03-02 02:30:42.208,8,234B9614-18C8-49ED-8B56-CAB6C4F40872,my_iOS_device_1,1456907441.999997,40.79925160393193,-96.68575792582396,370.3139,0,-1,3,10,-9999,1456907442.187503,6.173856735229492,43.84310913085938,15.4066162109375,352.0670776367188,348.7899475097656,25,10175.606527625,0.114471435546875,1.007553100585938,-0.020355224609375,10175.575066625,-0.08073159791688005,0.02544330842239903,-0.007579889094583528,10175.575066625,2.459266489138676,1.513333436989605,-1.469138974602291,-0.06195804476737976,-0.004632203374058008,-0.001699054264463484,0.002490691374987364,0.009892884641885757,-0.01176512334495783,XArbitraryCorrectedZVertical,-0.6431697259903401,-0.2888227368871573,0.354560760409625,0.6141667504873767,0.1013148501515388,0.9948373436927795,-0.005828260444104671,4.346871376037598,45.23180770874023,14.74178600311279,1,10172.564338625,unknown,2,2016-03-02 02:30:39.136,null,0,0,0,0,null,10174.317237625,0,-0.06539917,97.42427,192.168.1.101,100.78.239.175,2,1,0.43,0
2016-03-02 02:30:42.239,9,234B9614-18C8-49ED-8B56-CAB6C4F40872,my_iOS_device_1,1456907441.999997,40.79925160393193,-96.68575792582396,370.3139,0,-1,3,10,-9999,1456907442.187503,6.173856735229492,43.84310913085938,15.4066162109375,352.0670776367188,348.7899475097656,25,10175.636834625,0.1049346923828125,1.004013061523438,-0.00885009765625,10175.610098625,-0.1147987545811737,0.005216067311029196,-0.00699852102861923,10175.610098625,2.484605629075311,1.5378613591248,-1.469104527530917,-0.09602206200361252,-0.02485954761505127,-0.001116584753617644,0.01300986856222153,0.01271925773471594,-0.01701238192617893,XArbitraryCorrectedZVertical,-0.6438587761926918,-0.2894381716753586,0.3544546952715775,0.6132155331502624,0.1014615669846535,0.9948338270187378,-0.003342842217534781,4.34636116027832,45.21454620361328,14.79479598999023,1,10172.564338625,unknown,2,2016-03-02 02:30:39.136,null,0,0,0,0,null,10175.628028625,0,0.0451355,97.42299,192.168.1.101,100.78.239.175,2,1,0.43,0
2016-03-02 02:30:42.272,10,234B9614-18C8-49ED-8B56-CAB6C4F40872,my_iOS_device_1,1456907441.999997,40.79925160393193,-96.68575792582396,370.3139,0,-1,3,10,-9999,1456907442.247552,5.792259216308594,43.80827331542969,15.6376953125,353.3968811035156,350.1197509765625,25,10175.667127625,0.1007080078125,1.011383056640625,-0.0062713623046875,10175.645108625,-0.1105691221379098,-0.008602010320955939,-0.005864280720354482,10175.610098625,2.484605629075311,1.5378613591248,-1.469104527530917,-0.09602206200361252,-0.02485954761505127,-0.001116584753617644,0.01300986856222153,0.01271925773471594,-0.01701238192617893,XArbitraryCorrectedZVertical,-0.6438587761926918,-0.2894381716753586,0.3544546952715775,0.6132155331502624,0.1014615669846535,0.9948338270187378,-0.003342842217534781,4.34636116027832,45.21454620361328,14.79479598999023,1,10172.564338625,unknown,2,2016-03-02 02:30:39.136,null,0,0,0,0,null,10175.628028625,0,0.0451355,97.42299,192.168.1.101,100.78.239.175,2,1,0.43,0
2016-03-02 02:30:42.299,11,234B9614-18C8-49ED-8B56-CAB6C4F40872,my_iOS_device_1,1456907441.999997,40.79925160393193,-96.68575792582396,370.3139,0,-1,3,10,-9999,1456907442.289339,5.757565498352051,43.70382690429688,15.73675537109375,353.4866333007812,350.2095031738281,25,10175.697414625,0.0930633544921875,1.012054443359375,-0.0041351318359375,10175.680106625,-0.07983571052617738,-0.02238253738157096,0.002049302458815974,10175.680106625,2.531836401519579,1.581890993877177,-1.468939740266862,-0.06105323508381844,-0.05245840921998024,0.007931763306260109,-0.002995708025991917,0.0191599503159523,-0.00158585247118026,XArbitraryCorrectedZVertical,-0.6448341160190092,-0.2911236974186784,0.3547776674136234,0.611202717863526,0.1016742959618568,0.9948170781135559,0.00112808879930526,4.391631603240967,45.14592361450195,14.98970985412598,1,10172.564338625,unknown,2,2016-03-02 02:30:39.136,null,0,0,0,0,null,10175.628028625,0,0.0451355,97.42299,192.168.1.101,100.78.239.175,2,1,0.43,0
2016-03-02 02:30:42.351,12,234B9614-18C8-49ED-8B56-CAB6C4F40872,my_iOS_device_1,1456907441.999997,40.79925160393193,-96.68575792582396,370.3139,0,-1,3,10,-9999,1456907442.33428,5.688183784484863,43.14666748046875,16.000732421875,353.4890747070312,350.2119445800781,25,10175.727711625,0.095001220703125,1.01727294921875,-0.0006103515625,10175.715116625,-0.05865851985397629,-0.01383885028848775,0.009812683352505961,10175.680106625,2.531836401519579,1.581890993877177,-1.468939740266862,-0.06105323508381844,-0.05245840921998024,0.007931763306260109,-0.002995708025991917,0.0191599503159523,-0.00158585247118026,XArbitraryCorrectedZVertical,-0.6448341160190092,-0.2911236974186784,0.3547776674136234,0.611202717863526,0.1016742959618568,0.9948170781135559,0.00112808879930526,4.391631603240967,45.14592361450195,14.98970985412598,1,10172.564338625,unknown,2,2016-03-02 02:30:39.136,null,0,0,0,0,null,10175.628028625,0,0.0451355,97.42299,192.168.1.101,100.78.239.175,2,1,0.43,0
2016-03-02 02:30:42.360,13,234B9614-18C8-49ED-8B56-CAB6C4F40872,my_iOS_device_1,1456907441.999997,40.79925160393193,-96.68575792582396,370.3139,0,-1,3,10,-9999,1456907442.33428,5.688183784484863,43.14666748046875,16.000732421875,353.4890747070312,350.2119445800781,25,10175.758004625,0.0985870361328125,1.013992309570312,-0.0021820068359375,10175.750127625,-0.02673707207995952,-0.01807141220895069,0.009212673158911109,10175.715116625,2.544194697951235,1.592511797402429,-1.469127382851589,-0.03987449035048485,-0.04391480982303619,0.01569186151027679,-0.009871442802250385,0.01706569269299507,-0.005652300547808409,XArbitraryCorrectedZVertical,-0.6448892532694063,-0.291924233537954,0.3550711562237359,0.6105919807111756,0.1014699563384056,0.994836151599884,0.002203814219683409,4.423892974853516,45.09795379638672,15.12401580810547,1,10172.564338625,unknown,2,2016-03-02 02:30:39.136,null,0,0,0,0,null,10175.628028625,0,0.0451355,97.42299,192.168.1.101,100.78.239.175,2,1,0.43,0
2016-03-02 02:30:42.390,14,234B9614-18C8-49ED-8B56-CAB6C4F40872,my_iOS_device_1,1456907441.999997,40.79925160393193,-96.68575792582396,370.3139,0,-1,3,10,-9999,1456907442.33428,5.688183784484863,43.14666748046875,16.000732421875,353.4890747070312,350.2119445800781,25,10175.788299625,0.098480224609375,1.011962890625,0.01300048828125,10175.785150625,-0.01715129005232831,-0.001049818101709236,0.009343168052324992,10175.750127625,2.548057943526354,1.594653019469521,-1.469131799476372,-0.007951332256197929,-0.04814741015434265,0.01508872490376234,-0.002034340053796768,0.02071209438145161,-0.005060744471848011,XArbitraryCorrectedZVertical,-0.6447045208583814,-0.2925176366148501,0.3555585701036456,0.6102193181798078,0.1014606133103371,0.9948366284370422,0.002420973964035511,4.447870254516602,45.08450698852539,15.15703296661377,1,10172.564338625,unknown,2,2016-03-02 02:30:39.136,null,0,0,0,0,null,10175.628028625,0,0.0451355,97.42299,192.168.1.101,100.78.239.175,2,1,0.43,0
2016-03-02 02:30:42.433,15,234B9614-18C8-49ED-8B56-CAB6C4F40872,my_iOS_device_1,1456907441.999997,40.79925160393193,-96.68575792582396,370.3139,0,-1,3,10,-9999,1456907442.393015,5.271895408630371,43.21632385253906,16.19879150390625,353.5103149414062,350.2331848144531,25,10175.818597625,0.10205078125,1.00836181640625,0.0056610107421875,10175.785150625,-0.01715129005232831,-0.001049818101709236,0.009343168052324992,10175.785150625,2.549859594540272,1.595089740442061,-1.468928131292638,0.001634093234315515,-0.03112566284835339,0.01521747559309006,-0.005531726405024529,0.01824560202658176,0.005632211454212666,XArbitraryCorrectedZVertical,-0.6445498270673262,-0.2929003637787624,0.3560287681410574,0.6099249245453586,0.1016620993614197,0.9948159456253052,0.002470205305144191,4.46704626083374,45.08464431762695,15.15098667144775,1,10172.564338625,unknown,2,2016-03-02 02:30:39.136,null,0,0,0,0,null,10175.628028625,0,0.0451355,97.42299,192.168.1.101,100.78.239.175,2,1,0.43,0
2016-03-02 02:30:42.453,16,234B9614-18C8-49ED-8B56-CAB6C4F40872,my_iOS_device_1,1456907441.999997,40.79925160393193,-96.68575792582396,370.3139,0,-1,3,10,-9999,1456907442.393015,5.271895408630371,43.21632385253906,16.19879150390625,353.5103149414062,350.2331848144531,25,10175.848892625,0.1035003662109375,1.009048461914062,0.0148162841796875,10175.820166625,-0.00751810375729369,0.001072454970974909,0.005218996788228283,10175.820166625,2.550494057968584,1.594767908863538,-1.468770564679358,0.01126403547823429,-0.02900289371609688,0.01109179574996233,0.0002311907301191241,0.01356193143874407,0.003219766542315483,XArbitraryCorrectedZVertical,-0.6444237895544005,-0.2931528638872134,0.3563734071262766,0.6097354939186594,0.1018195897340775,0.9947999119758606,0.002441244199872017,4.495255470275879,45.07765960693359,15.16343116760254,1,10172.564338625,unknown,2,2016-03-02 02:30:39.136,null,0,0,0,0,null,10175.628028625,0,0.0451355,97.42299,192.168.1.101,100.78.239.175,2,1,0.43,0
2016-03-02 02:30:42.481,17,234B9614-18C8-49ED-8B56-CAB6C4F40872,my_iOS_device_1,1456907441.999997,40.79925160393193,-96.68575792582396,370.3139,0,-1,3,10,-9999,1456907442.46106,5.48004150390625,43.28599548339844,15.53857421875,353.5262145996094,350.2490844726562,25,10175.879185625,0.1082611083984375,1.004196166992188,0.0052947998046875,10175.855175625,-0.0117565246321548,0.003193130147005006,0.004090615434361709,10175.855175625,2.552303250804163,1.595641339456047,-1.468397066232462,0.007022635079920292,-0.02688177302479744,0.00996323861181736,0.001311512314714491,0.01428668666630983,0.01227687858045101,XArbitraryCorrectedZVertical,-0.6443717588997427,-0.2933508808218923,0.356755906436336,0.609471508994647,0.1021888554096222,0.9947617650032043,0.002539405832067132,4.509255409240723,45.07881927490234,15.15581893920898,1,10172.564338625,unknown,2,2016-03-02 02:30:39.136,null,0,0,0,0,null,10175.628028625,0,0.0451355,97.42299,192.168.1.101,100.78.239.175,2,1,0.43,0
2016-03-02 02:30:42.513,18,234B9614-18C8-49ED-8B56-CAB6C4F40872,my_iOS_device_1,1456907441.999997,40.79925160393193,-96.68575792582396,370.3139,0,-1,3,10,-9999,1456907442.46106,5.48004150390625,43.28599548339844,15.53857421875,353.5262145996094,350.2490844726562,25,10175.909465625,0.1100616455078125,1.009124755859375,0.01324462890625,10175.890184625,-0.02350559241325737,-0.003187271192606832,0.007120493806544859,10175.890184625,2.55636277476302,1.598639747111806,-1.467707131126504,-0.004729108419269323,-0.03326168656349182,0.01299434807151556,0.005882578436285257,0.007307888474315405,0.00645821588113904,XArbitraryCorrectedZVertical,-0.644418084627722,-0.293526462732194,0.3572339269145423,0.6090578538544856,0.1028668135404587,0.994691014289856,0.00286490423604846,4.543814182281494,45.07215118408203,15.16532611846924,1,10172.564338625,unknown,2,2016-03-02 02:30:39.136,null,0,0,0,0,null,10175.628028625,0,0.0451355,97.42299,192.168.1.101,100.78.239.175,2,1,0.43,0
2016-03-02 02:30:42.541,19,234B9614-18C8-49ED-8B56-CAB6C4F40872,my_iOS_device_1,1456907441.999997,40.79925160393193,-96.68575792582396,370.3139,0,-1,3,10,-9999,1456907442.521401,6.03509521484375,43.07705688476562,15.2745361328125,353.5047302246094,350.2276000976562,25,10175.939760625,0.1041259765625,1.0086669921875,0.0136566162109375,10175.925184625,-0.02766012371378098,-0.006401173996114457,-0.000398408899075854,10175.890184625,2.55636277476302,1.598639747111806,-1.467707131126504,-0.004729108419269323,-0.03326168656349182,0.01299434807151556,0.005882578436285257,0.007307888474315405,0.00645821588113904,XArbitraryCorrectedZVertical,-0.644418084627722,-0.293526462732194,0.3572339269145423,0.6090578538544856,0.1028668135404587,0.994691014289856,0.00286490423604846,4.543814182281494,45.07215118408203,15.16532611846924,1,10172.564338625,unknown,2,2016-03-02 02:30:39.136,null,0,0,0,0,null,10175.628028625,0,0.0451355,97.42299,192.168.1.101,100.78.239.175,2,1,0.43,0
2016-03-02 02:30:42.593,20,234B9614-18C8-49ED-8B56-CAB6C4F40872,my_iOS_device_1,1456907441.999997,40.79925160393193,-96.68575792582396,370.3139,0,-1,3,10,-9999,1456907442.56939,6.173860549926758,42.86814880371094,16.13262939453125,353.4610595703125,350.1839294433594,25,10175.970070625,0.114654541015625,1.007553100585938,0.005523681640625,10175.960201625,-0.0361872992081057,-0.01065823699860612,0.0005456817073572359,10175.925184625,2.564599018599848,1.605663165383026,-1.467058244616168,-0.008886822499334812,-0.03647509962320328,0.005476816091686487,0.004176835529506207,0.01595031097531319,0.01074871700257063,XArbitraryCorrectedZVertical,-0.6445653679267106,-0.2938373499137658,0.3576721043451506,0.6084946705094662,0.1034891828894615,0.9946240186691284,0.003609803505241871,4.628055095672607,45.04924392700195,15.20785045623779,1,10172.564338625,unknown,2,2016-03-02 02:30:39.136,null,0,0,0,0,null,10175.628028625,0,0.0451355,97.42299,192.168.1.101,100.78.239.175,2,1,0.43,0
2016-03-02 02:30:42.602,21,234B9614-18C8-49ED-8B56-CAB6C4F40872,my_iOS_device_1,1456907441.999997,40.79925160393193,-96.68575792582396,370.3139,0,-1,3,10,-9999,1456907442.56939,6.173860549926758,42.86814880371094,16.13262939453125,353.4610595703125,350.1839294433594,25,10176.000359625,0.108642578125,1.00506591796875,0.00872802734375,10175.995218625,-0.03609701804715201,-0.007485613191994723,-0.005849100702141031,10175.960201625,2.574098716215913,1.613886480413365,-1.46670246720924,-0.01760104298591614,-0.0407596044242382,0.006442013196647167,0.006450483109802008,0.01359158661216497,0.0005899789393879473,XArbitraryCorrectedZVertical,-0.6446964411076918,-0.294286371320151,0.3580166076892372,0.6079359662801161,0.1038095280528069,0.9945871233940125,0.004475939087569714,4.64320707321167,45.04012680053711,15.23022174835205,1,10172.564338625,unknown,2,2016-03-02 02:30:39.136,null,0,0,0,0,null,10175.628028625,0,0.0451355,97.42299,192.168.1.101,100.78.239.175,2,1,0.43,0
2016-03-02 02:30:42.643,22,234B9614-18C8-49ED-8B56-CAB6C4F40872,my_iOS_device_1,1456907441.999997,40.79925160393193,-96.68575792582396,370.3139,0,-1,3,10,-9999,1456907442.628918,5.965717315673828,43.07705688476562,16.2646484375,353.4412841796875,350.1641540527344,25,10176.030656625,0.1020965576171875,1.011062622070312,-0.001495361328125,10175.995218625,-0.03609701804715201,-0.007485613191994723,-0.005849100702141031,10175.995218625,2.582436249442888,1.620803217191275,-1.466206939166705,-0.01751174405217171,-0.03758669272065163,4.908527989755385e-05,0.004557381849735975,0.01199524756520987,0.004699728917330503,XArbitraryCorrectedZVertical,-0.6447875591282981,-0.2947172300580611,0.3584670013019413,0.6073649371488462,0.104268305003643,0.994535505771637,0.005218483973294497,4.69500732421875,45.02208709716797,15.26763725280762,1,10172.564338625,unknown,2,2016-03-02 02:30:39.136,null,0,0,0,0,null,10175.628028625,0,0.0451355,97.42299,192.168.1.101,100.78.239.175,2,1,0.43,0
2016-03-02 02:30:42.673,23,234B9614-18C8-49ED-8B56-CAB6C4F40872,my_iOS_device_1,1456907441.999997,40.79925160393193,-96.68575792582396,370.3139,0,-1,3,10,-9999,1456907442.628918,5.965717315673828,43.07705688476562,16.2646484375,353.4412841796875,350.1641540527344,25,10176.060948625,0.1045379638671875,1.008712768554688,0.013702392578125,10176.030232625,-0.04886927231906303,0.001014930691429198,-0.00497318701961397,10176.030232625,2.588196638750074,1.625305287910243,-1.466172878488417,-0.03028376772999763,-0.02908600494265556,0.0009252008167095482,-0.0007161740213632584,0.01555410213768482,-0.006422120612114668,XArbitraryCorrectedZVertical,-0.6447508502084663,-0.2951968672398571,0.3587744551188124,0.6069893253438529,0.1042775735259056,0.9945319294929504,0.005689698737114668,4.70976448059082,45.01499938964844,15.28398704528809,1,10172.564338625,unknown,2,2016-03-02 02:30:39.136,null,0,0,0,0,null,10175.628028625,0,0.0451355,97.42299,192.168.1.101,100.78.239.175,2,1,0.43,0
2016-03-02 02:30:42.704,24,234B9614-18C8-49ED-8B56-CAB6C4F40872,my_iOS_device_1,1456907441.999997,40.79925160393193,-96.68575792582396,370.3139,0,-1,3,10,-9999,1456907442.686923,5.653499603271484,43.59941101074219,16.4957275390625,353.4548034667969,350.1776733398438,25,10176.091240625,0.1048126220703125,1.0093994140625,0.0029144287109375,10176.065242625,-0.02441319771275638,0.00954343776629895,-0.003556651635800823,10176.065242625,2.596827866228273,1.633035932210823,-1.466090533240886,-0.005828623659908772,-0.02055717445909977,0.00234127533622086,0.0002257529995404184,0.01418941374868155,0.007201645523309708,XArbitraryCorrectedZVertical,-0.6448766765596564,-0.295608602041643,0.3589248904834163,0.6065661954146286,0.1043122112751007,0.9945233464241028,0.006500747054815292,4.738863468170166,44.99516296386719,15.3333158493042,1,10172.564338625,unknown,2,2016-03-02 02:30:39.136,null,0,0,0,0,null,10175.628028625,0,0.0451355,97.42299,192.168.1.101,100.78.239.175,2,1,0.43,0
2016-03-02 02:30:42.729,25,234B9614-18C8-49ED-8B56-CAB6C4F40872,my_iOS_device_1,1456907441.999997,40.79925160393193,-96.68575792582396,370.3139,0,-1,3,10,-9999,1456907442.686923,5.653499603271484,43.59941101074219,16.4957275390625,353.4548034667969,350.1776733398438,25,10176.121534625,0.1085052490234375,1.007965087890625,0.004669189453125,10176.100242625,-0.01280820694662709,0.01914333454770758,0.004067179616769012,10176.100242625,2.596606223012027,1.632376250975276,-1.465875757284831,0.005776099395006895,-0.0109570799395442,0.009964968077838421,0.0002829530276358128,0.01489852927625179,-0.003530649235472083,XArbitraryCorrectedZVertical,-0.6448267344833285,-0.2956704609107169,0.3591334171740337,0.6064657036545966,0.1045296713709831,0.9945008754730225,0.006445077713578939,4.747923851013184,44.99141311645508,15.34151935577393,1,10172.564338625,unknown,2,2016-03-02 02:30:39.136,null,0,0,0,0,null,10175.628028625,0,0.0451355,97.42299,192.168.1.101,100.78.239.175,2,1,0.43,0
2016-03-02 02:30:42.754,26,234B9614-18C8-49ED-8B56-CAB6C4F40872,my_iOS_device_1,1456907441.999997,40.79925160393193,-96.68575792582396,370.3139,0,-1,3,10,-9999,1456907442.745564,5.722881317138672,43.18154907226562,16.1656494140625,353.4673767089844,350.1902465820312,25,10176.151821625,0.1085052490234375,1.007553100585938,-0.00286865234375,10176.135266625,-0.01164706871135254,0.03188735931206376,-0.002316950148368937,10176.100242625,2.596606223012027,1.632376250975276,-1.465875757284831,0.005776099395006895,-0.0109570799395442,0.009964968077838421,0.0002829530276358128,0.01489852927625179,-0.003530649235472083,XArbitraryCorrectedZVertical,-0.6448267344833285,-0.2956704609107169,0.3591334171740337,0.6064657036545966,0.1045296713709831,0.9945008754730225,0.006445077713578939,4.747923851013184,44.99141311645508,15.34151935577393,1,10172.564338625,unknown,2,2016-03-02 02:30:39.136,null,0,0,0,0,null,10175.628028625,0,0.0451355,97.42299,192.168.1.101,100.78.239.175,2,1,0.43,0
2016-03-02 02:30:42.795,27,234B9614-18C8-49ED-8B56-CAB6C4F40872,my_iOS_device_1,1456907441.999997,40.79925160393193,-96.68575792582396,370.3139,0,-1,3,10,-9999,1456907442.745564,5.722881317138672,43.18154907226562,16.1656494140625,353.4673767089844,350.1902465820312,25,10176.182117625,0.1129150390625,1.005050659179688,0.014190673828125,10176.170276625,-0.02024108954903824,0.03615214548171665,0.003950533161023542,10176.135266625,2.591900084211574,1.627516921690227,-1.465621610599553,0.006885606795549393,0.001766343717463315,0.00359953404404223,0.0009923506295308471,0.01217859610915184,-0.00726364366710186,XArbitraryCorrectedZVertical,-0.6446915436754174,-0.2955478091366911,0.3593475350172734,0.6065423770066449,0.1048120930790901,0.9944742321968079,0.00595138780772686,4.766947746276855,44.99446487426758,15.32666015625,1,10172.564338625,unknown,2,2016-03-02 02:30:39.136,null,0,0,0,0,null,10175.628028625,0,0.0451355,97.42299,192.168.1.101,100.78.239.175,2,1,0.43,0
2016-03-02 02:30:42.833,28,234B9614-18C8-49ED-8B56-CAB6C4F40872,my_iOS_device_1,1456907441.999997,40.79925160393193,-96.68575792582396,370.3139,0,-1,3,10,-9999,1456907442.805942,6.035098075866699,43.14674377441406,16.066650390625,353.46044921875,350.1833190917969,25,10176.212409625,0.1119384765625,1.008209228515625,-0.003326416015625,10176.205285625,-0.006464557230058343,0.02660071823214746,0.007352721453599768,10176.170276625,2.58739633071835,1.623144983108306,-1.465242765419124,-0.001706496579572558,0.006031102500855923,0.009867854416370392,0.006557291839271784,0.01275249663740396,-0.002018550876528025,XArbitraryCorrectedZVertical,-0.6446332542933804,-0.2953038676183766,0.3595024689581311,0.6066313279428572,0.1052133366465569,0.9944344162940979,0.005512813571840525,4.772669315338135,44.99840545654297,15.31331348419189,1,10172.564338625,unknown,2,2016-03-02 02:30:39.136,null,0,0,0,0,null,10175.628028625,0,0.0451355,97.42299,192.168.1.101,100.78.239.175,2,1,0.43,0
2016-03-02 02:30:42.855,29,234B9614-18C8-49ED-8B56-CAB6C4F40872,my_iOS_device_1,1456907441.999997,40.79925160393193,-96.68575792582396,370.3139,0,-1,3,10,-9999,1456907442.805942,6.035098075866699,43.14674377441406,16.066650390625,353.46044921875,350.1833190917969,25,10176.242684625,0.110595703125,1.003494262695312,0.0017242431640625,10176.205285625,-0.006464557230058343,0.02660071823214746,0.007352721453599768,10176.205285625,2.585076180949516,1.620784100126512,-1.464452938313976,0.01206890307366848,-0.003519990015774965,0.01327210012823343,0.007087667006999254,0.01488069910556078,-0.005883479956537485,XArbitraryCorrectedZVertical,-0.6446797880228674,-0.2950250733606947,0.3597930351660842,0.6065452570494944,0.1060104742646217,0.9943508505821228,0.005303645972162485,4.797137260437012,45.00057983398438,15.2992639541626,1,10172.564338625,unknown,2,2016-03-02 02:30:39.136,null,0,0,0,0,null,10175.628028625,0,0.0451355,97.42299,192.168.1.101,100.78.239.175,2,1,0.43,0
2016-03-02 02:30:42.880,30,234B9614-18C8-49ED-8B56-CAB6C4F40872,my_iOS_device_1,1456907441.999997,40.79925160393193,-96.68575792582396,370.3139,0,-1,3,10,-9999,1456907442.862876,6.000404357910156,43.25123596191406,16.2977294921875,353.4480285644531,350.1708984375,25,10176.272989625,0.1090545654296875,1.007858276367188,-0.0060577392578125,10176.240294625,-0.01066968859129346,0.03403253557012258,0.004090615434361709,10176.240294625,2.580744610557407,1.616527732056658,-1.463851115181971,0.007865059189498425,0.003911854233592749,0.0100109176710248,0.004408338107168674,0.01010772213339806,-0.00166013150010258,XArbitraryCorrectedZVertical,-0.6446498361450828,-0.294731160162565,0.3600293845363371,0.6065797344601005,0.1066298708319664,0.994286835193634,0.004879735875874758,4.817315578460693,45.00043487548828,15.29333782196045,1,10172.564338625,unknown,2,2016-03-02 02:30:39.136,null,0,0,0,0,null,10175.628028625,0,0.0451355,97.42299,192.168.1.101,100.78.239.175,2,1,0.43,0
2016-03-02 02:30:42.914,31,234B9614-18C8-49ED-8B56-CAB6C4F40872,my_iOS_device_1,1456907441.999997,40.79925160393193,-96.68575792582396,370.3139,0,-1,3,10,-9999,1456907442.862876,6.000404357910156,43.25123596191406,16.2977294921875,353.4480285644531,350.1708984375,25,10176.303279625,0.1169281005859375,1.009918212890625,0.0047607421875,10176.275295625,-0.02758422362271373,0.03612604650303387,-0.003616306444218597,10176.275295625,2.576469342434992,1.612381639810218,-1.463522369100917,-0.009046922437846661,0.006005309987813234,0.002304896246641874,0.002078800927847624,0.01360661163926125,-0.01050892565399408,XArbitraryCorrectedZVertical,-0.6445858580321928,-0.2945074957196482,0.3601664646628853,0.6066749742012069,0.1069757640361786,0.9942516684532166,0.004451186861842871,4.86225700378418,45.0074348449707,15.25848293304443,1,10172.564338625,unknown,2,2016-03-02 02:30:39.136,null,0,0,0,0,null,10175.628028625,0,0.0451355,97.42299,192.168.1.101,100.78.239.175,2,1,0.43,0
2016-03-02 02:30:42.946,32,234B9614-18C8-49ED-8B56-CAB6C4F40872,my_iOS_device_1,1456907441.999997,40.79925160393193,-96.68575792582396,370.3139,0,-1,3,10,-9999,1456907442.922416,5.931024551391602,43.11196899414062,15.901611328125,353.4383239746094,350.1611938476562,25,10176.333572625,0.1100006103515625,1.010055541992188,0.003021240234375,10176.310313625,-0.02975949360109045,0.03081623592163389,-0.0004479436953513279,10176.310313625,2.579070538618776,1.6151009488988,-1.463116368357291,-0.01122164539992809,0.000695612165145576,0.00547420559450984,0.009561574086546898,0.01571010053157806,7.93945730492851e-07,XArbitraryCorrectedZVertical,-0.6447576257367346,-0.294393576993809,0.360199339391346,0.6065282036155532,0.1073665246367455,0.9942080974578857,0.00475994823500514,4.874098777770996,45.00724411010742,15.25527572631836,1,10172.564338625,unknown,2,2016-03-02 02:30:39.136,null,0,0,0,0,null,10175.628028625,0,0.0451355,97.42299,192.168.1.101,100.78.239.175,2,1,0.43,0
2016-03-02 02:30:42.993,33,234B9614-18C8-49ED-8B56-CAB6C4F40872,my_iOS_device_1,1456907441.999997,40.79925160393193,-96.68575792582396,370.3139,0,-1,3,10,-9999,1456907442.983486,5.861642837524414,43.25123596191406,16.5616455078125,353.4385986328125,350.1614685058594,25,10176.363773375,0.11712646484375,1.00787353515625,-0.0001983642578125,10176.345240375,-0.0265146981289379,0.02442651351820677,-0.004660531907638667,10176.345240375,2.581506676977786,1.61752684214511,-1.462722005080388,-0.008043192327022552,-0.00571926636621356,0.001285371603444219,0.0009115302818827331,0.01488280948251486,-0.007647961843758821,XArbitraryCorrectedZVertical,-0.6448994489088642,-0.2943196479254152,0.3602727093915544,0.6063697061279733,0.1077463030815125,0.9941656589508057,0.005038708914071321,4.893082618713379,44.99993133544922,15.27076148986816,1,10172.564338625,unknown,2,2016-03-02 02:30:39.136,null,0,0,0,0,null,10175.628028625,0,0.0451355,97.42299,192.168.1.101,100.78.239.175,2,1,0.43,0
2016-03-02 02:30:42.998,34,234B9614-18C8-49ED-8B56-CAB6C4F40872,my_iOS_device_1,1456907441.999997,40.79925160393193,-96.68575792582396,370.3139,0,-1,3,10,-9999,1456907442.983486,5.861642837524414,43.25123596191406,16.5616455078125,353.4385986328125,350.1614685058594,25,10176.394052375,0.113616943359375,1.007492065429688,0.000335693359375,10176.380250375,-0.01479385985539017,0.01273204053945082,-0.006615824779974844,10176.345240375,2.581506676977786,1.61752684214511,-1.462722005080388,-0.008043192327022552,-0.00571926636621356,0.001285371603444219,0.0009115302818827331,0.01488280948251486,-0.007647961843758821,XArbitraryCorrectedZVertical,-0.6448994489088642,-0.2943196479254152,0.3602727093915544,0.6063697061279733,0.1077463030815125,0.9941656589508057,0.005038708914071321,4.893082618713379,44.99993133544922,15.27076148986816,1,10172.564338625,unknown,2,2016-03-02 02:30:39.136,null,0,0,0,0,null,10175.628028625,0,0.0451355,97.42299,192.168.1.101,100.78.239.175,2,1,0.43,0
2016-03-02 02:30:43.029,35,234B9614-18C8-49ED-8B56-CAB6C4F40872,my_iOS_device_1,1456907441.999997,40.79925160393193,-96.68575792582396,370.3139,0,-1,3,10,-9999,1456907442.983486,5.861642837524414,43.25123596191406,16.5616455078125,353.4385986328125,350.1614685058594,25,10176.424347375,0.108642578125,1.006301879882812,0.0010986328125,10176.415259375,-0.020199277919924,0.01380902288427887,-0.0003004045709609381,10176.380250375,2.581922985740339,1.617539360049957,-1.462396255221569,0.003678466891869903,-0.0174136571586132,-0.0006683356477878988,0.01062838640064001,0.01430764701217413,-0.0004012587305624038,XArbitraryCorrectedZVertical,-0.6448929385388653,-0.2943479106762215,0.3604912810320122,0.6062329928361723,0.1080697327852249,0.9941304922103882,0.005055189598351717,4.902291774749756,44.99663543701172,15.27751541137695,1,10172.564338625,unknown,2,2016-03-02 02:30:39.136,null,0,0,0,0,null,10175.628028625,0,0.0451355,97.42299,192.168.1.101,100.78.239.175,2,1,0.43,0
2016-03-02 02:30:43.076,36,234B9614-18C8-49ED-8B56-CAB6C4F40872,my_iOS_device_1,1456907442.999997,40.79925160393193,-96.68575792582396,370.2845,0,-1,3,10,-9999,1456907443.039571,5.861642837524414,43.39053344726562,16.5616455078125,353.4364013671875,350.1592712402344,25,10176.454644375,0.1141204833984375,1.008865356445312,0.0113983154296875,10176.450274375,-0.01486469994038628,0.01593688859525218,-0.001289768915925375,10176.415259375,2.575938880105961,1.610984021162027,-1.462124143328287,-0.001725131180137396,-0.01633666269481182,0.005647927056998014,0.0001191482588183135,0.01400143001228571,-0.006859961897134781,XArbitraryCorrectedZVertical,-0.6446349995580117,-0.2943203654948999,0.3608712994914215,0.6062946024855548,0.108370840549469,0.9941009879112244,0.004357520490884781,4.919955730438232,44.9957275390625,15.27452182769775,1,10172.564338625,unknown,2,2016-03-02 02:30:39.136,null,0,0,0,0,null,10175.628028625,0,0.0451355,97.42299,192.168.1.101,100.78.239.175,2,1,0.43,0
2016-03-02 02:30:43.089,37,234B9614-18C8-49ED-8B56-CAB6C4F40872,my_iOS_device_1,1456907442.999997,40.79925160393193,-96.68575792582396,370.2845,0,-1,3,10,-9999,1456907443.039571,5.861642837524414,43.39053344726562,16.5616455078125,353.4364013671875,350.1592712402344,25,10176.484935375,0.110626220703125,1.0064697265625,-0.0035247802734375,10176.450274375,-0.01486469994038628,0.01593688859525218,-0.001289768915925375,10176.450274375,2.578005496973056,1.612436971671094,-1.461889050812117,0.003608406288549304,-0.01420850493013859,0.004658696241676807,0.00424084858968854,0.0136454850435257,0.008307939395308495,XArbitraryCorrectedZVertical,-0.6446305350720702,-0.2944721111074103,0.3610991539194229,0.6060899686278205,0.1085978969931602,0.9940754771232605,0.004524701740592718,4.955148696899414,45.0015983581543,15.24581718444824,1,10172.564338625,unknown,2,2016-03-02 02:30:39.136,null,0,0,0,0,null,10175.628028625,0,0.0451355,97.42299,192.168.1.101,100.78.239.175,2,1,0.43,0
2016-03-02 02:30:43.119,38,234B9614-18C8-49ED-8B56-CAB6C4F40872,my_iOS_device_1,1456907442.999997,40.79925160393193,-96.68575792582396,370.2845,0,-1,3,10,-9999,1456907443.098566,6.243240356445312,43.56462097167969,16.52862548828125,353.4273071289062,350.1501770019531,25,10176.515238375,0.1104736328125,1.00482177734375,0.00408935546875,10176.485284375,-0.01485244939937191,0.01274375844824717,-0.002353701771412031,10176.485284375,2.572612513140021,1.606496379190656,-1.461673160151272,0.003621682059019804,-0.01740152947604656,0.003595562884584069,0.001788888941518962,0.01241775322705507,-0.007411930244415998,XArbitraryCorrectedZVertical,-0.6443857786191519,-0.2944665402021865,0.3614432898205003,0.6061478146940991,0.108837328851223,0.994051992893219,0.003887149970978498,4.968523025512695,44.99858474731445,15.25034999847412,1,10172.564338625,unknown,2,2016-03-02 02:30:39.136,null,0,0,0,0,null,10175.628028625,0,0.0451355,97.42299,192.168.1.101,100.78.239.175,2,1,0.43,0
2016-03-02 02:30:43.152,39,234B9614-18C8-49ED-8B56-CAB6C4F40872,my_iOS_device_1,1456907442.999997,40.79925160393193,-96.68575792582396,370.2845,0,-1,3,10,-9999,1456907443.098566,6.243240356445312,43.56462097167969,16.52862548828125,353.4273071289062,350.1501770019531,25,10176.545536375,0.1108551025390625,1.007705688476562,-0.0001220703125,10176.520293375,-0.0126910278586636,0.01911989873011488,-0.004457066400356613,10176.520293375,2.572830007773878,1.606181389659392,-1.46155123644202,0.005782542750239372,-0.01102515589445829,0.001492167240940034,0.001513960189186037,0.01078309025615454,0.0002322006184840575,XArbitraryCorrectedZVertical,-0.6443160645281413,-0.2945935953421021,0.3616469699313636,0.606038688297868,0.1089596748352051,0.9940387010574341,0.003857154864817858,4.988094329833984,45.00643157958984,15.22078037261963,1,10172.564338625,unknown,2,2016-03-02 02:30:39.136,null,0,0,0,0,null,10175.628028625,0,0.0451355,97.42299,192.168.1.101,100.78.239.175,2,1,0.43,0
2016-03-02 02:30:43.179,40,234B9614-18C8-49ED-8B56-CAB6C4F40872,my_iOS_device_1,1456907442.999997,40.79925160393193,-96.68575792582396,370.2845,0,-1,3,10,-9999,1456907443.159408,5.688190460205078,43.07710266113281,15.80255126953125,353.4306030273438,350.1534729003906,25,10176.575838375,0.1137237548828125,1.00726318359375,0.006805419921875,10176.555302375,-0.02768249426693765,0.02231942046373608,0.002783802287459828,10176.555302375,2.571791098590789,1.604765316136413,-1.461462030496907,-0.009207010269165039,-0.007825662381947041,0.008732697926461697,0.001801454578526318,0.01367673091590405,-0.003827938111498952,XArbitraryCorrectedZVertical,-0.6442270614003666,-0.29465985001739,0.3618148965609513,0.6060008636740718,0.1090536490082741,0.9940289855003357,0.003705867798998952,4.995129585266113,45.00585174560547,15.22018337249756,1,10172.564338625,unknown,2,2016-03-02 02:30:39.136,null,0,0,0,0,null,10175.628028625,0,0.0451355,97.42299,192.168.1.101,100.78.239.175,2,1,0.43,0
2016-03-02 02:30:43.233,41,234B9614-18C8-49ED-8B56-CAB6C4F40872,my_iOS_device_1,1456907442.999997,40.79925160393193,-96.68575792582396,370.2845,0,-1,3,10,-9999,1456907443.216009,5.549426078796387,42.93785095214844,15.53851318359375,353.4459838867188,350.1688537597656,25,10176.606143375,0.11456298828125,1.003097534179688,0.0051422119140625,10176.590317375,-0.01492009369105992,0.02020220739712308,0.002970223563765374,10176.555302375,2.571791098590789,1.604765316136413,-1.461462030496907,-0.009207010269165039,-0.007825662381947041,0.008732697926461697,0.001801454578526318,0.01367673091590405,-0.003827938111498952,XArbitraryCorrectedZVertical,-0.6442270614003666,-0.29465985001739,0.3618148965609513,0.6060008636740718,0.1090536490082741,0.9940289855003357,0.003705867798998952,4.995129585266113,45.00585174560547,15.22018337249756,1,10172.564338625,unknown,2,2016-03-02 02:30:39.136,null,0,0,0,0,null,10175.628028625,0,0.0451355,97.42299,192.168.1.101,100.78.239.175,2,1,0.43,0
2016-03-02 02:30:43.238,42,234B9614-18C8-49ED-8B56-CAB6C4F40872,my_iOS_device_1,1456907442.999997,40.79925160393193,-96.68575792582396,370.2845,0,-1,3,10,-9999,1456907443.216009,5.549426078796387,42.93785095214844,15.53851318359375,353.4459838867188,350.1688537597656,25,10176.636416375,0.116119384765625,1.005767822265625,0.007354736328125,10176.625327375,-0.009737582209765727,0.01491556631720679,0.01263989516573408,10176.590317375,2.572503443149897,1.605188221701397,-1.461032476010521,0.003554167924448848,-0.009942504577338696,0.008919882588088512,0.003283653175458312,0.01405938714742661,-0.0003029233776032925,XArbitraryCorrectedZVertical,-0.6442663394757052,-0.2946255557013711,0.3620223835587313,0.6058518462038747,0.1094788014888763,0.9939820170402527,0.003766668494790792,5.009109497070312,45.00588607788086,15.21549415588379,1,10172.564338625,unknown,2,2016-03-02 02:30:39.136,null,0,0,0,0,null,10175.628028625,0,0.0451355,97.42299,192.168.1.101,100.78.239.175,2,1,0.43,0
2016-03-02 02:30:43.268,43,234B9614-18C8-49ED-8B56-CAB6C4F40872,my_iOS_device_1,1456907442.999997,40.79925160393193,-96.68575792582396,370.2845,0,-1,3,10,-9999,1456907443.216009,5.549426078796387,42.93785095214844,15.53851318359375,353.4459838867188,350.1688537597656,25,10176.666721375,0.12017822265625,1.009384155273438,0.0024566650390625,10176.660319375,-0.004433630582763916,-0.004221642959993608,0.01272671421727066,10176.625327375,2.571682098650011,1.603932705986383,-1.460433132905417,0.008736057206988335,-0.01522890012711287,0.01859021745622158,0.003095608204603195,0.01180588454008102,0.004392432514578104,XArbitraryCorrectedZVertical,-0.6442543093824825,-0.2945519641631972,0.3623564978736306,0.6057006634455794,0.1100788339972496,0.9939161539077759,0.00364894955419004,5.036093235015869,45.00353622436523,15.21353626251221,1,10172.564338625,unknown,2,2016-03-02 02:30:39.136,null,0,0,0,0,null,10175.628028625,0,0.0451355,97.42299,192.168.1.101,100.78.239.175,2,1,0.43,0
2016-03-02 02:30:43.312,44,234B9614-18C8-49ED-8B56-CAB6C4F40872,my_iOS_device_1,1456907442.999997,40.79925160393193,-96.68575792582396,370.2845,0,-1,3,10,-9999,1456907443.274794,6.03509521484375,43.4949951171875,15.53851318359375,353.4521484375,350.1750183105469,25,10176.697023375,0.12335205078125,1.003494262695312,0.001861572265625,10176.660319375,-0.004433630582763916,-0.004221642959993608,0.01272671421727066,10176.660319375,2.570001623814497,1.601334404579951,-1.459287390745998,0.01403878349810839,-0.03436573594808578,0.01867925375699997,0.00890633836388588,0.01390111166983843,0.001302019227296114,XArbitraryCorrectedZVertical,-0.6442102273199165,-0.2944350979720189,0.3630260025250341,0.6054034007083852,0.1112261116504669,0.9937893152236938,0.003397687803953886,5.08868932723999,44.99861907958984,15.21058654785156,1,10172.564338625,unknown,2,2016-03-02 02:30:39.136,null,0,0,0,0,null,10175.628028625,0,0.0451355,97.42299,192.168.1.101,100.78.239.175,2,1,0.43,0
2016-03-02 02:30:43.329,45,234B9614-18C8-49ED-8B56-CAB6C4F40872,my_iOS_device_1,1456907442.999997,40.79925160393193,-96.68575792582396,370.2845,0,-1,3,10,-9999,1456907443.274794,6.03509521484375,43.4949951171875,15.53851318359375,353.4521484375,350.1750183105469,25,10176.727327375,0.119415283203125,1.004196166992188,0.0015106201171875,10176.695350375,-0.01290701022306903,-0.01487082521089346,0.009411877608449035,10176.695350375,2.565277815472204,1.595181953366304,-1.45834779365248,0.005566041450947523,-0.04501482471823692,0.01536629535257816,0.00864075031131506,0.01330420281738043,-0.003331174375489354,XArbitraryCorrectedZVertical,-0.6439337672678188,-0.2944780876894387,0.3638581357560555,0.6051770123584738,0.1121783405542374,0.9936843514442444,0.002736081602051854,5.128377437591553,44.99794769287109,15.19922256469727,1,10172.564338625,unknown,2,2016-03-02 02:30:39.136,null,0,0,0,0,null,10175.628028625,0,0.0451355,97.42299,192.168.1.101,100.78.239.175,2,1,0.43,0
2016-03-02 02:30:43.362,46,234B9614-18C8-49ED-8B56-CAB6C4F40872,my_iOS_device_1,1456907442.999997,40.79925160393193,-96.68575792582396,370.2845,0,-1,3,10,-9999,1456907443.333347,6.208550453186035,44.08695983886719,15.8355712890625,353.4338684082031,350.15673828125,25,10176.757611375,0.1192626953125,1.00555419921875,-0.0030517578125,10176.730360375,-0.02034761599264141,-0.02764015000560539,0.008244614102667306,10176.695350375,2.565277815472204,1.595181953366304,-1.45834779365248,0.005566041450947523,-0.04501482471823692,0.01536629535257816,0.00864075031131506,0.01330420281738043,-0.003331174375489354,XArbitraryCorrectedZVertical,-0.6439337672678188,-0.2944780876894387,0.3638581357560555,0.6051770123584738,0.1121783405542374,0.9936843514442444,0.002736081602051854,5.128377437591553,44.99794769287109,15.19922256469727,1,10176.752263375,stationary,1,2016-03-02 02:30:43.337,null,0,0,0,0,null,10175.628028625,0,0.0451355,97.42299,192.168.1.101,100.78.239.175,2,1,0.43,0
2016-03-02 02:30:43.393,47,234B9614-18C8-49ED-8B56-CAB6C4F40872,my_iOS_device_1,1456907442.999997,40.79925160393193,-96.68575792582396,370.2845,0,-1,3,10,-9999,1456907443.391757,5.861642837524414,43.32089233398438,15.76953125,353.4247741699219,350.1476440429688,25,10176.787905375,0.115264892578125,1.011734008789062,0.0030364990234375,10176.765350375,-0.03411828935722314,-0.02978905468919033,0.00378275401234855,10176.765350375,2.565124122238048,1.591095540902602,-1.456643023652085,-0.01564399525523186,-0.05993281304836273,0.009741390123963356,0.005380619317293167,0.01206261571496725,-0.005363792181015015,XArbitraryCorrectedZVertical,-0.6434739041448723,-0.2951226046809036,0.365636603729979,0.6042796181435176,0.1138820797204971,0.9934915900230408,0.002312034135684371,5.251132965087891,44.99730682373047,15.15916728973389,1,10176.752263375,stationary,1,2016-03-02 02:30:43.337,null,0,0,0,0,null,10175.628028625,0,0.0451355,97.42299,192.168.1.101,100.78.239.175,2,1,0.43,0
2016-03-02 02:30:43.420,48,234B9614-18C8-49ED-8B56-CAB6C4F40872,my_iOS_device_1,1456907442.999997,40.79925160393193,-96.68575792582396,370.2845,0,-1,3,10,-9999,1456907443.391757,5.861642837524414,43.32089233398438,15.76953125,353.4247741699219,350.1476440429688,25,10176.818227375,0.1149749755859375,1.00384521484375,-0.001190185546875,10176.800379375,-0.01819498288353036,-0.03296141217969271,0.006147108428120897,10176.765350375,2.565124122238048,1.591095540902602,-1.456643023652085,-0.01564399525523186,-0.05993281304836273,0.009741390123963356,0.005380619317293167,0.01206261571496725,-0.005363792181015015,XArbitraryCorrectedZVertical,-0.6434739041448723,-0.2951226046809036,0.365636603729979,0.6042796181435176,0.1138820797204971,0.9934915900230408,0.002312034135684371,5.251132965087891,44.99730682373047,15.15916728973389,1,10176.752263375,stationary,1,2016-03-02 02:30:43.337,null,0,0,0,0,null,10175.628028625,0,0.0451355,97.42299,192.168.1.101,100.78.239.175,2,1,0.43,0
2016-03-02 02:30:43.472,49,234B9614-18C8-49ED-8B56-CAB6C4F40872,my_iOS_device_1,1456907442.999997,40.79925160393193,-96.68575792582396,370.2845,0,-1,3,10,-9999,1456907443.451949,6.104476928710938,43.35569763183594,15.60455322265625,353.42236328125,350.1452331542969,25,10176.848524375,0.1137847900390625,1.010421752929688,0.0010833740234375,10176.835379375,-0.02135775299410847,-0.014888934706306,0.005026183925306546,10176.800379375,2.567934214365496,1.591764416650614,-1.456186748335563,0.0002058386598946527,-0.0631311908364296,0.01213175430893898,-0.0003963203926105052,0.01325909979641438,0.0008829289581626654,XArbitraryCorrectedZVertical,-0.6432514844343693,-0.2956795277061359,0.3664065089476394,0.6037776203779127,0.1143336966633797,0.9934394955635071,0.002397710690274835,5.353812217712402,44.98626327514648,15.15601634979248,1,10176.752263375,stationary,1,2016-03-02 02:30:43.337,null,0,0,0,0,null,10175.628028625,0,0.0451355,97.42299,192.168.1.101,100.78.239.175,2,1,0.43,0
2016-03-02 02:30:43.481,50,234B9614-18C8-49ED-8B56-CAB6C4F40872,my_iOS_device_1,1456907442.999997,40.79925160393193,-96.68575792582396,370.2845,0,-1,3,10,-9999,1456907443.451949,6.104476928710938,43.35569763183594,15.60455322265625,353.42236328125,350.1452331542969,25,10176.878802375,0.1112823486328125,1.004959106445312,0.002685546875,10176.835379375,-0.02135775299410847,-0.014888934706306,0.005026183925306546,10176.835379375,2.56701110206084,1.58907677321105,-1.455895939994852,-0.002956409007310867,-0.04505861178040504,0.01101030223071575,-0.0007980105583555996,0.01407059654593468,-0.003987784963101149,XArbitraryCorrectedZVertical,-0.6429399553691925,-0.2961014375059237,0.3670790131958711,0.6034941180888896,0.1146285757422447,0.9934062361717224,0.002095695119351149,5.406199932098389,44.9842529296875,15.14339637756348,1,10176.752263375,stationary,1,2016-03-02 02:30:43.337,null,0,0,0,0,null,10175.628028625,0,0.0451355,97.42299,192.168.1.101,100.78.239.175,2,1,0.43,0
2016-03-02 02:30:43.512,51,234B9614-18C8-49ED-8B56-CAB6C4F40872,my_iOS_device_1,1456907442.999997,40.79925160393193,-96.68575792582396,370.2845,0,-1,3,10,-9999,1456907443.509177,6.624835968017578,42.90303039550781,16.09967041015625,353.3748779296875,350.0977478027344,25,10176.909107375,0.1103363037109375,1.008071899414062,-0.0048980712890625,10176.905417375,-0.0192314851797892,0.003193396463114014,0.006113552598385899,10176.870408375,2.565432095628978,1.586050692796734,-1.455720247685721,0.007698372472077608,-0.04079976677894592,0.01009605173021555,0.0009290094603784382,0.01378557924181223,0.002841422567144036,XArbitraryCorrectedZVertical,-0.6426449577286725,-0.2964509989302073,0.3676277615329587,0.603302654137553,0.1148089021444321,0.9933860301971436,0.001751472940668464,5.424057483673096,44.98535537719727,15.13372135162354,1,10176.752263375,stationary,1,2016-03-02 02:30:43.337,null,0,0,0,0,null,10175.628028625,0,0.0451355,97.42299,192.168.1.101,100.78.239.175,2,1,0.43,0
2016-03-02 02:30:43.554,52,234B9614-18C8-49ED-8B56-CAB6C4F40872,my_iOS_device_1,1456907442.999997,40.79925160393193,-96.68575792582396,370.2845,0,-1,3,10,-9999,1456907443.509177,6.624835968017578,42.90303039550781,16.09967041015625,353.3748779296875,350.0977478027344,25,10176.939395375,0.11444091796875,1.00653076171875,-0.0013275146484375,10176.940428375,-0.01487189047532949,0.006366286585834419,-0.001284975225963232,10176.905417375,2.56099862449088,1.580540200678246,-1.455694140535954,-0.00082825415302068,-0.02697613835334778,0.01209487579762936,-0.006551121361553669,0.01549756154417992,-0.009648711420595646,XArbitraryCorrectedZVertical,-0.642292822877302,-0.2966807273993647,0.3680683927147584,0.6032960582951125,0.1148427501320839,0.9933830499649048,0.001119048683904111,5.457771301269531,44.98675537109375,15.1174373626709,1,10176.752263375,stationary,1,2016-03-02 02:30:43.337,null,0,0,0,0,null,10176.942144375,0,0.4162292,97.41867,192.168.1.101,100.78.239.175,2,1,0.43,0
2016-03-02 02:30:43.573,53,234B9614-18C8-49ED-8B56-CAB6C4F40872,my_iOS_device_1,1456907442.999997,40.79925160393193,-96.68575792582396,370.2845,0,-1,3,10,-9999,1456907443.567976,6.694220542907715,42.76374816894531,15.83563232421875,353.3178405761719,350.0407104492188,25,10176.969713375,0.1206207275390625,1.0032958984375,0.0030517578125,10176.940428375,-0.01487189047532949,0.006366286585834419,-0.001284975225963232,10176.940428375,2.558706246663466,1.577379694789609,-1.455707635185922,0.003532127942889929,-0.02380312979221344,0.004694892559200525,-0.0003913872642442584,0.01314615830779076,-0.002083508996292949,XArbitraryCorrectedZVertical,-0.642049072825787,-0.29690231593224,0.368387665484989,0.6032516314077356,0.114832304418087,0.9933845996856689,0.0007559942314401269,5.465664863586426,44.99351501464844,15.09444618225098,1,10176.752263375,stationary,1,2016-03-02 02:30:43.337,null,0,0,0,0,null,10176.942144375,0,0.4162292,97.41867,192.168.1.101,100.78.239.175,2,1,0.43,0
2016-03-02 02:30:43.633,54,234B9614-18C8-49ED-8B56-CAB6C4F40872,my_iOS_device_1,1456907442.999997,40.79925160393193,-96.68575792582396,370.2845,0,-1,3,10,-9999,1456907443.602066,6.763601303100586,42.55482482910156,15.50555419921875,353.2853698730469,350.0082397460938,25,10177.000015375,0.12030029296875,1.006256103515625,0.0006256103515625,10176.975441375,-0.01603329502671304,0.01276639531751284,0.006155097911391135,10176.975441375,2.557911019438908,1.575898280697098,-1.455282451319139,0.002350662602111697,-0.01740028336644173,0.01214199420064688,0.005365073215216398,0.009960210882127285,0.002463723765686154,XArbitraryCorrectedZVertical,-0.6419580073404965,-0.2969577981469667,0.3687512305282108,0.6030990904611028,0.1152556538581848,0.9933356642723083,0.0005880341632291675,5.497347354888916,44.9981689453125,15.06904411315918,1,10176.752263375,stationary,1,2016-03-02 02:30:43.337,null,0,0,0,0,null,10176.942144375,0,0.4162292,97.41867,192.168.1.101,100.78.239.175,2,1,0.43,0
2016-03-02 02:30:43.634,55,234B9614-18C8-49ED-8B56-CAB6C4F40872,my_iOS_device_1,1456907442.999997,40.79925160393193,-96.68575792582396,370.2845,0,-1,3,10,-9999,1456907443.602066,6.763601303100586,42.55482482910156,15.50555419921875,353.2853698730469,350.0082397460938,25,10177.030312375,0.11444091796875,1.009536743164062,-0.00762939453125,10177.010452375,-0.01604634451605443,0.01489612524124921,0.007219563399095807,10177.010452375,2.55740718655579,1.574847335750523,-1.454634381419684,0.00233696517534554,-0.01527024433016777,0.01320704910904169,0.001440157764591277,0.01298006065189838,0.001865080557763577,XArbitraryCorrectedZVertical,-0.64193605020004,-0.2969054808608822,0.3691316016385817,0.6029155028360355,0.1158999279141426,0.9932608008384705,0.0004695142270065844,5.541136264801025,44.99433898925781,15.06444358825684,1,10176.752263375,stationary,1,2016-03-02 02:30:43.337,null,0,0,0,0,null,10176.942144375,0,0.4162292,97.41867,192.168.1.101,100.78.239.175,2,1,0.43,0
2016-03-02 02:30:43.674,56,234B9614-18C8-49ED-8B56-CAB6C4F40872,my_iOS_device_1,1456907442.999997,40.79925160393193,-96.68575792582396,370.2845,0,-1,3,10,-9999,1456907443.662686,6.728910446166992,42.798583984375,15.340576171875,353.227294921875,349.9501647949219,25,10177.060607375,0.1157684326171875,1.0078125,-0.002105712890625,10177.045460375,-0.0276036646986713,0.02974857464062112,-0.002547579898769799,10177.045460375,2.555258182860017,1.572428328832591,-1.454598316036833,-0.009218712337315083,-0.0004178349918220192,0.003438739571720362,-0.003311426844447851,0.01199242006987333,-0.008825683034956455,XArbitraryCorrectedZVertical,-0.6418139256006385,-0.2969334762723824,0.3692709584742843,0.6029463946333323,0.1159365475177765,0.9932566285133362,0.0001892088475869969,5.553356647491455,44.99442672729492,15.05967617034912,1,10176.752263375,stationary,1,2016-03-02 02:30:43.337,null,0,0,0,0,null,10176.942144375,0,0.4162292,97.41867,192.168.1.101,100.78.239.175,2,1,0.43,0
2016-03-02 02:30:43.712,57,234B9614-18C8-49ED-8B56-CAB6C4F40872,my_iOS_device_1,1456907442.999997,40.79925160393193,-96.68575792582396,370.2845,0,-1,3,10,-9999,1456907443.662686,6.728910446166992,42.798583984375,15.340576171875,353.227294921875,349.9501647949219,25,10177.090883375,0.1194915771484375,1.00897216796875,-7.62939453125e-05,10177.080475375,-0.02549657164420061,0.02230930045159378,-0.001447428052458066,10177.045460375,2.555258182860017,1.572428328832591,-1.454598316036833,-0.009218712337315083,-0.0004178349918220192,0.003438739571720362,-0.003311426844447851,0.01199242006987333,-0.008825683034956455,XArbitraryCorrectedZVertical,-0.6418139256006385,-0.2969334762723824,0.3692709584742843,0.6029463946333323,0.1159365475177765,0.9932566285133362,0.0001892088475869969,5.553356647491455,44.99442672729492,15.05967617034912,1,10176.752263375,stationary,1,2016-03-02 02:30:43.337,null,0,0,0,0,null,10176.942144375,0,0.4162292,97.41867,192.168.1.101,100.78.239.175,2,1,0.43,0
2016-03-02 02:30:43.735,58,234B9614-18C8-49ED-8B56-CAB6C4F40872,my_iOS_device_1,1456907442.999997,40.79925160393193,-96.68575792582396,370.2845,0,-1,3,10,-9999,1456907443.723329,6.763601303100586,42.69412231445312,15.57147216796875,353.1678466796875,349.8907165527344,25,10177.121208375,0.1204986572265625,1.008468627929688,-0.005096435546875,10177.115472375,-0.01910951240186357,0.009550361985133156,-0.002413889212047821,10177.080475375,2.556416981980326,1.573400450842021,-1.454513868541258,-0.007110761478543282,-0.007857018150389194,0.004538555629551411,0.004035964608192444,0.01468776073306799,-0.002362068276852369,XArbitraryCorrectedZVertical,-0.6418339635864256,-0.2969852336542988,0.3693337452951184,0.6028611106751497,0.1160201877355576,0.9932467937469482,0.0003021316369995475,5.556591987609863,44.99610137939453,15.05347728729248,1,10176.752263375,stationary,1,2016-03-02 02:30:43.337,null,0,0,0,0,null,10176.942144375,0,0.4162292,97.41867,192.168.1.101,100.78.239.175,2,1,0.43,0
2016-03-02 02:30:43.754,59,234B9614-18C8-49ED-8B56-CAB6C4F40872,my_iOS_device_1,1456907442.999997,40.79925160393193,-96.68575792582396,370.2845,0,-1,3,10,-9999,1456907443.723329,6.763601303100586,42.69412231445312,15.57147216796875,353.1678466796875,349.8907165527344,25,10177.151504375,0.1153564453125,1.005569458007812,0.0029144287109375,10177.150473375,-0.01060417482847751,0.004239752455406147,-0.002287655376378065,10177.115472375,2.556848695030587,1.573245862842359,-1.454213435923109,-0.0007283135782927275,-0.02058931812644005,0.003571784123778343,0.004012180026620626,0.0145242977887392,-0.004587905947118998,XArbitraryCorrectedZVertical,-0.6417861374275721,-0.2970740941751727,0.3696039024038172,0.6027026561278974,0.1163186281919479,0.9932119250297546,0.0002849272568710148,5.562697410583496,44.99445343017578,15.05614471435547,1,10176.752263375,stationary,1,2016-03-02 02:30:43.337,null,0,0,0,0,null,10176.942144375,0,0.4162292,97.41867,192.168.1.101,100.78.239.175,2,1,0.43,0
