loggingTime,loggingSample,identifierForVendor,deviceID,locationTimestamp_since1970,locationLatitude,locationLongitude,locationAltitude,locationSpeed,locationCourse,locationVerticalAccuracy,locationHorizontalAccuracy,locationFloor,locationHeadingTimestamp_since1970,locationHeadingX,locationHeadingY,locationHeadingZ,locationTrueHeading,locationMagneticHeading,locationHeadingAccuracy,accelerometerTimestamp_sinceReboot,accelerometerAccelerationX,accelerometerAccelerationY,accelerometerAccelerationZ,gyroTimestamp_sinceReboot,gyroRotationX,gyroRotationY,gyroRotationZ,motionTimestamp_sinceReboot,motionYaw,motionRoll,motionPitch,motionRotationRateX,motionRotationRateY,motionRotationRateZ,motionUserAccelerationX,motionUserAccelerationY,motionUserAccelerationZ,motionAttitudeReferenceFrame,motionQuaternionX,motionQuaternionY,motionQuaternionZ,motionQuaternionW,motionGravityX,motionGravityY,motionGravityZ,motionMagneticFieldX,motionMagneticFieldY,motionMagneticFieldZ,motionMagneticFieldCalibrationAccuracy,activityTimestamp_sinceReboot,activity,activityActivityConfidence,activityActivityStartDate,pedometerStartDate,pedometerNumberofSteps,pedometerDistance,pedometerFloorAscended,pedometerFloorDescended,pedometerEndDate,altimeterTimestamp_sinceReboot,altimeterReset,altimeterRelativeAltitude,altimeterPressure,IP_en0,IP_pdp_ip0,deviceOrientation,batteryState,batteryLevel,state
2016-03-02 02:44:18.004,1,234B9614-18C8-49ED-8B56-CAB6C4F40872,my_iOS_device_1,1456908256.995615,40.79916929364278,-96.68572364383999,367.4948,0.37,16.875,4,10,-9999,1456908257.975363,25.13422584533691,43.08335876464844,3.44940185546875,273.3052978515625,270.0281677246094,25,10991.40815425,0.0262451171875,1.008224487304688,0.0945587158203125,10991.36937325,-0.04032851470317891,0.02334979748948774,-0.005926332373753329,10991.36937325,2.825330290623771,2.561044932732686,-1.509072719765695,-0.02226039581000805,-0.005370865110307932,-0.0003582479548640549,0.007854216732084751,0.01981811597943306,-0.01437726430594921,XArbitraryCorrectedZVertical,0.7202704219685958,0.08366370296652094,-0.1025821427339186,-0.6809462592857032,0.03383279591798782,0.998095691204071,0.05157819017767906,22.24764060974121,43.14250946044922,1.738219976425171,1,10976.574971875,walking,0,2016-03-02 02:44:03.140,2016-03-02 02:41:14.235,98,79.59084,3,3,2016-03-02 02:44:13.518,10990.31970525,0,-2.582611,97.43036,192.168.1.101,100.78.239.175,2,1,0.37,0
2016-03-02 02:44:18.034,2,234B9614-18C8-49ED-8B56-CAB6C4F40872,my_iOS_device_1,1456908256.995615,40.79916929364278,-96.68572364383999,367.4948,0.37,16.875,4,10,-9999,1456908258.025301,24.65077018737793,43.15292358398438,3.44940185546875,273.3119201660156,270.0347900390625,25,10991.43844725,0.031951904296875,1.0146484375,0.0432281494140625,10991.43939425,-0.005242965238038996,0.02231569203820997,-0.004350539956753443,10991.40437825,2.842001015678707,2.577981757067461,-1.507638857391326,-0.05292626097798347,-0.003302485216408968,-0.01359272003173828,0.00242912070825696,0.01482641138136387,0.003226076019927859,XArbitraryCorrectedZVertical,0.7208835201856355,0.08368815502483723,-0.1023670918178971,-0.6803265550792615,0.03371895104646683,0.9980062246322632,0.05335351452231407,22.25442504882812,43.13909912109375,1.736026763916016,1,10976.574971875,walking,0,2016-03-02 02:44:03.140,2016-03-02 02:41:14.235,98,79.59084,3,3,2016-03-02 02:44:13.518,10990.31970525,0,-2.582611,97.43036,192.168.1.101,100.78.239.175,2,1,0.37,0
2016-03-02 02:44:18.065,3,234B9614-18C8-49ED-8B56-CAB6C4F40872,my_iOS_device_1,1456908256.995615,40.79916929364278,-96.68572364383999,367.4948,0.37,16.875,4,10,-9999,1456908258.025301,24.65077018737793,43.15292358398438,3.44940185546875,273.3119201660156,270.0347900390625,25,10991.46875425,0.03643798828125,1.00872802734375,0.047576904296875,10991.43939425,-0.005242965238038996,0.02231569203820997,-0.004350539956753443,10991.43939425,2.84991871043126,2.585445702840772,-1.507739741654318,0.01282332558184862,-0.006404393818229437,0.001216144533827901,-0.001314730383455753,0.0166358444839716,-0.01029004249721766,XArbitraryCorrectedZVertical,0.7209022450174656,0.08401814717177046,-0.1023552904357389,-0.6802678138750794,0.03326663374900818,0.9980126023292542,0.05351819097995758,22.25154304504395,43.13781356811523,1.803520679473877,1,10976.574971875,walking,0,2016-03-02 02:44:03.140,2016-03-02 02:41:14.235,98,79.59084,3,3,2016-03-02 02:44:13.518,10990.31970525,0,-2.582611,97.43036,192.168.1.101,100.78.239.175,2,1,0.37,0
2016-03-02 02:44:18.097,4,234B9614-18C8-49ED-8B56-CAB6C4F40872,my_iOS_device_1,1456908257.995615,40.79916929364278,-96.68572364383999,367.4799,0,346.640625,4,10,-9999,1456908258.063215,24.78889846801758,43.15292358398438,3.3173828125,273.3079223632812,270.0307922363281,25,10991.49897754167,0.0407562255859375,1.012191772460938,0.0541229248046875,10991.47439025,-0.006258694877795218,0.02762310577462888,-0.007565241708588092,10991.47439025,2.843685922456395,2.579127270493455,-1.508139480028241,0.01180908270180225,-0.00109693338163197,-0.001997986808419228,0.003046617610380054,0.01069032587110996,-0.005392539780586958,XArbitraryCorrectedZVertical,0.720716329346713,0.08398032253446436,-0.1024542875496528,-0.6804545517539456,0.03339137136936188,0.9980376958847046,0.05296944454312325,22.23307037353516,43.14755249023438,1.798383712768555,1,10976.574971875,walking,0,2016-03-02 02:44:03.140,2016-03-02 02:41:14.235,98,79.59084,3,3,2016-03-02 02:44:13.518,10990.31970525,0,-2.582611,97.43036,192.168.1.101,100.78.239.175,2,1,0.37,0
2016-03-02 02:44:18.119,5,234B9614-18C8-49ED-8B56-CAB6C4F40872,my_iOS_device_1,1456908257.995615,40.79916929364278,-96.68572364383999,367.4799,0,346.640625,4,10,-9999,1456908258.114539,25.16875839233398,42.77032470703125,3.48236083984375,273.3105163574219,270.0333862304688,25,10991.52927754167,0.0373382568359375,1.012802124023438,0.0587005615234375,10991.50936254167,-0.02751151932495456,0.0159038653977352,-0.009999370944920516,10991.50936254167,2.841727746997688,2.576940784737768,-1.508119041475519,-0.009443053044378757,-0.01281603053212166,-0.004430478438735008,0.002752118278294802,0.01577278226613998,0.004703647922724485,XArbitraryCorrectedZVertical,0.7206928321051829,0.08401554378655821,-0.1025789561841964,-0.6804563085919497,0.03351802378892899,0.9980364441871643,0.05291353911161423,22.23307037353516,43.14755249023438,1.798383712768555,1,10976.574971875,walking,0,2016-03-02 02:44:03.140,2016-03-02 02:41:14.235,98,79.59084,3,3,2016-03-02 02:44:13.518,10990.31970525,0,-2.582611,97.43036,192.168.1.101,100.78.239.175,2,1,0.37,0
2016-03-02 02:44:18.156,6,234B9614-18C8-49ED-8B56-CAB6C4F40872,my_iOS_device_1,1456908257.995615,40.79916929364278,-96.68572364383999,367.4799,0,346.640625,4,10,-9999,1456908258.114539,25.16875839233398,42.77032470703125,3.48236083984375,273.3105163574219,270.0333862304688,25,10991.55956754167,0.0336456298828125,1.01007080078125,0.04656982421875,10991.54437254167,-0.007449926833387661,0.01382153974140224,0.0009504821930492801,10991.54437254167,2.839346443231281,2.57403423432791,-1.507928946234492,0.01061772089451551,-0.01489814650267363,0.006520061288028955,0.00312208547256887,0.01032206043601036,-0.0008060703403316438,XArbitraryCorrectedZVertical,0.7207025273285568,0.08411778751668186,-0.1028441225314404,-0.6803933798812491,0.03377366811037064,0.9980245232582092,0.05297587066888809,22.24104309082031,43.14407730102539,1.783089160919189,1,10976.574971875,walking,0,2016-03-02 02:44:03.140,2016-03-02 02:41:14.235,98,79.59084,3,3,2016-03-02 02:44:13.518,10990.31970525,0,-2.582611,97.43036,192.168.1.101,100.78.239.175,2,1,0.37,0
2016-03-02 02:44:18.184,7,234B9614-18C8-49ED-8B56-CAB6C4F40872,my_iOS_device_1,1456908257.995615,40.79916929364278,-96.68572364383999,367.4799,0,346.640625,4,10,-9999,1456908258.173489,25.34142303466797,42.73553466796875,3.71331787109375,273.3216552734375,270.0445251464844,25,10991.58986154167,0.0389251708984375,1.018753051757812,0.0477294921875,10991.57937454167,-0.02334793327672468,0.01167103716116325,-0.003542270565914395,10991.54437254167,2.839346443231281,2.57403423432791,-1.507928946234492,0.01061772089451551,-0.01489814650267363,0.006520061288028955,0.00312208547256887,0.01032206043601036,-0.0008060703403316438,XArbitraryCorrectedZVertical,0.7207025273285568,0.08411778751668186,-0.1028441225314404,-0.6803933798812491,0.03377366811037064,0.9980245232582092,0.05297587066888809,22.24104309082031,43.14407730102539,1.783089160919189,1,10976.574971875,walking,0,2016-03-02 02:44:03.140,2016-03-02 02:41:14.235,98,79.59084,3,3,2016-03-02 02:44:13.518,10990.31970525,0,-2.582611,97.43036,192.168.1.101,100.78.239.175,2,1,0.37,0
2016-03-02 02:44:18.223,8,234B9614-18C8-49ED-8B56-CAB6C4F40872,my_iOS_device_1,1456908257.995615,40.79916929364278,-96.68572364383999,367.4799,0,346.640625,4,10,-9999,1456908258.173489,25.34142303466797,42.73553466796875,3.71331787109375,273.3216552734375,270.0445251464844,25,10991.62015354167,0.04046630859375,1.009841918945312,0.0544891357421875,10991.61440154167,-0.02551761061681224,0.01380502814264375,-0.000377636242573236,10991.57937454167,2.834358250129068,2.568448500195379,-1.508273604806332,-0.005278387106955051,-0.01704859174787998,0.002027015667408705,0.0004192435881122947,0.01933366991579533,-0.009421818889677525,XArbitraryCorrectedZVertical,0.7205183833462231,0.08427306586144287,-0.103108454564029,-0.6805291736787175,0.0338825136423111,0.9980461001396179,0.05249737948179245,22.25313377380371,43.13893127441406,1.756610155105591,1,10976.574971875,walking,0,2016-03-02 02:44:03.140,2016-03-02 02:41:14.235,98,79.59084,3,3,2016-03-02 02:44:13.518,10990.31970525,0,-2.582611,97.43036,192.168.1.101,100.78.239.175,2,1,0.37,0
2016-03-02 02:44:18.239,9,234B9614-18C8-49ED-8B56-CAB6C4F40872,my_iOS_device_1,1456908257.995615,40.79916929364278,-96.68572364383999,367.4799,0,346.640625,4,10,-9999,1456908258.232165,24.96156692504883,43.11811828613281,3.61431884765625,273.3387145996094,270.0615844726562,25,10991.65044254167,0.0311737060546875,1.013992309570312,0.056793212890625,10991.64940254167,-0.02218120240316097,0.03185886348839991,-0.009930128756578456,10991.61440154167,2.828549243804051,2.561967969634633,-1.508284408733538,-0.007446159608662128,-0.01491453126072884,0.005192500539124012,0.003686726558953524,0.01354991365224123,-0.004889141768217087,XArbitraryCorrectedZVertical,0.7204253138273516,0.08438725018248876,-0.1034647100974458,-0.6805594852529894,0.03421610593795776,0.9980467557907104,0.05226768180727959,22.25473785400391,43.13885879516602,1.737944841384888,1,10976.574971875,walking,0,2016-03-02 02:44:03.140,2016-03-02 02:41:14.235,98,79.59084,3,3,2016-03-02 02:44:13.518,10991.63400654167,0,-2.582611,97.43036,192.168.1.101,100.78.239.175,2,1,0.37,0
2016-03-02 02:44:18.269,10,234B9614-18C8-49ED-8B56-CAB6C4F40872,my_iOS_device_1,1456908257.995615,40.79916929364278,-96.68572364383999,367.4799,0,346.640625,4,10,-9999,1456908258.232165,24.96156692504883,43.11811828613281,3.61431884765625,273.3387145996094,270.0615844726562,25,10991.68073754167,0.0262298583984375,1.011764526367188,0.05084228515625,10991.64940254167,-0.02218120240316097,0.03185886348839991,-0.009930128756578456,10991.64940254167,2.830175773072363,2.563407494041816,-1.507899654610516,-0.004110733047127724,0.003139531007036567,-0.00435927975922823,-0.0002778102061711252,0.01383342314511538,0.0035901740193367,XArbitraryCorrectedZVertical,0.720549636312168,0.08442424684317995,-0.1035575739242825,-0.6804091394434996,0.03435068577528,0.9980226755142212,0.0526384636759758,22.27002716064453,43.13193511962891,1.7136549949646,1,10976.574971875,walking,0,2016-03-02 02:44:03.140,2016-03-02 02:41:14.235,98,79.59084,3,3,2016-03-02 02:44:13.518,10991.63400654167,0,-2.582611,97.43036,192.168.1.101,100.78.239.175,2,1,0.37,0
2016-03-02 02:44:18.300,11,234B9614-18C8-49ED-8B56-CAB6C4F40872,my_iOS_device_1,1456908257.995615,40.79916929364278,-96.68572364383999,367.4799,0,346.640625,4,10,-9999,1456908258.292615,24.82343482971191,43.04856872558594,3.87835693359375,273.3596496582031,270.08251953125,25,10991.71102954167,0.039947509765625,1.015090942382812,0.053955078125,10991.68442754167,-0.02537220202129391,0.03185646664341884,-0.009976467759545833,10991.68442754167,2.837353410963221,2.570680149825827,-1.508234632618175,-0.007301051169633865,0.003137347521260381,-0.0044077611528337,-0.007556435186415911,0.01372087094932795,-0.001763306092470884,XArbitraryCorrectedZVertical,0.7205191567239123,0.08458688091722462,-0.1033293690499121,-0.6804559103000477,0.03378629311919212,0.9980436563491821,0.05260559171438217,22.27678489685059,43.1281623840332,1.720891952514648,1,10976.574971875,walking,0,2016-03-02 02:44:03.140,2016-03-02 02:41:14.235,98,79.59084,3,3,2016-03-02 02:44:13.518,10991.63400654167,0,-2.582611,97.43036,192.168.1.101,100.78.239.175,2,1,0.37,0
2016-03-02 02:44:18.329,12,234B9614-18C8-49ED-8B56-CAB6C4F40872,my_iOS_device_1,1456908257.995615,40.79916929364278,-96.68572364383999,367.4799,0,346.640625,4,10,-9999,1456908258.292615,24.82343482971191,43.04856872558594,3.87835693359375,273.3596496582031,270.08251953125,25,10991.74131954167,0.0353851318359375,1.00946044921875,0.060394287109375,10991.71943854167,-0.02542173681756938,0.02442145351213562,-0.006776147077597614,10991.71943854167,2.840351390047086,2.573656125667952,-1.50799229949062,-0.007350582629442215,-0.004297505598515272,-0.001207156106829643,0.006187824998050928,0.0170624665915966,0.001045284094288945,XArbitraryCorrectedZVertical,0.7206210395042203,0.08461805036615881,-0.1033128986769551,-0.6803466380772484,0.03375968337059021,0.9980284571647644,0.05290979519486427,22.24418830871582,43.14448547363281,1.73321270942688,1,10976.574971875,walking,0,2016-03-02 02:44:03.140,2016-03-02 02:41:14.235,98,79.59084,3,3,2016-03-02 02:44:13.518,10991.63400654167,0,-2.582611,97.43036,192.168.1.101,100.78.239.175,2,1,0.37,0
2016-03-02 02:44:18.381,13,234B9614-18C8-49ED-8B56-CAB6C4F40872,my_iOS_device_1,1456908257.995615,40.79916929364278,-96.68572364383999,367.4799,0,346.640625,4,10,-9999,1456908258.353167,25.47955322265625,43.01376342773438,3.581298828125,273.3717041015625,270.0945739746094,25,10991.77161354167,0.0303192138671875,1.014205932617188,0.054534912109375,10991.75445054167,-0.03074512952052877,0.03718119092692327,-0.005794239583685398,10991.75445054167,2.845555551268562,2.578998894687347,-1.507409203964662,-0.01267972961068153,0.008424310013651848,-0.000227010968956165,-0.002887865295633674,0.01130089350044727,0.003486218629404902,XArbitraryCorrectedZVertical,0.7208574717950695,0.08458919291718899,-0.1032429349498735,-0.680110336770245,0.03378691151738167,0.997991681098938,0.05358165130019188,22.25262260437012,43.13924026489258,1.755412101745605,1,10976.574971875,walking,0,2016-03-02 02:44:03.140,2016-03-02 02:41:14.235,98,79.59084,3,3,2016-03-02 02:44:13.518,10991.63400654167,0,-2.582611,97.43036,192.168.1.101,100.78.239.175,2,1,0.37,0
2016-03-02 02:44:18.390,14,234B9614-18C8-49ED-8B56-CAB6C4F40872,my_iOS_device_1,1456908257.995615,40.79916929364278,-96.68572364383999,367.4799,0,346.640625,4,10,-9999,1456908258.353167,25.47955322265625,43.01376342773438,3.581298828125,273.3717041015625,270.0945739746094,25,10991.80188854167,0.0313262939453125,1.012619018554688,0.0572967529296875,10991.78946654167,-0.0253852515106353,0.03398619656715521,-0.008912002271841163,10991.75445054167,2.845555551268562,2.578998894687347,-1.507409203964662,-0.01267972961068153,0.008424310013651848,-0.000227010968956165,-0.002887865295633674,0.01130089350044727,0.003486218629404902,XArbitraryCorrectedZVertical,0.7208574717950695,0.08458919291718899,-0.1032429349498735,-0.680110336770245,0.03378691151738167,0.997991681098938,0.05358165130019188,22.25262260437012,43.13924026489258,1.755412101745605,1,10976.574971875,walking,0,2016-03-02 02:44:03.140,2016-03-02 02:41:14.235,98,79.59084,3,3,2016-03-02 02:44:13.518,10991.63400654167,0,-2.582611,97.43036,192.168.1.101,100.78.239.175,2,1,0.37,0
2016-03-02 02:44:18.420,15,234B9614-18C8-49ED-8B56-CAB6C4F40872,my_iOS_device_1,1456908257.995615,40.79916929364278,-96.68572364383999,367.4799,0,346.640625,4,10,-9999,1456908258.412695,24.89249610900879,42.909423828125,3.61431884765625,273.3818359375,270.1047058105469,25,10991.83219554167,0.0404510498046875,1.01470947265625,0.0439300537109375,10991.82447854167,-0.032836509924568,0.02653680236598556,-0.009016398186572268,10991.78946654167,2.852408317112666,2.586125793851679,-1.507179282969606,-0.007320149336010218,0.005229522008448839,-0.003345571924000978,0.0006392392097041011,0.0192958302795887,-0.0007933888700790703,XArbitraryCorrectedZVertical,0.7210065850069868,0.0846021686725386,-0.1030372463152038,-0.6799818404223797,0.03352519124746323,0.9979771375656128,0.05401604622602463,22.24991416931152,43.13981628417969,1.775493144989014,1,10976.574971875,walking,0,2016-03-02 02:44:03.140,2016-03-02 02:41:14.235,98,79.59084,3,3,2016-03-02 02:44:13.518,10991.63400654167,0,-2.582611,97.43036,192.168.1.101,100.78.239.175,2,1,0.37,0
2016-03-02 02:44:18.461,16,234B9614-18C8-49ED-8B56-CAB6C4F40872,my_iOS_device_1,1456908257.995615,40.79916929364278,-96.68572364383999,367.4799,0,346.640625,4,10,-9999,1456908258.412695,24.89249610900879,42.909423828125,3.61431884765625,273.3818359375,270.1047058105469,25,10991.86248854167,0.0275726318359375,1.0115966796875,0.063873291015625,10991.85948554167,-0.03388979013569434,0.04036020632015085,-0.009038768739728935,10991.82447854167,2.855856867443461,2.589571858769802,-1.507117362744698,-0.01477095298469067,-0.002219671383500099,-0.003450093325227499,0.003066734643653035,0.01540877856314182,-0.007583528757095337,XArbitraryCorrectedZVertical,0.721057421062971,0.0846648140001571,-0.1029761570642079,-0.6799293903609291,0.03337125480175018,0.9979732036590576,0.05418387055397034,22.2313289642334,43.14807891845703,1.8072190284729,1,10976.574971875,walking,0,2016-03-02 02:44:03.140,2016-03-02 02:41:14.235,98,79.59084,3,3,2016-03-02 02:44:13.518,10991.63400654167,0,-2.582611,97.43036,192.168.1.101,100.78.239.175,2,1,0.37,0
2016-03-02 02:44:18.486,17,234B9614-18C8-49ED-8B56-CAB6C4F40872,my_iOS_device_1,1456908257.995615,40.79916929364278,-96.68572364383999,367.4799,0,346.640625,4,10,-9999,1456908258.48088,24.85796356201172,42.9442138671875,3.31732177734375,273.3727416992188,270.0956115722656,25,10991.89278154167,0.024627685546875,1.015380859375,0.0531463623046875,10991.89450554167,-0.03593429890454817,0.05310476371672505,-0.01440370675569356,10991.85948554167,2.856603719330899,2.590390164996941,-1.506789563881995,-0.01582394726574421,0.01160385366529226,-0.003471356118097901,0.0002999917196575552,0.01100464258342981,0.01046682335436344,XArbitraryCorrectedZVertical,0.7211701228647311,0.08460836058926195,-0.1029815752728887,-0.6798160592100932,0.03349822759628296,0.9979522824287415,0.05448983982205391,22.2313289642334,43.14807891845703,1.8072190284729,1,10976.574971875,walking,0,2016-03-02 02:44:03.140,2016-03-02 02:41:14.235,98,79.59084,3,3,2016-03-02 02:44:13.518,10991.63400654167,0,-2.582611,97.43036,192.168.1.101,100.78.239.175,2,1,0.37,0
2016-03-02 02:44:18.519,18,234B9614-18C8-49ED-8B56-CAB6C4F40872,my_iOS_device_1,1456908257.995615,40.79916929364278,-96.68572364383999,367.4799,0,346.640625,4,10,-9999,1456908258.48088,24.85796356201172,42.9442138671875,3.31732177734375,273.3727416992188,270.0956115722656,25,10991.92307554167,0.0356292724609375,1.015380859375,0.059356689453125,10991.89450554167,-0.03593429890454817,0.05310476371672505,-0.01440370675569356,10991.89450554167,2.873097748729523,2.607588113520953,-1.50639124251998,-0.01786934211850166,0.0243487823754549,-0.008839189074933529,-0.008130840957164764,0.01745414920151234,-0.002253652550280094,XArbitraryCorrectedZVertical,0.7214800029865083,0.08465584861519246,-0.1024397885157128,-0.6795631555011247,0.03275852650403976,0.9979267120361328,0.05540001392364502,22.22416305541992,43.14969253540039,1.856185913085938,1,10976.574971875,walking,0,2016-03-02 02:44:03.140,2016-03-02 02:41:14.235,98,79.59084,3,3,2016-03-02 02:44:13.518,10991.63400654167,0,-2.582611,97.43036,192.168.1.101,100.78.239.175,2,1,0.37,0
2016-03-02 02:44:18.544,19,234B9614-18C8-49ED-8B56-CAB6C4F40872,my_iOS_device_1,1456908257.995615,40.79916929364278,-96.68572364383999,367.4799,0,346.640625,4,10,-9999,1456908258.526437,25.06515884399414,42.87466430664062,3.1192626953125,273.3576965332031,270.08056640625,25,10991.95336254167,0.038482666015625,1.007904052734375,0.05517578125,10991.92951554167,-0.02960103551623073,0.04673794449867261,-0.0111112407000286,10991.92951554167,2.881169866665755,2.616264631966677,-1.506129781157122,-0.01153610926121473,0.01798214204609394,-0.005547063425183296,0.003221803111955523,0.01747101172804832,0.00344879855401814,XArbitraryCorrectedZVertical,0.7216643666104161,0.0845842028284501,-0.1020872424353022,-0.6794293558042501,0.03240747004747391,0.9979098439216614,0.05590789020061493,22.1923828125,43.16426467895508,1.897210359573364,1,10976.574971875,walking,0,2016-03-02 02:44:03.140,2016-03-02 02:41:14.235,98,79.59084,3,3,2016-03-02 02:44:13.518,10991.63400654167,0,-2.582611,97.43036,192.168.1.101,100.78.239.175,2,1,0.37,0
2016-03-02 02:44:18.574,20,234B9614-18C8-49ED-8B56-CAB6C4F40872,my_iOS_device_1,1456908257.995615,40.79916929364278,-96.68572364383999,367.4799,0,346.640625,4,10,-9999,1456908258.526437,25.06515884399414,42.87466430664062,3.1192626953125,273.3576965332031,270.08056640625,25,10991.98365754167,0.0378570556640625,1.012542724609375,0.05841064453125,10991.96452754167,-0.03394837967967608,0.0403719242289472,-0.004776645731166122,10991.96452754167,2.880660219231851,2.61636058391722,-1.505683373089814,-0.01588356122374535,0.01161627843976021,0.0007893763831816614,0.004956928547471762,0.01338008604943752,-0.005896642804145813,XArbitraryCorrectedZVertical,0.7218314258116878,0.08430660801135238,-0.1019392287147513,-0.6793086060144444,0.0326254703104496,0.9978808760643005,0.05629642307758331,22.19160079956055,43.16365432739258,1.92006254196167,1,10976.574971875,walking,0,2016-03-02 02:44:03.140,2016-03-02 02:41:14.235,98,79.59084,3,3,2016-03-02 02:44:13.518,10991.63400654167,0,-2.582611,97.43036,192.168.1.101,100.78.239.175,2,1,0.37,0
2016-03-02 02:44:18.621,21,234B9614-18C8-49ED-8B56-CAB6C4F40872,my_iOS_device_1,1456908257.995615,40.79916929364278,-96.68572364383999,367.4799,0,346.640625,4,10,-9999,1456908258.585211,25.09969329833984,42.909423828125,3.2183837890625,273.3353576660156,270.0582275390625,25,10992.01394754167,0.032073974609375,1.015380859375,0.0612945556640625,10991.99954354167,-0.03284236887896617,0.03823713429913968,-0.00795672638882974,10991.96452754167,2.880660219231851,2.61636058391722,-1.505683373089814,-0.01588356122374535,0.01161627843976021,0.0007893763831816614,0.004956928547471762,0.01338008604943752,-0.005896642804145813,XArbitraryCorrectedZVertical,0.7218314258116878,0.08430660801135238,-0.1019392287147513,-0.6793086060144444,0.0326254703104496,0.9978808760643005,0.05629642307758331,22.19160079956055,43.16365432739258,1.92006254196167,1,10976.574971875,walking,0,2016-03-02 02:44:03.140,2016-03-02 02:41:14.235,98,79.59084,3,3,2016-03-02 02:44:13.518,10991.63400654167,0,-2.582611,97.43036,192.168.1.101,100.78.239.175,2,1,0.37,0
2016-03-02 02:44:18.635,22,234B9614-18C8-49ED-8B56-CAB6C4F40872,my_iOS_device_1,1456908257.995615,40.79916929364278,-96.68572364383999,367.4799,0,346.640625,4,10,-9999,1456908258.585211,25.09969329833984,42.909423828125,3.2183837890625,273.3353576660156,270.0582275390625,25,10992.04423754167,0.0322265625,1.012222290039062,0.054779052734375,10992.03453654167,-0.02852511843583872,0.04354561329999463,-0.01215972722119279,10991.99954354167,2.884098470865587,2.62008800481319,-1.505092361925381,-0.01477779913693666,0.009481635875999928,-0.002389813540503383,0.002996360650286078,0.01509718224406242,0.005342125426977873,XArbitraryCorrectedZVertical,0.7220627603037587,0.08420134594413731,-0.101840106914185,-0.6790906391251319,0.03270920738577843,0.9978422522544861,0.05692899227142334,22.20254325866699,43.15673446655273,1.948904037475586,1,10976.574971875,walking,0,2016-03-02 02:44:03.140,2016-03-02 02:41:14.235,98,79.59084,3,3,2016-03-02 02:44:13.518,10991.63400654167,0,-2.582611,97.43036,192.168.1.101,100.78.239.175,2,1,0.37,0
2016-03-02 02:44:18.665,23,234B9614-18C8-49ED-8B56-CAB6C4F40872,my_iOS_device_1,1456908257.995615,40.79916929364278,-96.68572364383999,367.4799,0,346.640625,4,10,-9999,1456908258.644372,24.92703247070312,43.36155700683594,3.4493408203125,273.3248596191406,270.0477294921875,25,10992.07452854167,0.0343170166015625,1.012893676757812,0.0553436279296875,10992.06955054167,-0.03495505457172603,0.03823260692528655,-0.009053149809615363,10992.03453654167,2.890173540391934,2.6265946092821,-1.504751495080241,-0.01046077441424131,0.01479035057127476,-0.006592943798750639,0.0009568987879902124,0.01618773490190506,-0.004229225683957338,XArbitraryCorrectedZVertical,0.7222456493765211,0.08413996375320917,-0.10159811841159,-0.6789399905672671,0.03250562399625778,0.9978198409080505,0.05743662267923355,22.20503234863281,43.15444183349609,1.971157312393188,1,10992.08075354167,stationary,1,2016-03-02 02:44:18.650,2016-03-02 02:41:14.235,98,79.59084,3,3,2016-03-02 02:44:13.518,10991.63400654167,0,-2.582611,97.43036,192.168.1.101,100.78.239.175,2,1,0.37,0
2016-03-02 02:44:18.702,24,234B9614-18C8-49ED-8B56-CAB6C4F40872,my_iOS_device_1,1456908257.995615,40.79916929364278,-96.68572364383999,367.4799,0,346.640625,4,10,-9999,1456908258.644372,24.92703247070312,43.36155700683594,3.4493408203125,273.3248596191406,270.0477294921875,25,10992.10481554167,0.0310211181640625,1.013320922851562,0.055877685546875,10992.06955054167,-0.03495505457172603,0.03823260692528655,-0.009053149809615363,10992.06955054167,2.8949956608848,2.63169966284796,-1.50447336942321,-0.01689058169722557,0.009477507323026657,-0.003486433066427708,0.0009167224052362144,0.01452766265720129,0.001680503599345684,XArbitraryCorrectedZVertical,0.7223899471333947,0.08411171485609516,-0.1014272904330658,-0.6788155039920234,0.03234743699431419,0.9978014230728149,0.05784403160214424,22.19538497924805,43.15781402587891,2.005674123764038,1,10992.08075354167,stationary,1,2016-03-02 02:44:18.650,2016-03-02 02:41:14.235,100,81.00299,3,3,2016-03-02 02:44:16.104,10991.63400654167,0,-2.582611,97.43036,192.168.1.101,100.78.239.175,2,1,0.37,0
2016-03-02 02:44:18.723,25,234B9614-18C8-49ED-8B56-CAB6C4F40872,my_iOS_device_1,1456908257.995615,40.79916929364278,-96.68572364383999,367.4799,0,346.640625,4,10,-9999,1456908258.704423,24.89249992370605,43.53547668457031,3.74639892578125,273.3267517089844,270.0496215820312,25,10992.13509854167,0.02850341796875,1.01019287109375,0.053253173828125,10992.10455754167,-0.03913328800595135,0.04246836463905758,-0.01444471943648078,10992.10455754167,2.90018913965814,2.637255015037565,-1.50422411669358,-0.02106745727360249,0.01371338590979576,-0.00887780636548996,0.0006758790113963187,0.01622267998754978,-0.006726906634867191,XArbitraryCorrectedZVertical,0.7225320581720691,0.08406969785627305,-0.1012150074289217,-0.6787011367952105,0.03214577585458755,0.9977849125862122,0.05824057757854462,22.18866157531738,43.16000366210938,2.032767772674561,1,10992.08075354167,stationary,1,2016-03-02 02:44:18.650,2016-03-02 02:41:14.235,100,81.00299,3,3,2016-03-02 02:44:16.104,10991.63400654167,0,-2.582611,97.43036,192.168.1.101,100.78.239.175,2,1,0.37,0
2016-03-02 02:44:18.753,26,234B9614-18C8-49ED-8B56-CAB6C4F40872,my_iOS_device_1,1456908257.995615,40.79916929364278,-96.68572364383999,367.4799,0,346.640625,4,10,-9999,1456908258.704423,24.89249992370605,43.53547668457031,3.74639892578125,273.3267517089844,270.0496215820312,25,10992.16538954167,0.0269927978515625,1.01275634765625,0.05877685546875,10992.13957954167,-0.04762158134836091,0.05096624536139142,-0.01563808192094529,10992.13957954167,2.913102949696301,2.650761761946731,-1.503951630840928,-0.02955447696149349,0.02221148833632469,-0.01007284875959158,-0.002980962162837386,0.01242614630609751,-0.005656045861542225,XArbitraryCorrectedZVertical,0.7227577635364887,0.0841179237882126,-0.100750511540272,-0.6785239307272998,0.03148438036441803,0.9977667331695557,0.05890921875834465,22.16973876953125,43.16804122924805,2.068264722824097,1,10992.08075354167,stationary,1,2016-03-02 02:44:18.650,2016-03-02 02:41:14.235,100,81.00299,3,3,2016-03-02 02:44:16.104,10991.63400654167,0,-2.582611,97.43036,192.168.1.101,100.78.239.175,2,1,0.37,0
2016-03-02 02:44:18.786,27,234B9614-18C8-49ED-8B56-CAB6C4F40872,my_iOS_device_1,1456908257.995615,40.79916929364278,-96.68572364383999,367.4799,0,346.640625,4,10,-9999,1456908258.761727,24.96156692504883,43.39634704589844,4.01043701171875,273.3412170410156,270.0640869140625,25,10992.19569454167,0.0315704345703125,1.011016845703125,0.058441162109375,10992.17457954167,-0.05299770464090386,0.05203736875182129,-0.01145372321621279,10992.17457954167,2.926051048211333,2.66445680547949,-1.503310637624131,-0.03492985293269157,0.02328279241919518,-0.005889847408980131,-0.003975594881922007,0.01503264252096415,-0.001126125804148614,XArbitraryCorrectedZVertical,0.7231065609818608,0.08407373009282137,-0.1002693673033376,-0.6782289903519406,0.03096839226782322,0.9977236986160278,0.05990298092365265,22.15286636352539,43.17551803588867,2.092849969863892,1,10992.08075354167,stationary,1,2016-03-02 02:44:18.650,2016-03-02 02:41:14.235,100,81.00299,3,3,2016-03-02 02:44:16.104,10991.63400654167,0,-2.582611,97.43036,192.168.1.101,100.78.239.175,2,1,0.37,0
2016-03-02 02:44:18.816,28,234B9614-18C8-49ED-8B56-CAB6C4F40872,my_iOS_device_1,1456908257.995615,40.79916929364278,-96.68572364383999,367.4799,0,346.640625,4,10,-9999,1456908258.761727,24.96156692504883,43.39634704589844,4.01043701171875,273.3412170410156,270.0640869140625,25,10992.22598854167,0.0278472900390625,1.0130615234375,0.0635833740234375,10992.20962054167,-0.05195108233250272,0.04885089650754148,-0.01037114823309558,10992.20962054167,2.934962078805007,2.674082665495321,-1.502492348972217,-0.03388248756527901,0.02009651809930801,-0.004807280842214823,0.00166665343567729,0.0166140366345644,-0.001082125818356872,XArbitraryCorrectedZVertical,0.7234766843782168,0.08393470940943952,-0.09990496386112847,-0.6779051924224511,0.03075827285647392,0.9976682066917419,0.06092709675431252,22.12858963012695,43.18465423583984,2.160092115402222,1,10992.08075354167,stationary,1,2016-03-02 02:44:18.650,2016-03-02 02:41:14.235,100,81.00299,3,3,2016-03-02 02:44:16.104,10991.63400654167,0,-2.582611,97.43036,192.168.1.101,100.78.239.175,2,1,0.37,0
2016-03-02 02:44:18.861,29,234B9614-18C8-49ED-8B56-CAB6C4F40872,my_iOS_device_1,1456908257.995615,40.79916929364278,-96.68572364383999,367.4799,0,346.640625,4,10,-9999,1456908258.820723,24.89250183105469,43.813720703125,4.3404541015625,273.3643493652344,270.0872192382812,25,10992.25627054167,0.029693603515625,1.0111083984375,0.063385009765625,10992.24463254167,-0.04236583293708953,0.04566495689547969,-0.0112960640796801,10992.20962054167,2.934962078805007,2.674082665495321,-1.502492348972217,-0.03388248756527901,0.02009651809930801,-0.004807280842214823,0.00166665343567729,0.0166140366345644,-0.001082125818356872,XArbitraryCorrectedZVertical,0.7234766843782168,0.08393470940943952,-0.09990496386112847,-0.6779051924224511,0.03075827285647392,0.9976682066917419,0.06092709675431252,22.12858963012695,43.18465423583984,2.160092115402222,1,10992.08075354167,stationary,1,2016-03-02 02:44:18.650,2016-03-02 02:41:14.235,100,81.00299,3,3,2016-03-02 02:44:16.104,10991.63400654167,0,-2.582611,97.43036,192.168.1.101,100.78.239.175,2,1,0.37,0
2016-03-02 02:44:18.876,30,234B9614-18C8-49ED-8B56-CAB6C4F40872,my_iOS_device_1,1456908257.995615,40.79916929364278,-96.68572364383999,367.4799,0,346.640625,4,10,-9999,1456908258.820723,24.89250183105469,43.813720703125,4.3404541015625,273.3643493652344,270.0872192382812,25,10992.28655754167,0.0322113037109375,1.015518188476562,0.0642242431640625,10992.27964254167,-0.04132400431865053,0.03609808331158804,-0.01021029330325479,10992.24463254167,2.945557304939536,2.685274707604143,-1.501774563444377,-0.02429744601249695,0.01691077463328838,-0.005732996389269829,-0.001230460475198925,0.01577827334403992,0.002954766852781177,XArbitraryCorrectedZVertical,0.7238213324029799,0.08389190383419984,-0.09952731684608129,-0.6775980670211709,0.03039000555872917,0.9976189732551575,0.06191034615039825,22.10785675048828,43.19016265869141,2.259987115859985,1,10992.08075354167,stationary,1,2016-03-02 02:44:18.650,2016-03-02 02:41:14.235,100,81.00299,3,3,2016-03-02 02:44:16.104,10991.63400654167,0,-2.582611,97.43036,192.168.1.101,100.78.239.175,2,1,0.37,0
2016-03-02 02:44:18.906,31,234B9614-18C8-49ED-8B56-CAB6C4F40872,my_iOS_device_1,1456908257.995615,40.79916929364278,-96.68572364383999,367.4799,0,346.640625,4,10,-9999,1456908258.879247,25.51408767700195,43.11811828613281,4.07635498046875,273.3870239257812,270.1098937988281,25,10992.31685554167,0.0313262939453125,1.013717651367188,0.0661163330078125,10992.31465954167,-0.04135569593562247,0.0329137415961803,-0.008077633902319338,10992.27964254167,2.95389104317665,2.694000534800382,-1.501103945407219,-0.02325604110956192,0.007305334322154522,-0.004646918270736933,0.001005008001811802,0.01826615445315838,0.001707376213744283,XArbitraryCorrectedZVertical,0.7241220910595527,0.08387687661803064,-0.09926546955203412,-0.6773169371593463,0.03013817965984344,0.9975724816322327,0.06277626752853394,22.09966659545898,43.19293212890625,2.286932945251465,1,10992.08075354167,stationary,1,2016-03-02 02:44:18.650,2016-03-02 02:41:14.235,100,81.00299,3,3,2016-03-02 02:44:16.104,10991.63400654167,0,-2.582611,97.43036,192.168.1.101,100.78.239.175,2,1,0.37,0
2016-03-02 02:44:18.941,32,234B9614-18C8-49ED-8B56-CAB6C4F40872,my_iOS_device_1,1456908257.995615,40.79916929364278,-96.68572364383999,367.4799,0,346.640625,4,10,-9999,1456908258.938857,25.51408386230469,43.32679748535156,4.2083740234375,273.4024658203125,270.1253356933594,25,10992.34714854167,0.029144287109375,1.013656616210938,0.0703887939453125,10992.31465954167,-0.04135569593562247,0.0329137415961803,-0.008077633902319338,10992.31465954167,2.959441338538586,2.699803673371035,-1.500469199784499,-0.02328760735690594,0.004121146164834499,-0.002513948129490018,0.003464199835434556,0.01364136673510075,-0.0001374915591441095,XArbitraryCorrectedZVertical,0.7243826282910646,0.08385140721408663,-0.09911173183400407,-0.6770639659228439,0.03004410117864609,0.997528076171875,0.06352250277996063,22.09148979187012,43.19448471069336,2.336132764816284,1,10992.08075354167,stationary,1,2016-03-02 02:44:18.650,2016-03-02 02:41:14.235,100,81.00299,3,3,2016-03-02 02:44:16.104,10991.63400654167,0,-2.582611,97.43036,192.168.1.101,100.78.239.175,2,1,0.37,0
2016-03-02 02:44:18.966,33,234B9614-18C8-49ED-8B56-CAB6C4F40872,my_iOS_device_1,1456908257.995615,40.79916929364278,-96.68572364383999,367.4799,0,346.640625,4,10,-9999,1456908258.938857,25.51408386230469,43.32679748535156,4.2083740234375,273.4024658203125,270.1253356933594,25,10992.37744354167,0.0287322998046875,1.011611938476562,0.0650177001953125,10992.34967054167,-0.0296335260815297,0.04249020255999623,-0.008978048666875129,10992.34967054167,2.96627663209523,2.706990599965536,-1.499727768964682,-0.0115667674690485,0.01369787938892841,-0.003414398059248924,-0.0007539095240645111,0.01618092320859432,0.005981184542179108,XArbitraryCorrectedZVertical,0.7246923129346089,0.08381441567759976,-0.09889992770877863,-0.6767680545041014,0.02989819645881653,0.9974756836891174,0.06440760940313339,22.0914421081543,43.19331741333008,2.358071327209473,1,10992.08075354167,stationary,1,2016-03-02 02:44:18.650,2016-03-02 02:41:14.235,100,81.00299,3,3,2016-03-02 02:44:16.104,10991.63400654167,0,-2.582611,97.43036,192.168.1.101,100.78.239.175,2,1,0.37,0
2016-03-02 02:44:18.999,34,234B9614-18C8-49ED-8B56-CAB6C4F40872,my_iOS_device_1,1456908257.995615,40.79916929364278,-96.68572364383999,367.4799,0,346.640625,4,10,-9999,1456908258.998136,25.82487869262695,42.80508422851562,4.10931396484375,273.4134216308594,270.1362915039062,25,10992.40773554167,0.036834716796875,1.01318359375,0.0575408935546875,10992.38468254167,-0.03176645179857416,0.0350448031004617,-0.009005212909993936,10992.38468254167,2.973027348145933,2.714112976139395,-1.499249170032768,-0.01370061282068491,0.006252703256905079,-0.003442117013037205,-0.0009043198078870773,0.01417034491896629,-3.564463622751646e-05,XArbitraryCorrectedZVertical,0.7249166887854344,0.08380015952740823,-0.09865218989540578,-0.6765656457523853,0.02963661961257458,0.9974415898323059,0.06505334377288818,22.08218574523926,43.19522094726562,2.409311294555664,1,10992.08075354167,stationary,1,2016-03-02 02:44:18.650,2016-03-02 02:41:14.235,100,81.00299,3,3,2016-03-02 02:44:16.104,10991.63400654167,0,-2.582611,97.43036,192.168.1.101,100.78.239.175,2,1,0.37,0
2016-03-02 02:44:19.027,35,234B9614-18C8-49ED-8B56-CAB6C4F40872,my_iOS_device_1,1456908257.995615,40.79916929364278,-96.68572364383999,367.4799,0,346.640625,4,10,-9999,1456908258.998136,25.82487869262695,42.80508422851562,4.10931396484375,273.4134216308594,270.1362915039062,25,10992.43803354167,0.0282745361328125,1.010818481445312,0.077484130859375,10992.41969754167,-0.03815084787982112,0.03184980874069364,-0.009096293019274646,10992.41969754167,2.970534871041854,2.711681378012815,-1.498975607588885,-0.02008293010294437,0.003057770896703005,-0.003531123977154493,0.005339362192898989,0.01396105624735355,-0.002286613686010242,XArbitraryCorrectedZVertical,0.7249899980185739,0.0836902747041349,-0.09871851958244425,-0.6764910158933257,0.0299084410071373,0.9974219799041748,0.06522911787033081,22.07519340515137,43.19766998291016,2.429405450820923,1,10992.08075354167,stationary,1,2016-03-02 02:44:18.650,2016-03-02 02:41:14.235,100,81.00299,3,3,2016-03-02 02:44:16.104,10991.63400654167,0,-2.582611,97.43036,192.168.1.101,100.78.239.175,2,1,0.37,0
2016-03-02 02:44:19.058,36,234B9614-18C8-49ED-8B56-CAB6C4F40872,my_iOS_device_1,1456908257.995615,40.79916929364278,-96.68572364383999,367.4799,0,346.640625,4,10,-9999,1456908259.056094,25.37595558166504,42.97898864746094,3.9443359375,273.4205932617188,270.1434631347656,25,10992.46830654167,0.027618408203125,1.0172119140625,0.0635223388671875,10992.45470954167,-0.03814924998316707,0.03397660918723092,-0.009097358283710678,10992.41969754167,2.970534871041854,2.711681378012815,-1.498975607588885,-0.02008293010294437,0.003057770896703005,-0.003531123977154493,0.005339362192898989,0.01396105624735355,-0.002286613686010242,XArbitraryCorrectedZVertical,0.7249899980185739,0.0836902747041349,-0.09871851958244425,-0.6764910158933257,0.0299084410071373,0.9974219799041748,0.06522911787033081,22.07519340515137,43.19766998291016,2.429405450820923,1,10992.08075354167,stationary,1,2016-03-02 02:44:18.650,2016-03-02 02:41:14.235,100,81.00299,3,3,2016-03-02 02:44:16.104,10991.63400654167,0,-2.582611,97.43036,192.168.1.101,100.78.239.175,2,1,0.37,0
2016-03-02 02:44:19.104,37,234B9614-18C8-49ED-8B56-CAB6C4F40872,my_iOS_device_1,1456908258.995615,40.79916929364278,-96.68572364383999,367.4756,0,328.7109375,4,10,-9999,1456908259.056094,25.37595558166504,42.97898864746094,3.9443359375,273.4205932617188,270.1434631347656,25,10992.49861054167,0.028289794921875,1.015380859375,0.0793609619140625,10992.48970254167,-0.02965456505414132,0.0339859302510462,-0.007908256856990297,10992.48970254167,2.983217931282756,2.724763311825364,-1.497411920250007,-0.01158973388373852,0.005168800242245197,-0.002338307211175561,0.004205775912851095,0.01663796044886112,0.0125795416533947,XArbitraryCorrectedZVertical,0.7256128525561667,0.08370422893746222,-0.09841988347579443,-0.6758647178244014,0.02968399412930012,0.9973085522651672,0.06704081594944,22.07496643066406,43.19387435913086,2.498008728027344,1,10992.08075354167,stationary,1,2016-03-02 02:44:18.650,2016-03-02 02:41:14.235,100,81.00299,3,3,2016-03-02 02:44:16.104,10991.63400654167,0,-2.582611,97.43036,192.168.1.101,100.78.239.175,2,1,0.37,0
2016-03-02 02:44:19.118,38,234B9614-18C8-49ED-8B56-CAB6C4F40872,my_iOS_device_1,1456908258.995615,40.79916929364278,-96.68572364383999,367.4756,0,328.7109375,4,10,-9999,1456908259.105481,24.92702865600586,42.9442138671875,3.91131591796875,273.4211730957031,270.14404296875,25,10992.52890954167,0.0288543701171875,1.010040283203125,0.059814453125,10992.52473654167,-0.01786501722446954,0.05524807576202082,-0.01307665358450708,10992.48970254167,2.983217931282756,2.724763311825364,-1.497411920250007,-0.01158973388373852,0.005168800242245197,-0.002338307211175561,0.004205775912851095,0.01663796044886112,0.0125795416533947,XArbitraryCorrectedZVertical,0.7256128525561667,0.08370422893746222,-0.09841988347579443,-0.6758647178244014,0.02968399412930012,0.9973085522651672,0.06704081594944,22.07496643066406,43.19387435913086,2.498008728027344,1,10992.08075354167,stationary,1,2016-03-02 02:44:18.650,2016-03-02 02:41:14.235,100,81.00299,3,3,2016-03-02 02:44:16.104,10991.63400654167,0,-2.582611,97.43036,192.168.1.101,100.78.239.175,2,1,0.37,0
2016-03-02 02:44:19.148,39,234B9614-18C8-49ED-8B56-CAB6C4F40872,my_iOS_device_1,1456908258.995615,40.79916929364278,-96.68572364383999,367.4756,0,328.7109375,4,10,-9999,1456908259.105481,24.92702865600586,42.9442138671875,3.91131591796875,273.4211730957031,270.14404296875,25,10992.55918754167,0.0348968505859375,1.010940551757812,0.071075439453125,10992.55974754167,-0.02859755641748888,0.04462366090925871,-0.006832606092707294,10992.52473654167,2.990925935097545,2.733146552246073,-1.497265002766487,0.0001988523436011747,0.02643122524023056,-0.007508057169616222,-0.005802670028060675,0.01382586732506752,-0.003990991041064262,XArbitraryCorrectedZVertical,0.7257499508180457,0.08365343670199996,-0.09799701053630233,-0.6757852449864943,0.02917913533747196,0.9972977638244629,0.06742177903652191,22.07512474060059,43.19284820556641,2.514305591583252,1,10992.08075354167,stationary,1,2016-03-02 02:44:18.650,2016-03-02 02:41:14.235,100,81.00299,3,3,2016-03-02 02:44:16.104,10991.63400654167,0,-2.582611,97.43036,192.168.1.101,100.78.239.175,2,1,0.37,0
2016-03-02 02:44:19.182,40,234B9614-18C8-49ED-8B56-CAB6C4F40872,my_iOS_device_1,1456908258.995615,40.79916929364278,-96.68572364383999,367.4756,0,328.7109375,4,10,-9999,1456908259.16429,24.89249610900879,43.46592712402344,3.61431884765625,273.4029541015625,270.1258239746094,25,10992.58949254167,0.033538818359375,1.010238647460938,0.069580078125,10992.55974754167,-0.02859755641748888,0.04462366090925871,-0.006832606092707294,10992.55974754167,2.989160107777487,2.732084517084778,-1.497169097932229,-0.01053267158567905,0.01580692827701569,-0.001262572128325701,0.00560804596170783,0.01364981196820736,0.003596952417865396,XArbitraryCorrectedZVertical,0.7258030220279333,0.08336196192090971,-0.09779495960718455,-0.675793535331025,0.02928880415856838,0.9972907304763794,0.0674784854054451,22.05390930175781,43.20104598999023,2.559171676635742,1,10992.08075354167,stationary,1,2016-03-02 02:44:18.650,2016-03-02 02:41:14.235,100,81.00299,3,3,2016-03-02 02:44:16.104,10991.63400654167,0,-2.582611,97.43036,192.168.1.101,100.78.239.175,2,1,0.37,0
2016-03-02 02:44:19.209,41,234B9614-18C8-49ED-8B56-CAB6C4F40872,my_iOS_device_1,1456908258.995615,40.79916929364278,-96.68572364383999,367.4756,0,328.7109375,4,10,-9999,1456908259.197734,25.30688858032227,43.32679748535156,3.74627685546875,273.3966064453125,270.1194763183594,25,10992.61976554167,0.0404205322265625,1.012344360351562,0.0714263916015625,10992.59473354167,-0.03284476572394725,0.03504693362933377,-0.007955128492175693,10992.59473354167,2.989810001364701,2.733128337665962,-1.496555036135453,-0.01477425452321768,0.006197761744260788,-0.002373679773882031,0.004077225923538208,0.01299326680600643,0.001509051187895238,XArbitraryCorrectedZVertical,0.7260274922502484,0.08318409697876242,-0.09769470374685951,-0.6755888034643679,0.02946159243583679,0.9972453713417053,0.06807103008031845,22.06681632995605,43.19207763671875,2.598986387252808,1,10992.08075354167,stationary,1,2016-03-02 02:44:18.650,2016-03-02 02:41:14.235,100,81.00299,3,3,2016-03-02 02:44:16.104,10991.63400654167,0,-2.582611,97.43036,192.168.1.101,100.78.239.175,2,1,0.37,0
2016-03-02 02:44:19.260,42,234B9614-18C8-49ED-8B56-CAB6C4F40872,my_iOS_device_1,1456908258.995615,40.79916929364278,-96.68572364383999,367.4756,0,328.7109375,4,10,-9999,1456908259.25845,25.75581359863281,43.36155700683594,4.10931396484375,273.4003295898438,270.1231994628906,25,10992.65008654167,0.037078857421875,1.00872802734375,0.068817138671875,10992.62975254167,-0.02329600163546814,0.02229625096225239,-0.006744189144516663,10992.62975254167,2.989504811122055,2.732715576072293,-1.496020245107691,-0.005226269364356995,-0.006552790757268667,-0.00116115459240973,0.0107188131660223,0.01513878908008337,0.002878185361623764,XArbitraryCorrectedZVertical,0.7261945987934751,0.08315953201117406,-0.09779285190539723,-0.6753979975059408,0.0297017190605402,0.9972055554389954,0.06854820251464844,22.06904983520508,43.18991851806641,2.615878105163574,1,10992.08075354167,stationary,1,2016-03-02 02:44:18.650,2016-03-02 02:41:14.235,100,81.00299,3,3,2016-03-02 02:44:16.104,10991.63400654167,0,-2.582611,97.43036,192.168.1.101,100.78.239.175,2,1,0.37,0
2016-03-02 02:44:19.270,43,234B9614-18C8-49ED-8B56-CAB6C4F40872,my_iOS_device_1,1456908258.995615,40.79916929364278,-96.68572364383999,367.4756,0,328.7109375,4,10,-9999,1456908259.25845,25.75581359863281,43.36155700683594,4.10931396484375,273.4003295898438,270.1231994628906,25,10992.68036854167,0.0325164794921875,1.01092529296875,0.078277587890625,10992.66477254167,-0.03073421056005945,0.01271712683734638,-0.007913050546952441,10992.66477254167,2.985470324964194,2.728204603658868,-1.495457799616198,-0.01266491413116455,-0.01613184437155724,-0.002327196998521686,0.008429830893874168,0.01614226959645748,0.002850200515240431,XArbitraryCorrectedZVertical,0.726324842725781,0.08316125594064011,-0.0981231284733554,-0.6752098044373361,0.03023594059050083,0.9971634149551392,0.06892714649438858,22.08498573303223,43.18092346191406,2.62983775138855,1,10992.08075354167,stationary,1,2016-03-02 02:44:18.650,2016-03-02 02:41:14.235,100,81.00299,3,3,2016-03-02 02:44:16.104,10991.63400654167,0,-2.582611,97.43036,192.168.1.101,100.78.239.175,2,1,0.37,0
2016-03-02 02:44:19.299,44,234B9614-18C8-49ED-8B56-CAB6C4F40872,my_iOS_device_1,1456908258.995615,40.79916929364278,-96.68572364383999,367.4756,0,328.7109375,4,10,-9999,1456908259.25845,25.75581359863281,43.36155700683594,4.10931396484375,273.4003295898438,270.1231994628906,25,10992.71067054167,0.02471923828125,1.013214111328125,0.08416748046875,10992.69978854167,-0.0371015624103299,0.01270940367018515,-0.0090712593050279,10992.66477254167,2.985470324964194,2.728204603658868,-1.495457799616198,-0.01266491413116455,-0.01613184437155724,-0.002327196998521686,0.008429830893874168,0.01614226959645748,0.002850200515240431,XArbitraryCorrectedZVertical,0.726324842725781,0.08316125594064011,-0.0981231284733554,-0.6752098044373361,0.03023594059050083,0.9971634149551392,0.06892714649438858,22.08498573303223,43.18092346191406,2.62983775138855,1,10992.71591554167,unknown,1,2016-03-02 02:44:19.296,2016-03-02 02:41:14.235,100,81.00299,3,3,2016-03-02 02:44:16.104,10991.63400654167,0,-2.582611,97.43036,192.168.1.101,100.78.239.175,2,1,0.37,0
2016-03-02 02:44:19.342,45,234B9614-18C8-49ED-8B56-CAB6C4F40872,my_iOS_device_1,1456908258.995615,40.79916929364278,-96.68572364383999,367.4756,0,328.7109375,4,10,-9999,1456908259.318864,25.51408386230469,43.04855346679688,4.4063720703125,273.4136962890625,270.1365661621094,25,10992.74095054167,0.0299530029296875,1.011611938476562,0.0787811279296875,10992.73478754167,-0.03816522894970754,0.01270860472185813,-0.009086705639350361,10992.69978854167,2.990070725972622,2.732220779258815,-1.494668813717839,-0.01903443410992622,-0.0161393154412508,-0.0034848612267524,-0.0004563429392874241,0.01240252517163754,0.01264298148453236,XArbitraryCorrectedZVertical,0.7265877136629404,0.08339762215614964,-0.0982934451610028,-0.6748729729446135,0.03027201630175114,0.9971036911010742,0.06976974010467529,22.09541320800781,43.17535400390625,2.633692502975464,1,10992.71591554167,unknown,1,2016-03-02 02:44:19.296,2016-03-02 02:41:14.235,100,81.00299,3,3,2016-03-02 02:44:16.104,10991.63400654167,0,-2.582611,97.43036,192.168.1.101,100.78.239.175,2,1,0.37,0
2016-03-02 02:44:19.359,46,234B9614-18C8-49ED-8B56-CAB6C4F40872,my_iOS_device_1,1456908258.995615,40.79916929364278,-96.68572364383999,367.4756,0,328.7109375,4,10,-9999,1456908259.318864,25.51408386230469,43.04855346679688,4.4063720703125,273.4136962890625,270.1365661621094,25,10992.77125854167,0.0298614501953125,1.012222290039062,0.07806396484375,10992.76982554167,-0.02760739312419741,0.005287440028243319,-0.003600860109896138,10992.73478754167,3.003262694862473,2.744863000905156,-1.493523067350154,-0.02010230533778667,-0.01613951660692692,-0.003502341452986002,-0.004285783041268587,0.01552681718021631,0.009564263746142387,XArbitraryCorrectedZVertical,0.7270317451690139,0.0838158393332514,-0.09825644359243192,-0.674348142939452,0.0298289954662323,0.9970158934593201,0.07120050489902496,22.09262275695801,43.17329788208008,2.690210819244385,1,10992.71591554167,unknown,1,2016-03-02 02:44:19.296,2016-03-02 02:41:14.235,100,81.00299,3,3,2016-03-02 02:44:16.104,10991.63400654167,0,-2.582611,97.43036,192.168.1.101,100.78.239.175,2,1,0.37,0
2016-03-02 02:44:19.390,47,234B9614-18C8-49ED-8B56-CAB6C4F40872,my_iOS_device_1,1456908258.995615,40.79916929364278,-96.68572364383999,367.4756,0,328.7109375,4,10,-9999,1456908259.372765,25.51408386230469,43.18768310546875,4.472412109375,273.4334716796875,270.1563415527344,25,10992.80155054167,0.0291748046875,1.012435913085938,0.086181640625,10992.80483554167,-0.02439855032676094,0.009540508289099863,-0.004622182387941526,10992.76982554167,3.006518071640643,2.747398476210042,-1.492794432343853,-0.009538609534502029,-0.02360340766608715,0.001999318832531571,0.001704096677713096,0.01561384741216898,0.007231221068650484,XArbitraryCorrectedZVertical,0.7272582689384219,0.08407572737369705,-0.09849838812342505,-0.6740361636175917,0.02992737293243408,0.996959388256073,0.0719466358423233,22.08477592468262,43.17510223388672,2.725467920303345,1,10992.71591554167,unknown,1,2016-03-02 02:44:19.296,2016-03-02 02:41:14.235,100,81.00299,3,3,2016-03-02 02:44:16.104,10991.63400654167,0,-2.582611,97.43036,192.168.1.101,100.78.239.175,2,1,0.37,0
2016-03-02 02:44:19.422,48,234B9614-18C8-49ED-8B56-CAB6C4F40872,my_iOS_device_1,1456908258.995615,40.79916929364278,-96.68572364383999,367.4756,0,328.7109375,4,10,-9999,1456908259.372765,25.51408386230469,43.18768310546875,4.472412109375,273.4334716796875,270.1563415527344,25,10992.83182454167,0.031219482421875,1.010894775390625,0.0745391845703125,10992.80483554167,-0.02439855032676094,0.009540508289099863,-0.004622182387941526,10992.80483554167,3.011332294783141,2.751495350724043,-1.491895762528352,-0.006333372090011835,-0.01934992894530296,0.0009777032537385821,-0.0007982552633620799,0.01554694771766663,0.0132844028994441,XArbitraryCorrectedZVertical,0.7275517910018692,0.08436237580832297,-0.09871110781903868,-0.6736523570440808,0.02997305989265442,0.9968889355659485,0.07289724051952362,22.08772468566895,43.17306518554688,2.733774185180664,1,10992.71591554167,unknown,1,2016-03-02 02:44:19.296,2016-03-02 02:41:14.235,100,81.00299,3,3,2016-03-02 02:44:16.104,10991.63400654167,0,-2.582611,97.43036,192.168.1.101,100.78.239.175,2,1,0.37,0
2016-03-02 02:44:19.450,49,234B9614-18C8-49ED-8B56-CAB6C4F40872,my_iOS_device_1,1456908258.995615,40.79916929364278,-96.68572364383999,367.4756,0,328.7109375,4,10,-9999,1456908259.431946,25.54861640930176,43.15289306640625,4.83544921875,273.4607543945312,270.1836242675781,25,10992.86213454167,0.03460693359375,1.014389038085938,0.079833984375,10992.83984254167,-0.02653653604987655,0.0148588409859881,-0.003590207465535821,10992.83984254167,3.012531797053728,2.752118754127122,-1.491388630870297,-0.008472900837659836,-0.01403138972818851,0.002009941032156348,0.001099916757084429,0.01404590997844934,0.001155592268332839,XArbitraryCorrectedZVertical,0.7276980584582451,0.08454189419461451,-0.09893335567642528,-0.6734392288667549,0.03011956624686718,0.9968488812446594,0.07338359206914902,22.09162139892578,43.16926956176758,2.762163639068604,1,10992.71591554167,unknown,1,2016-03-02 02:44:19.296,2016-03-02 02:41:14.235,100,81.00299,3,3,2016-03-02 02:44:16.104,10991.63400654167,0,-2.582611,97.43036,192.168.1.101,100.78.239.175,2,1,0.37,0
2016-03-02 02:44:19.501,50,234B9614-18C8-49ED-8B56-CAB6C4F40872,my_iOS_device_1,1456908258.995615,40.79916929364278,-96.68572364383999,367.4756,0,328.7109375,4,10,-9999,1456908259.487763,25.23782348632812,43.25724792480469,4.86846923828125,273.495849609375,270.2187194824219,25,10992.89242854167,0.0290985107421875,1.014450073242188,0.086273193359375,10992.87484054167,-0.02228586463400108,0.009545035662952998,-0.003525758967155903,10992.83984254167,3.012531797053728,2.752118754127122,-1.491388630870297,-0.008472900837659836,-0.01403138972818851,0.002009941032156348,0.001099916757084429,0.01404590997844934,0.001155592268332839,XArbitraryCorrectedZVertical,0.7276980584582451,0.08454189419461451,-0.09893335567642528,-0.6734392288667549,0.03011956624686718,0.9968488812446594,0.07338359206914902,22.09162139892578,43.16926956176758,2.762163639068604,1,10992.71591554167,unknown,1,2016-03-02 02:44:19.296,2016-03-02 02:41:14.235,100,81.00299,3,3,2016-03-02 02:44:16.104,10991.63400654167,0,-2.582611,97.43036,192.168.1.101,100.78.239.175,2,1,0.37,0
2016-03-02 02:44:19.511,51,234B9614-18C8-49ED-8B56-CAB6C4F40872,my_iOS_device_1,1456908258.995615,40.79916929364278,-96.68572364383999,367.4756,0,328.7109375,4,10,-9999,1456908259.487763,25.23782348632812,43.25724792480469,4.86846923828125,273.495849609375,270.2187194824219,25,10992.92272054167,0.0305633544921875,1.008148193359375,0.0775146484375,10992.90987254167,-0.01161590972659861,0.01486416730816826,-0.005505020289302793,10992.87484054167,3.012329457460314,2.751329262324403,-1.490918988395393,-0.004223316442221403,-0.01934500597417355,0.002075176686048508,0.001794675947166979,0.02036989480257034,0.008955669589340687,XArbitraryCorrectedZVertical,0.7278213162088719,0.08469063242415367,-0.09919422955901017,-0.6732489385611664,0.03035559318959713,0.9968115091323853,0.07379274070262909,22.09994506835938,43.1649055480957,2.763726711273193,1,10992.71591554167,unknown,1,2016-03-02 02:44:19.296,2016-03-02 02:41:14.235,100,81.00299,3,3,2016-03-02 02:44:16.104,10991.63400654167,0,-2.582611,97.43036,192.168.1.101,100.78.239.175,2,1,0.37,0
2016-03-02 02:44:19.541,52,234B9614-18C8-49ED-8B56-CAB6C4F40872,my_iOS_device_1,1456908258.995615,40.79916929364278,-96.68572364383999,367.4756,0,328.7109375,4,10,-9999,1456908259.487763,25.23782348632812,43.25724792480469,4.86846923828125,273.495849609375,270.2187194824219,25,10992.95301354167,0.0316314697265625,1.014373779296875,0.078216552734375,10992.94489054167,-0.02225417301702914,0.01272937737836074,-0.005658418368091357,10992.90987254167,3.014438975674461,2.752896738376716,-1.490673937275224,0.006478770170360804,-0.01407773420214653,0.0001154767378466204,-0.001081361318938434,0.01539985463023186,0.009811283089220524,XArbitraryCorrectedZVertical,0.7278899291579862,0.08490813322032208,-0.09935553801667717,-0.6731235674144824,0.03033245913684368,0.9967918992042542,0.07406628131866455,22.10391807556152,43.16239929199219,2.771100997924805,1,10992.71591554167,unknown,1,2016-03-02 02:44:19.296,2016-03-02 02:41:14.235,100,81.00299,3,3,2016-03-02 02:44:16.104,10992.94678054167,0,-2.614807,97.43073,192.168.1.101,100.78.239.175,2,1,0.37,0
2016-03-02 02:44:19.581,53,234B9614-18C8-49ED-8B56-CAB6C4F40872,my_iOS_device_1,1456908258.995615,40.79916929364278,-96.68572364383999,367.4756,0,328.7109375,4,10,-9999,1456908259.54653,24.96156120300293,43.39637756347656,4.40643310546875,273.5101928710938,270.2330627441406,25,10992.98330754167,0.031585693359375,1.014602661132812,0.0765228271484375,10992.94489054167,-0.02225417301702914,0.01272937737836074,-0.005658418368091357,10992.94489054167,3.015124990192439,2.753031563957728,-1.490479375322233,-0.004160513170063496,-0.01621227338910103,-3.779103280976415e-05,0.001586474012583494,0.01341654360294342,0.002135649789124727,XArbitraryCorrectedZVertical,0.7279312056110757,0.08509455959359974,-0.09955449533621613,-0.6730259863359588,0.03039594739675522,0.9967763423919678,0.07424984872341156,22.10387802124023,43.1624870300293,2.770043849945068,1,10992.71591554167,unknown,1,2016-03-02 02:44:19.296,2016-03-02 02:41:14.235,100,81.00299,3,3,2016-03-02 02:44:16.104,10992.94678054167,0,-2.614807,97.43073,192.168.1.101,100.78.239.175,2,1,0.37,0
2016-03-02 02:44:19.602,54,234B9614-18C8-49ED-8B56-CAB6C4F40872,my_iOS_device_1,1456908258.995615,40.79916929364278,-96.68572364383999,367.4756,0,328.7109375,4,10,-9999,1456908259.54653,24.96156120300293,43.39637756347656,4.40643310546875,273.5101928710938,270.2330627441406,25,10993.01359754167,0.0326690673828125,1.009796142578125,0.07977294921875,10992.97990254167,-0.01907702183656461,0.01379810392380954,-0.004547081245201291,10992.97990254167,3.015951968030945,2.753314218026378,-1.490139071351495,-0.0009845286840572953,-0.01514334045350552,0.001073620980605483,-0.001099693588912487,0.01777740009129047,0.00556677021086216,XArbitraryCorrectedZVertical,0.7280215316842915,0.08526924577554264,-0.099759821781906,-0.6728757560552561,0.03050337918102741,0.9967489838600159,0.07457239180803299,22.1075553894043,43.16075134277344,2.767729997634888,1,10992.71591554167,unknown,1,2016-03-02 02:44:19.296,2016-03-02 02:41:14.235,100,81.00299,3,3,2016-03-02 02:44:16.104,10992.94678054167,0,-2.614807,97.43073,192.168.1.101,100.78.239.175,2,1,0.37,0
2016-03-02 02:44:19.632,55,234B9614-18C8-49ED-8B56-CAB6C4F40872,my_iOS_device_1,1456908258.995615,40.79916929364278,-96.68572364383999,367.4756,0,328.7109375,4,10,-9999,1456908259.605382,24.82343292236328,43.18769836425781,4.27447509765625,273.5167541503906,270.2396240234375,25,10993.04389554167,0.0311279296875,1.013458251953125,0.0748443603515625,10993.01491254167,-0.01588602221843166,0.01380050076879061,-0.004500742242233913,10993.01491254167,3.016113486245116,2.752985482168608,-1.48994462320652,0.002205173019319773,-0.01514069084078074,0.001120152068324387,0.00206773797981441,0.01306286174803972,0.005031228065490723,XArbitraryCorrectedZVertical,0.728061910812518,0.08542080957571491,-0.09995092211941559,-0.6727844769931121,0.03060133010149002,0.9967333078384399,0.07474172115325928,22.11039352416992,43.15912628173828,2.770432949066162,1,10992.71591554167,unknown,1,2016-03-02 02:44:19.296,2016-03-02 02:41:14.235,100,81.00299,3,3,2016-03-02 02:44:16.104,10992.94678054167,0,-2.614807,97.43073,192.168.1.101,100.78.239.175,2,1,0.37,0
2016-03-02 02:44:19.662,56,234B9614-18C8-49ED-8B56-CAB6C4F40872,my_iOS_device_1,1456908258.995615,40.79916929364278,-96.68572364383999,367.4756,0,328.7109375,4,10,-9999,1456908259.605382,24.82343292236328,43.18769836425781,4.27447509765625,273.5167541503906,270.2396240234375,25,10993.07418854167,0.031768798828125,1.013687133789062,0.07281494140625,10993.04992954167,-0.01694649296450122,0.01805330271353815,-0.004518319105428436,10993.04992954167,3.014046350401835,2.750412870285222,-1.489894456070417,0.001144581125117838,-0.01088778767734766,0.001103181159123778,0.000315355253405869,0.01672902330756187,0.0001353856641799212,XArbitraryCorrectedZVertical,0.7280379535118081,0.0855290920703814,-0.1001964923513904,-0.6727601174091656,0.03081257455050945,0.9967292547225952,0.0747089758515358,22.11484336853027,43.15715789794922,2.765551090240479,1,10992.71591554167,unknown,1,2016-03-02 02:44:19.296,2016-03-02 02:41:14.235,100,81.00299,3,3,2016-03-02 02:44:16.104,10992.94678054167,0,-2.614807,97.43073,192.168.1.101,100.78.239.175,2,1,0.37,0
