loggingTime,loggingSample,identifierForVendor,deviceID,locationTimestamp_since1970,locationLatitude,locationLongitude,locationAltitude,locationSpeed,locationCourse,locationVerticalAccuracy,locationHorizontalAccuracy,locationFloor,locationHeadingTimestamp_since1970,locationHeadingX,locationHeadingY,locationHeadingZ,locationTrueHeading,locationMagneticHeading,locationHeadingAccuracy,accelerometerTimestamp_sinceReboot,accelerometerAccelerationX,accelerometerAccelerationY,accelerometerAccelerationZ,gyroTimestamp_sinceReboot,gyroRotationX,gyroRotationY,gyroRotationZ,motionTimestamp_sinceReboot,motionYaw,motionRoll,motionPitch,motionRotationRateX,motionRotationRateY,motionRotationRateZ,motionUserAccelerationX,motionUserAccelerationY,motionUserAccelerationZ,motionAttitudeReferenceFrame,motionQuaternionX,motionQuaternionY,motionQuaternionZ,motionQuaternionW,motionGravityX,motionGravityY,motionGravityZ,motionMagneticFieldX,motionMagneticFieldY,motionMagneticFieldZ,motionMagneticFieldCalibrationAccuracy,activityTimestamp_sinceReboot,activity,activityActivityConfidence,activityActivityStartDate,pedometerStartDate,pedometerNumberofSteps,pedometerDistance,pedometerFloorAscended,pedometerFloorDescended,pedometerEndDate,altimeterTimestamp_sinceReboot,altimeterReset,altimeterRelativeAltitude,altimeterPressure,IP_en0,IP_pdp_ip0,deviceOrientation,batteryState,batteryLevel,state
2016-03-02 02:49:02.289,1,234B9614-18C8-49ED-8B56-CAB6C4F40872,my_iOS_device_1,1456908542.000027,40.79922339882776,-96.68579673403565,366.469,0,121.2890625,4,13.00731632488905,-9999,1456908542.274268,10.32197380065918,31.0770263671875,-16.47705078125,205.2877655029297,202.0106353759766,25,11275.700297125,0.05596923828125,1.009658813476562,0.0985260009765625,11275.679928125,-0.04567640848816703,0.0424957951982854,-0.002816559168867802,11275.679928125,0.8923267828919518,2.70594300699296,-1.476663819380462,-0.02434542588889599,0.01302339974790812,0.003575598821043968,0.003807062050327659,0.007021188270300627,-0.01616816595196724,XArbitraryCorrectedZVertical,0.4428115727731723,-0.5886637445062832,0.5238536329598457,-0.4277502520826256,0.03966522961854935,0.9955728054046631,0.08521418273448944,9.292137145996094,31.48479080200195,-18.89582633972168,1,11263.50103429167,walking,0,2016-03-02 02:48:50.072,2016-03-02 02:47:07.556,84,57.67838,2,2,2016-03-02 02:49:00.448,11275.357469125,0,0.3888245,97.38637,192.168.1.101,100.78.239.175,2,1,0.35,0
2016-03-02 02:49:02.305,2,234B9614-18C8-49ED-8B56-CAB6C4F40872,my_iOS_device_1,1456908542.000027,40.79922339882776,-96.68579673403565,366.469,0,121.2890625,4,13.00731632488905,-9999,1456908542.274268,10.32197380065918,31.0770263671875,-16.47705078125,205.2877655029297,202.0106353759766,25,11275.730598125,0.0506439208984375,1.0098876953125,0.097015380859375,11275.714940125,-0.006448844579626876,0.008517055482182411,0.005230714697024632,11275.679928125,0.8923267828919518,2.70594300699296,-1.476663819380462,-0.02434542588889599,0.01302339974790812,0.003575598821043968,0.003807062050327659,0.007021188270300627,-0.01616816595196724,XArbitraryCorrectedZVertical,0.4428115727731723,-0.5886637445062832,0.5238536329598457,-0.4277502520826256,0.03966522961854935,0.9955728054046631,0.08521418273448944,9.292137145996094,31.48479080200195,-18.89582633972168,1,11263.50103429167,walking,0,2016-03-02 02:48:50.072,2016-03-02 02:47:07.556,84,57.67838,2,2,2016-03-02 02:49:00.448,11275.357469125,0,0.3888245,97.38637,192.168.1.101,100.78.239.175,2,1,0.35,0
2016-03-02 02:49:02.347,3,234B9614-18C8-49ED-8B56-CAB6C4F40872,my_iOS_device_1,1456908542.000027,40.79922339882776,-96.68579673403565,366.469,0,121.2890625,4,13.00731632488905,-9999,1456908542.326561,10.1834135055542,31.0074462890625,-16.543212890625,205.3289642333984,202.0518341064453,25,11275.760899125,0.051177978515625,1.01361083984375,0.085235595703125,11275.749946125,0.0178903172548253,-0.002075135121389743,0.01411555272574699,11275.714940125,0.8814990397781903,2.69466496081407,-1.47595976628627,0.01488145533949137,-0.02095463126897812,0.01162468735128641,0.01151779107749462,0.01421346608549356,0.01502459216862917,XArbitraryCorrectedZVertical,0.4426245378597224,-0.5888805208019091,0.523422308022203,-0.4281732571859627,0.04092666879296303,0.9955064058303833,0.08539349585771561,9.319682121276855,31.46815490722656,-18.90996932983398,1,11263.50103429167,walking,0,2016-03-02 02:48:50.072,2016-03-02 02:47:07.556,84,57.67838,2,2,2016-03-02 02:49:00.448,11275.357469125,0,0.3888245,97.38637,192.168.1.101,100.78.239.175,2,1,0.35,0
2016-03-02 02:49:02.365,4,234B9614-18C8-49ED-8B56-CAB6C4F40872,my_iOS_device_1,1456908542.000027,40.79922339882776,-96.68579673403565,366.469,0,121.2890625,4,13.00731632488905,-9999,1456908542.326561,10.1834135055542,31.0074462890625,-16.543212890625,205.3289642333984,202.0518341064453,25,11275.791200125,0.0428466796875,1.012481689453125,0.0738677978515625,11275.784945125,0.03179361604169297,0.00111080449067205,0.008987103414581397,11275.749946125,0.8704636989179277,2.682848220389217,-1.475662445089585,0.03921965882182121,-0.03154646977782249,0.02051067724823952,0.009846474044024944,0.0163016002625227,0.006841190624982119,XArbitraryCorrectedZVertical,0.442485750351809,-0.5888896453754816,0.5230650214070359,-0.4287403989427406,0.04206392541527748,0.9954782128334045,0.08516930788755417,9.333857536315918,31.46366119384766,-18.91045570373535,1,11263.50103429167,walking,0,2016-03-02 02:48:50.072,2016-03-02 02:47:07.556,84,57.67838,2,2,2016-03-02 02:49:00.448,11275.357469125,0,0.3888245,97.38637,192.168.1.101,100.78.239.175,2,1,0.35,0
2016-03-02 02:49:02.395,5,234B9614-18C8-49ED-8B56-CAB6C4F40872,my_iOS_device_1,1456908542.000027,40.79922339882776,-96.68579673403565,366.469,0,121.2890625,4,13.00731632488905,-9999,1456908542.386896,10.28733158111572,30.90306091308594,-17.237548828125,205.3487243652344,202.0715942382812,25,11275.821485125,0.0504913330078125,1.009735107421875,0.075592041015625,11275.784945125,0.03179361604169297,0.00111080449067205,0.008987103414581397,11275.784945125,0.8525638239315855,2.663868688196796,-1.476855462062987,0.05312309041619301,-0.02836016565561295,0.01538276020437479,-0.0007072418229654431,0.01728761754930019,-0.002505653770640492,XArbitraryCorrectedZVertical,0.4421115894164618,-0.588377271360587,0.5231382840351261,-0.429739298676175,0.0431266762316227,0.9955908060073853,0.08330094069242477,9.357223510742188,31.44296073913574,-18.93332099914551,1,11263.50103429167,walking,0,2016-03-02 02:48:50.072,2016-03-02 02:47:07.556,84,57.67838,2,2,2016-03-02 02:49:00.448,11275.357469125,0,0.3888245,97.38637,192.168.1.101,100.78.239.175,2,1,0.35,0
2016-03-02 02:49:02.425,6,234B9614-18C8-49ED-8B56-CAB6C4F40872,my_iOS_device_1,1456908542.000027,40.79922339882776,-96.68579673403565,366.469,0,121.2890625,4,13.00731632488905,-9999,1456908542.386896,10.28733158111572,30.90306091308594,-17.237548828125,205.3487243652344,202.0715942382812,25,11275.851792125,0.043701171875,1.005340576171875,0.0719146728515625,11275.819983125,0.03078853904629706,0.001098287633548678,0.004709534071696125,11275.819983125,0.8354267757147699,2.645672201269937,-1.47878595284138,0.05211952328681946,-0.02837240882217884,0.01110535580664873,0.006694442126899958,0.01414818223565817,-0.01176582742482424,XArbitraryCorrectedZVertical,0.4417331144945637,-0.5876034202121352,0.523500035392957,-0.4307456198935675,0.04372059553861618,0.9957700371742249,0.08081185072660446,9.355489730834961,31.36047554016113,-19.07049179077148,1,11263.50103429167,walking,0,2016-03-02 02:48:50.072,2016-03-02 02:47:07.556,84,57.67838,2,2,2016-03-02 02:49:00.448,11275.357469125,0,0.3888245,97.38637,192.168.1.101,100.78.239.175,2,1,0.35,0
2016-03-02 02:49:02.457,7,234B9614-18C8-49ED-8B56-CAB6C4F40872,my_iOS_device_1,1456908542.000027,40.79922339882776,-96.68579673403565,366.469,0,121.2890625,4,13.00731632488905,-9999,1456908542.443285,10.25269222259521,30.72911071777344,-17.79962158203125,205.2621002197266,201.9849700927734,25,11275.882095125,0.05242919921875,1.011505126953125,0.071533203125,11275.854993125,0.02758182677773265,0.01917955353853266,0.006785201825303883,11275.854993125,0.8181668390467942,2.627870922052884,-1.480452621333123,0.04891353473067284,-0.01029083598405123,0.01318129058927298,-0.0006353408680297434,0.009418793953955173,-0.006660621613264084,XArbitraryCorrectedZVertical,0.4412481005907074,-0.5870159801712962,0.5238935122450691,-0.4315645265497833,0.04433651268482208,0.995921790599823,0.07857529819011688,9.357685089111328,31.33242988586426,-19.1154613494873,1,11263.50103429167,walking,0,2016-03-02 02:48:50.072,2016-03-02 02:47:07.556,84,57.67838,2,2,2016-03-02 02:49:00.448,11275.357469125,0,0.3888245,97.38637,192.168.1.101,100.78.239.175,2,1,0.35,0
2016-03-02 02:49:02.506,8,234B9614-18C8-49ED-8B56-CAB6C4F40872,my_iOS_device_1,1456908542.000027,40.79922339882776,-96.68579673403565,366.469,0,121.2890625,4,13.00731632488905,-9999,1456908542.502179,10.07949447631836,30.55513000488281,-18.29559326171875,205.1658782958984,201.8887481689453,25,11275.912386125,0.053009033203125,1.013992309570312,0.0702056884765625,11275.890004125,0.02129090765074748,0.02341078387845055,0.000297208777652843,11275.890004125,0.8014201265280351,2.610861601059756,-1.48185262239718,0.04262351989746094,-0.006059351842850447,0.006693685427308083,0.007468436844646931,0.01545801106840372,-0.005074062384665012,XArbitraryCorrectedZVertical,0.4407346583390773,-0.5865633757724833,0.5242663785235044,-0.432251236540698,0.04496076330542564,0.9960471391677856,0.07660726457834244,9.36064624786377,31.30723762512207,-19.15524291992188,1,11263.50103429167,walking,0,2016-03-02 02:48:50.072,2016-03-02 02:47:07.556,84,57.67838,2,2,2016-03-02 02:49:00.448,11275.357469125,0,0.3888245,97.38637,192.168.1.101,100.78.239.175,2,1,0.35,0
2016-03-02 02:49:02.521,9,234B9614-18C8-49ED-8B56-CAB6C4F40872,my_iOS_device_1,1456908542.000027,40.79922339882776,-96.68579673403565,366.469,0,121.2890625,4,13.00731632488905,-9999,1456908542.502179,10.07949447631836,30.55513000488281,-18.29559326171875,205.1658782958984,201.8887481689453,25,11275.942692125,0.0583038330078125,1.00360107421875,0.0679168701171875,11275.925021125,0.02444275880085625,0.02980237049464072,0.003536944243734236,11275.890004125,0.8014201265280351,2.610861601059756,-1.48185262239718,0.04262351989746094,-0.006059351842850447,0.006693685427308083,0.007468436844646931,0.01545801106840372,-0.005074062384665012,XArbitraryCorrectedZVertical,0.4407346583390773,-0.5865633757724833,0.5242663785235044,-0.432251236540698,0.04496076330542564,0.9960471391677856,0.07660726457834244,9.36064624786377,31.30723762512207,-19.15524291992188,1,11263.50103429167,walking,0,2016-03-02 02:48:50.072,2016-03-02 02:47:07.556,84,57.67838,2,2,2016-03-02 02:49:00.448,11275.357469125,0,0.3888245,97.38637,192.168.1.101,100.78.239.175,2,1,0.35,0
2016-03-02 02:49:02.551,10,234B9614-18C8-49ED-8B56-CAB6C4F40872,my_iOS_device_1,1456908542.000027,40.79922339882776,-96.68579673403565,366.469,0,121.2890625,4,13.00731632488905,-9999,1456908542.502179,10.07949447631836,30.55513000488281,-18.29559326171875,205.1658782958984,201.8887481689453,25,11275.972991125,0.0581512451171875,1.01300048828125,0.0700836181640625,11275.960030125,0.01376135230076645,0.02873976921969911,0.006579605789149766,11275.925021125,0.7835738760703821,2.592857163970555,-1.483079835128409,0.0457761362195015,0.0003326548612676561,0.009934675879776478,0.008427882567048073,0.01391542609781027,-0.004979259334504604,XArbitraryCorrectedZVertical,0.4401806455713786,-0.5861844596149725,0.5246063654190088,-0.4329167817630908,0.04569504410028458,0.9961553812026978,0.07474244385957718,9.376706123352051,31.2573413848877,-19.22873115539551,1,11263.50103429167,walking,0,2016-03-02 02:48:50.072,2016-03-02 02:47:07.556,84,57.67838,2,2,2016-03-02 02:49:00.448,11275.357469125,0,0.3888245,97.38637,192.168.1.101,100.78.239.175,2,1,0.35,0
2016-03-02 02:49:02.585,11,234B9614-18C8-49ED-8B56-CAB6C4F40872,my_iOS_device_1,1456908542.000027,40.79922339882776,-96.68579673403565,366.469,0,121.2890625,4,13.00731632488905,-9999,1456908542.560965,10.25269222259521,30.72911071777344,-18.46099853515625,205.0888824462891,201.8117523193359,25,11276.003293125,0.05926513671875,1.007781982421875,0.0599517822265625,11275.995043125,0.0287461608063153,0.0361771791959634,0.0003989415312938699,11275.960030125,0.7626866480132503,2.571904488377223,-1.483988764630568,0.03509562835097313,-0.0007295587565749884,0.01297897659242153,0.01447095163166523,0.005657501053065062,-0.001213601790368557,XArbitraryCorrectedZVertical,0.4395316960598554,-0.5859308750225464,0.5248534176202837,-0.4336194043932481,0.04676256701350212,0.9962345957756042,0.07300620526075363,9.398797988891602,31.20652198791504,-19.30035591125488,1,11263.50103429167,walking,0,2016-03-02 02:48:50.072,2016-03-02 02:47:07.556,84,57.67838,2,2,2016-03-02 02:49:00.448,11275.357469125,0,0.3888245,97.38637,192.168.1.101,100.78.239.175,2,1,0.35,0
2016-03-02 02:49:02.607,12,234B9614-18C8-49ED-8B56-CAB6C4F40872,my_iOS_device_1,1456908542.000027,40.79922339882776,-96.68579673403565,366.469,0,121.2890625,4,13.00731632488905,-9999,1456908542.560965,10.25269222259521,30.72911071777344,-18.46099853515625,205.0888824462891,201.8117523193359,25,11276.033594125,0.0626678466796875,1.008071899414062,0.0617828369140625,11275.995043125,0.0287461608063153,0.0361771791959634,0.0003989415312938699,11275.995043125,0.7395836790151842,2.549131517853727,-1.485045401531406,0.05008186399936676,0.00670825457200408,0.006800269242376089,0.009471721015870571,0.01485905051231384,-0.01349299866706133,XArbitraryCorrectedZVertical,0.43872136204908,-0.5857031177218042,0.5252505647505744,-0.4342663567465803,0.04782503098249435,0.9963256120681763,0.07104915380477905,9.44260311126709,31.15985107421875,-19.35430526733398,1,11263.50103429167,walking,0,2016-03-02 02:48:50.072,2016-03-02 02:47:07.556,84,57.67838,2,2,2016-03-02 02:49:00.448,11275.357469125,0,0.3888245,97.38637,192.168.1.101,100.78.239.175,2,1,0.35,0
2016-03-02 02:49:02.638,13,234B9614-18C8-49ED-8B56-CAB6C4F40872,my_iOS_device_1,1456908542.000027,40.79922339882776,-96.68579673403565,366.469,0,121.2890625,4,13.00731632488905,-9999,1456908542.619735,10.70301151275635,30.62472534179688,-18.75848388671875,205.0312194824219,201.7540893554688,25,11276.063896125,0.071624755859375,1.003433227539062,0.057525634765625,11276.030050125,0.02018409790171055,0.02448217358498943,0.003477822067534477,11276.030050125,0.7176982758709513,2.527162714102998,-1.486223239418516,0.04152090474963188,-0.00498645007610321,0.009880734607577324,0.01073530688881874,0.01285151578485966,-0.003852218389511108,XArbitraryCorrectedZVertical,0.4380707484542232,-0.5853249290923471,0.5256202239665012,-0.4349852030692398,0.04869767650961876,0.9964258074760437,0.06902250647544861,9.475166320800781,31.09930992126465,-19.43559455871582,1,11263.50103429167,walking,0,2016-03-02 02:48:50.072,2016-03-02 02:47:07.556,84,57.67838,2,2,2016-03-02 02:49:00.448,11275.357469125,0,0.3888245,97.38637,192.168.1.101,100.78.239.175,2,1,0.35,0
2016-03-02 02:49:02.668,14,234B9614-18C8-49ED-8B56-CAB6C4F40872,my_iOS_device_1,1456908542.000027,40.79922339882776,-96.68579673403565,366.469,0,121.2890625,4,13.00731632488905,-9999,1456908542.619735,10.70301151275635,30.62472534179688,-18.75848388671875,205.0312194824219,201.7540893554688,25,11276.094193125,0.05938720703125,1.017669677734375,0.0636138916015625,11276.065070125,-0.001050084417818244,0.01807700484723985,-2.450108202872899e-05,11276.065070125,0.6899215152899066,2.499124466728979,-1.486851397539792,0.02029784023761749,-0.01141716167330742,0.006387677509337664,0.02138624340295792,0.006954534444957972,-0.009603393264114857,XArbitraryCorrectedZVertical,0.4373102881755758,-0.5850848020983954,0.5257609024752665,-0.4359024657393631,0.05023851245641708,0.9964786767959595,0.06712903082370758,9.491334915161133,31.07273483276367,-19.47018051147461,1,11263.50103429167,walking,0,2016-03-02 02:48:50.072,2016-03-02 02:47:07.556,84,57.67838,2,2,2016-03-02 02:49:00.448,11275.357469125,0,0.3888245,97.38637,192.168.1.101,100.78.239.175,2,1,0.35,0
2016-03-02 02:49:02.698,15,234B9614-18C8-49ED-8B56-CAB6C4F40872,my_iOS_device_1,1456908542.000027,40.79922339882776,-96.68579673403565,366.469,0,121.2890625,4,13.00731632488905,-9999,1456908542.679185,10.77229309082031,30.48558044433594,-18.8907470703125,205.0029907226562,201.7258605957031,25,11276.124494125,0.059539794921875,1.0069580078125,0.05535888671875,11276.100080125,-0.002021871899588158,0.0233756301520615,-0.006435795090285487,11276.100080125,0.6776058456341575,2.486498354698852,-1.487082207901086,0.01932654157280922,-0.006118180695921183,-2.178842078137677e-05,0.008445266634225845,0.02117165923118591,-0.002693097339943051,XArbitraryCorrectedZVertical,0.4370277361397767,-0.584944657475032,0.5257708684639527,-0.4363616612520025,0.05094194039702415,0.9964980483055115,0.06630698591470718,9.531768798828125,31.02163696289062,-19.53180694580078,1,11263.50103429167,walking,0,2016-03-02 02:48:50.072,2016-03-02 02:47:07.556,84,57.67838,2,2,2016-03-02 02:49:00.448,11275.357469125,0,0.3888245,97.38637,192.168.1.101,100.78.239.175,2,1,0.35,0
2016-03-02 02:49:02.746,16,234B9614-18C8-49ED-8B56-CAB6C4F40872,my_iOS_device_1,1456908542.000027,40.79922339882776,-96.68579673403565,366.469,0,121.2890625,4,13.00731632488905,-9999,1456908542.729528,10.80693244934082,30.17243957519531,-18.92376708984375,204.9810943603516,201.7039642333984,25,11276.154792125,0.0622406005859375,1.0030517578125,0.062774658203125,11276.135097125,0.002118278331049026,0.007448328936733613,0.001092694995259511,11276.100080125,0.6776058456341575,2.486498354698852,-1.487082207901086,0.01932654157280922,-0.006118180695921183,-2.178842078137677e-05,0.008445266634225845,0.02117165923118591,-0.002693097339943051,XArbitraryCorrectedZVertical,0.4370277361397767,-0.584944657475032,0.5257708684639527,-0.4363616612520025,0.05094194039702415,0.9964980483055115,0.06630698591470718,9.531768798828125,31.02163696289062,-19.53180694580078,1,11263.50103429167,walking,0,2016-03-02 02:48:50.072,2016-03-02 02:47:07.556,84,57.67838,2,2,2016-03-02 02:49:00.448,11275.357469125,0,0.3888245,97.38637,192.168.1.101,100.78.239.175,2,1,0.35,0
2016-03-02 02:49:02.759,17,234B9614-18C8-49ED-8B56-CAB6C4F40872,my_iOS_device_1,1456908542.000027,40.79922339882776,-96.68579673403565,366.469,0,121.2890625,4,13.00731632488905,-9999,1456908542.729528,10.80693244934082,30.17243957519531,-18.92376708984375,204.9810943603516,201.7039642333984,25,11276.185075125,0.0649566650390625,1.00872802734375,0.0465087890625,11276.170108125,-0.02227467935742275,0.02443263878871395,-0.003533215818208126,11276.135097125,0.6586676411245952,2.46697081644419,-1.487872694761867,0.02346904575824738,-0.02204537391662598,0.007508451119065285,0.01036834064871073,0.009204016998410225,-0.007586067076772451,XArbitraryCorrectedZVertical,0.436631720106457,-0.5845468064187176,0.525929607497075,-0.4370993251659338,0.05173493176698685,0.9965637922286987,0.06468445807695389,9.544193267822266,30.98994255065918,-19.57600593566895,1,11263.50103429167,walking,0,2016-03-02 02:48:50.072,2016-03-02 02:47:07.556,84,57.67838,2,2,2016-03-02 02:49:00.448,11275.357469125,0,0.3888245,97.38637,192.168.1.101,100.78.239.175,2,1,0.35,0
2016-03-02 02:49:02.789,18,234B9614-18C8-49ED-8B56-CAB6C4F40872,my_iOS_device_1,1456908542.000027,40.79922339882776,-96.68579673403565,366.469,0,121.2890625,4,13.00731632488905,-9999,1456908542.787369,10.70301151275635,30.34642028808594,-18.75848388671875,204.9603729248047,201.6832427978516,25,11276.215379125,0.0673828125,1.01251220703125,0.0535736083984375,11276.205119125,-0.0338919206645664,0.01802587215431033,-0.0100931142152913,11276.170108125,0.6487833121700441,2.456631105318581,-1.487843812798628,-0.0009233777527697384,-0.005060774274170399,0.00288411951623857,0.008585457690060139,0.004796619527041912,-0.006657998077571392,XArbitraryCorrectedZVertical,0.4364613330411605,-0.5844533272642514,0.525823451822924,-0.4375220114722138,0.05241918191313744,0.9965614080429077,0.06416837126016617,9.555434226989746,30.9589786529541,-19.61946487426758,1,11263.50103429167,walking,0,2016-03-02 02:48:50.072,2016-03-02 02:47:07.556,84,57.67838,2,2,2016-03-02 02:49:00.448,11275.357469125,0,0.3888245,97.38637,192.168.1.101,100.78.239.175,2,1,0.35,0
2016-03-02 02:49:02.825,19,234B9614-18C8-49ED-8B56-CAB6C4F40872,my_iOS_device_1,1456908542.000027,40.79922339882776,-96.68579673403565,366.469,0,121.2890625,4,13.00731632488905,-9999,1456908542.787369,10.70301151275635,30.34642028808594,-18.75848388671875,204.9603729248047,201.6832427978516,25,11276.245683125,0.0547332763671875,1.01129150390625,0.0617218017578125,11276.205119125,-0.0338919206645664,0.01802587215431033,-0.0100931142152913,11276.205119125,0.6390564229489734,2.446455380391424,-1.487845482671163,-0.01253786403685808,-0.0114675797522068,-0.003674062667414546,0.01394825149327517,0.01718661747872829,-0.01670960336923599,XArbitraryCorrectedZVertical,0.4362942458124823,-0.5843479451586507,0.525732706969558,-0.4379382729132367,0.05306835100054741,0.9965615272521973,0.06363037973642349,9.563418388366699,30.94814300537109,-19.63266754150391,1,11263.50103429167,walking,0,2016-03-02 02:48:50.072,2016-03-02 02:47:07.556,84,57.67838,2,2,2016-03-02 02:49:00.448,11275.357469125,0,0.3888245,97.38637,192.168.1.101,100.78.239.175,2,1,0.35,0
2016-03-02 02:49:02.850,20,234B9614-18C8-49ED-8B56-CAB6C4F40872,my_iOS_device_1,1456908542.000027,40.79922339882776,-96.68579673403565,366.469,0,121.2890625,4,13.00731632488905,-9999,1456908542.845857,10.52981090545654,30.2420654296875,-18.5931396484375,204.9414672851562,201.6643371582031,25,11276.275978125,0.0612335205078125,1.001571655273438,0.0632171630859375,11276.240114125,-0.04758056866757369,0.027559722540685,-0.01988848702071175,11276.240114125,0.63773409375495,2.444776766207139,-1.48746887426412,-0.02622527815401554,-0.00193339807447046,-0.0134671488776803,0.004613224416971207,0.01396777108311653,0.002836620900779963,XArbitraryCorrectedZVertical,0.4363417870388018,-0.5843974324980965,0.5255187708932603,-0.438081621632593,0.05341595038771629,0.996530294418335,0.06382902711629868,9.570920944213867,30.93173599243164,-19.65485572814941,1,11263.50103429167,walking,0,2016-03-02 02:48:50.072,2016-03-02 02:47:07.556,84,57.67838,2,2,2016-03-02 02:49:00.448,11275.357469125,0,0.3888245,97.38637,192.168.1.101,100.78.239.175,2,1,0.35,0
2016-03-02 02:49:02.882,21,234B9614-18C8-49ED-8B56-CAB6C4F40872,my_iOS_device_1,1456908542.000027,40.79922339882776,-96.68579673403565,366.469,0,121.2890625,4,13.00731632488905,-9999,1456908542.845857,10.52981090545654,30.2420654296875,-18.5931396484375,204.9414672851562,201.6643371582031,25,11276.306271125,0.071044921875,1.012130737304688,0.0692138671875,11276.275123125,-0.05182964218679511,0.03500032831025738,-0.0199540007835277,11276.275123125,0.6462983718693145,2.453300605053698,-1.487067889716191,-0.03047388605773449,0.00550737464800477,-0.01353195775300264,0.005744635127484798,0.006890629418194294,-0.002655201824381948,XArbitraryCorrectedZVertical,0.4365979310220354,-0.5845319152471199,0.5253573084549203,-0.4378405932960096,0.05312377214431763,0.9964967966079712,0.06459062546491623,9.572422981262207,30.93595123291016,-19.64748764038086,1,11263.50103429167,walking,0,2016-03-02 02:48:50.072,2016-03-02 02:47:07.556,84,57.67838,2,2,2016-03-02 02:49:00.448,11275.357469125,0,0.3888245,97.38637,192.168.1.101,100.78.239.175,2,1,0.35,0
2016-03-02 02:49:02.911,22,234B9614-18C8-49ED-8B56-CAB6C4F40872,my_iOS_device_1,1456908542.000027,40.79922339882776,-96.68579673403565,366.469,0,121.2890625,4,13.00731632488905,-9999,1456908542.904773,10.21805286407471,30.41603088378906,-18.5601806640625,204.907470703125,201.6303405761719,25,11276.336566125,0.0686187744140625,1.00189208984375,0.0761566162109375,11276.310153125,-0.06671112004204889,0.02860581221686812,-0.02123258442287474,11276.310153125,0.6530823700799792,2.460079895275634,-1.485885401002423,-0.04535486549139023,-0.0008866714197210968,-0.01480763778090477,0.01761795952916145,0.01573350466787815,0.003349503735080361,XArbitraryCorrectedZVertical,0.4367830583438079,-0.5849382374898719,0.5249212458270991,-0.4376362690013086,0.05342696234583855,0.9963972568511963,0.06586436182260513,9.562849044799805,30.95707511901855,-19.61885452270508,1,11263.50103429167,walking,0,2016-03-02 02:48:50.072,2016-03-02 02:47:07.556,84,57.67838,2,2,2016-03-02 02:49:00.448,11275.357469125,0,0.3888245,97.38637,192.168.1.101,100.78.239.175,2,1,0.35,0
2016-03-02 02:49:02.941,23,234B9614-18C8-49ED-8B56-CAB6C4F40872,my_iOS_device_1,1456908542.000027,40.79922339882776,-96.68579673403565,366.469,0,121.2890625,4,13.00731632488905,-9999,1456908542.904773,10.21805286407471,30.41603088378906,-18.5601806640625,204.907470703125,201.6303405761719,25,11276.366837125,0.05810546875,1.002853393554688,0.07757568359375,11276.345173125,-0.07948550484283197,0.01477202193445152,-0.02141101621591005,11276.310153125,0.6530823700799792,2.460079895275634,-1.485885401002423,-0.04535486549139023,-0.0008866714197210968,-0.01480763778090477,0.01761795952916145,0.01573350466787815,0.003349503735080361,XArbitraryCorrectedZVertical,0.4367830583438079,-0.5849382374898719,0.5249212458270991,-0.4376362690013086,0.05342696234583855,0.9963972568511963,0.06586436182260513,9.562849044799805,30.95707511901855,-19.61885452270508,1,11263.50103429167,walking,0,2016-03-02 02:48:50.072,2016-03-02 02:47:07.556,84,57.67838,2,2,2016-03-02 02:49:00.448,11275.357469125,0,0.3888245,97.38637,192.168.1.101,100.78.239.175,2,1,0.35,0
2016-03-02 02:49:02.984,24,234B9614-18C8-49ED-8B56-CAB6C4F40872,my_iOS_device_1,1456908542.000027,40.79922339882776,-96.68579673403565,366.469,0,121.2890625,4,13.00731632488905,-9999,1456908542.963276,9.594536781311035,30.55522155761719,-18.427978515625,204.8467102050781,201.569580078125,25,11276.397154125,0.053619384765625,1.017898559570312,0.08740234375,11276.380184125,-0.0858089145351161,0.01475551033569303,-0.02576581723040762,11276.345173125,0.6677067901915035,2.474375661198728,-1.484057147951576,-0.05813133716583252,-0.01471962966024876,-0.01498346123844385,0.01501165889203548,0.005651574581861496,0.008104337379336357,XArbitraryCorrectedZVertical,0.437291191293,-0.5854934272340686,0.5241787930709799,-0.4372761754062205,0.05360711365938187,0.996240496635437,0.06805227696895599,9.571810722351074,31.00807952880859,-19.53375625610352,1,11263.50103429167,walking,0,2016-03-02 02:48:50.072,2016-03-02 02:47:07.556,84,57.67838,2,2,2016-03-02 02:49:00.448,11275.357469125,0,0.3888245,97.38637,192.168.1.101,100.78.239.175,2,1,0.35,0
2016-03-02 02:49:02.999,25,234B9614-18C8-49ED-8B56-CAB6C4F40872,my_iOS_device_1,1456908542.000027,40.79922339882776,-96.68579673403565,366.469,0,121.2890625,4,13.00731632488905,-9999,1456908542.963276,9.594536781311035,30.55522155761719,-18.427978515625,204.8467102050781,201.569580078125,25,11276.427427125,0.04791259765625,1.001724243164062,0.0747222900390625,11276.415175125,-0.07836804244943472,0.008380701634370354,-0.02565449709684231,11276.380184125,0.6882603893842723,2.494374200082395,-1.481987291718572,-0.0644567534327507,-0.0147353857755661,-0.01933655329048634,0.002185266232118011,0.01242481824010611,0.01167241577059031,XArbitraryCorrectedZVertical,0.4380618450615554,-0.5860713279051597,0.5233077093903655,-0.4367736940354177,0.05347879603505135,0.9960590600967407,0.07075556367635727,9.571489334106445,31.03458023071289,-19.49178123474121,1,11263.50103429167,walking,0,2016-03-02 02:48:50.072,2016-03-02 02:47:07.556,84,57.67838,2,2,2016-03-02 02:49:00.448,11275.357469125,0,0.3888245,97.38637,192.168.1.101,100.78.239.175,2,1,0.35,0
2016-03-02 02:49:03.034,26,234B9614-18C8-49ED-8B56-CAB6C4F40872,my_iOS_device_1,1456908542.000027,40.79922339882776,-96.68579673403565,366.469,0,121.2890625,4,13.00731632488905,-9999,1456908543.022502,9.837016105651855,30.45088195800781,-17.99810791015625,204.7983856201172,201.5212554931641,25,11276.457743125,0.05340576171875,1.009536743164062,0.075531005859375,11276.450196125,-0.08480223964306616,0.01689482763935368,-0.02148931315195838,11276.415175125,0.7141049994501141,2.519532388115606,-1.48023186603008,-0.05701807886362076,-0.02110960893332958,-0.01922546699643135,-0.002636685967445374,0.01630518957972527,0.006151554174721241,XArbitraryCorrectedZVertical,0.4390634678193842,-0.5864920576188163,0.5225429798214167,-0.4361183002532736,0.05270077288150787,0.9959018230438232,0.07349932193756104,9.543778419494629,31.10304832458496,-19.39599990844727,1,11263.50103429167,walking,0,2016-03-02 02:48:50.072,2016-03-02 02:47:07.556,84,57.67838,2,2,2016-03-02 02:49:00.448,11275.357469125,0,0.3888245,97.38637,192.168.1.101,100.78.239.175,2,1,0.35,0
2016-03-02 02:49:03.067,27,234B9614-18C8-49ED-8B56-CAB6C4F40872,my_iOS_device_1,1456908542.000027,40.79922339882776,-96.68579673403565,366.469,0,121.2890625,4,13.00731632488905,-9999,1456908543.022502,9.837016105651855,30.45088195800781,-17.99810791015625,204.7983856201172,201.5212554931641,25,11276.488015125,0.0489044189453125,1.019302368164062,0.077728271484375,11276.450196125,-0.08480223964306616,0.01689482763935368,-0.02148931315195838,11276.450196125,0.732531015177449,2.53728712288164,-1.478944783199644,-0.06345247477293015,-0.01259525399655104,-0.01506060920655727,0.002724244957789779,0.008289485238492489,0.0001444449590053409,XArbitraryCorrectedZVertical,0.4398439883348249,-0.5867506478399962,0.5219580192002383,-0.4356842542227213,0.05211584270000458,0.9957846403121948,0.07547811418771744,9.499256134033203,31.16367721557617,-19.32039260864258,1,11263.50103429167,walking,0,2016-03-02 02:48:50.072,2016-03-02 02:47:07.556,84,57.67838,2,2,2016-03-02 02:49:00.448,11275.357469125,0,0.3888245,97.38637,192.168.1.101,100.78.239.175,2,1,0.35,0
2016-03-02 02:49:03.095,28,234B9614-18C8-49ED-8B56-CAB6C4F40872,my_iOS_device_1,1456908543.000027,40.79921912405714,-96.68579162107471,366.4678,0.15,104.0625,4,13.53743972944948,-9999,1456908543.082455,10.07949829101562,30.41609191894531,-17.7666015625,204.7598724365234,201.4827423095703,25,11276.518327125,0.0535888671875,1.003677368164062,0.07037353515625,11276.520235125,-0.06453185532203705,0.0392326239146113,-0.02440361033283209,11276.485222125,0.7501110792110031,2.554727094186812,-1.477721897082532,-0.05060213431715965,0.004414183553308249,-0.0202117208391428,-0.000791494851000607,0.02353911474347115,7.946023106342182e-05,XArbitraryCorrectedZVertical,0.4404725587625383,-0.5870933749375604,0.5215226007480219,-0.4351085737957974,0.05146593227982521,0.9956716895103455,0.07738941162824631,9.474612236022949,31.21413421630859,-19.25091361999512,1,11263.50103429167,walking,0,2016-03-02 02:48:50.072,2016-03-02 02:47:07.556,84,57.67838,2,2,2016-03-02 02:49:00.448,11275.357469125,0,0.3888245,97.38637,192.168.1.101,100.78.239.175,2,1,0.35,0
2016-03-02 02:49:03.145,29,234B9614-18C8-49ED-8B56-CAB6C4F40872,my_iOS_device_1,1456908543.000027,40.79921912405714,-96.68579162107471,366.4678,0.15,104.0625,4,13.53743972944948,-9999,1456908543.141584,10.46053504943848,30.52047729492188,-17.79974365234375,204.7475433349609,201.4704132080078,25,11276.548602125,0.060333251953125,1.011016845703125,0.0662689208984375,11276.520235125,-0.06453185532203705,0.0392326239146113,-0.02440361033283209,11276.520235125,0.7659910089835755,2.57090676136629,-1.477173375023174,-0.04318100586533546,0.009742703288793564,-0.01797626726329327,0.003086723852902651,0.008056796155869961,-0.008298001252114773,XArbitraryCorrectedZVertical,0.4409279366547255,-0.5872974738541533,0.5214355083436149,-0.4344758250125759,0.05050214380025864,0.9956205487251282,0.07867153733968735,9.461551666259766,31.23723602294922,-19.21983909606934,1,11263.50103429167,walking,0,2016-03-02 02:48:50.072,2016-03-02 02:47:07.556,84,57.67838,2,2,2016-03-02 02:49:00.448,11275.357469125,0,0.3888245,97.38637,192.168.1.101,100.78.239.175,2,1,0.35,0
2016-03-02 02:49:03.154,30,234B9614-18C8-49ED-8B56-CAB6C4F40872,my_iOS_device_1,1456908543.000027,40.79921912405714,-96.68579162107471,366.4678,0.15,104.0625,4,13.53743972944948,-9999,1456908543.141584,10.46053504943848,30.52047729492188,-17.79974365234375,204.7475433349609,201.4704132080078,25,11276.57885229167,0.0530242919921875,1.016448974609375,0.0816497802734375,11276.55518929167,-0.07617519560786347,0.03708531712768041,-0.02883457775450593,11276.55518929167,0.7769056503939912,2.582037826303346,-1.476307033577629,-0.0548219345510006,0.007595211733132601,-0.02240609563887119,0.01025208830833435,0.01547763869166374,-0.01369084417819977,XArbitraryCorrectedZVertical,0.4412549982411119,-0.5876001269478284,0.5212049731779984,-0.4340109368122426,0.05008116364479065,0.9955391883850098,0.07995976507663727,9.441257476806641,31.27276420593262,-19.17198944091797,1,11263.50103429167,walking,0,2016-03-02 02:48:50.072,2016-03-02 02:47:07.556,84,57.67838,2,2,2016-03-02 02:49:00.448,11275.357469125,0,0.3888245,97.38637,192.168.1.101,100.78.239.175,2,1,0.35,0
2016-03-02 02:49:03.183,31,234B9614-18C8-49ED-8B56-CAB6C4F40872,my_iOS_device_1,1456908543.000027,40.79921912405714,-96.68579162107471,366.4678,0.15,104.0625,4,13.53743972944948,-9999,1456908543.141584,10.46053504943848,30.52047729492188,-17.79974365234375,204.7475433349609,201.4704132080078,25,11276.60914629167,0.04803466796875,1.005386352539062,0.0757598876953125,11276.59017429167,-0.05178490108048178,0.03605494010192876,-0.02315112567216783,11276.55518929167,0.7769056503939912,2.582037826303346,-1.476307033577629,-0.0548219345510006,0.007595211733132601,-0.02240609563887119,0.01025208830833435,0.01547763869166374,-0.01369084417819977,XArbitraryCorrectedZVertical,0.4412549982411119,-0.5876001269478284,0.5212049731779984,-0.4340109368122426,0.05008116364479065,0.9955391883850098,0.07995976507663727,9.441257476806641,31.27276420593262,-19.17198944091797,1,11263.50103429167,walking,0,2016-03-02 02:48:50.072,2016-03-02 02:47:07.556,84,57.67838,2,2,2016-03-02 02:49:00.448,11275.357469125,0,0.3888245,97.38637,192.168.1.101,100.78.239.175,2,1,0.35,0
2016-03-02 02:49:03.224,32,234B9614-18C8-49ED-8B56-CAB6C4F40872,my_iOS_device_1,1456908543.000027,40.79921912405714,-96.68579162107471,366.4678,0.15,104.0625,4,13.53743972944948,-9999,1456908543.203269,10.04485511779785,31.007568359375,-17.8658447265625,204.7180786132812,201.4409484863281,25,11276.63944129167,0.052734375,1.013809204101562,0.0738067626953125,11276.62521129167,-0.05168982622956595,0.04560796524815199,-0.02954910387497419,11276.59017429167,0.7879753533834017,2.593278558201647,-1.475478812573801,-0.03043095208704472,0.006564958021044731,-0.01672196388244629,0.002591337775811553,0.01769235171377659,0.001725499634630978,XArbitraryCorrectedZVertical,0.4416040408475894,-0.5878745699454637,0.5209835680939688,-0.4335498620626928,0.0496089793741703,0.9954607486724854,0.08122127503156662,9.438447952270508,31.28750038146973,-19.14931106567383,1,11263.50103429167,walking,0,2016-03-02 02:48:50.072,2016-03-02 02:47:07.556,84,57.67838,2,2,2016-03-02 02:49:00.448,11275.357469125,0,0.3888245,97.38637,192.168.1.101,100.78.239.175,2,1,0.35,0
2016-03-02 02:49:03.245,33,234B9614-18C8-49ED-8B56-CAB6C4F40872,my_iOS_device_1,1456908543.000027,40.79921912405714,-96.68579162107471,366.4678,0.15,104.0625,4,13.53743972944948,-9999,1456908543.203269,10.04485511779785,31.007568359375,-17.8658447265625,204.7180786132812,201.4409484863281,25,11276.66972529167,0.0534210205078125,1.000167846679688,0.079010009765625,11276.66022729167,-0.07393627607943386,0.02961967764386129,-0.03732420267746053,11276.62521129167,0.7986003729859338,2.60437947889594,-1.475373499674846,-0.03033473342657089,0.01611796580255032,-0.02312035672366619,-6.127820142864948e-06,0.01314000226557255,-0.01012546755373478,XArbitraryCorrectedZVertical,0.4418389221186641,-0.5879684380805945,0.5210951250196429,-0.4330489041699935,0.04875795915722847,0.9954506754875183,0.08185703307390213,9.426475524902344,31.3192195892334,-19.10330390930176,1,11263.50103429167,walking,0,2016-03-02 02:48:50.072,2016-03-02 02:47:07.556,84,57.67838,2,2,2016-03-02 02:49:00.448,11276.67231929167,0,0.6198425,97.38368,192.168.1.101,100.78.239.175,2,1,0.35,0
2016-03-02 02:49:03.276,34,234B9614-18C8-49ED-8B56-CAB6C4F40872,my_iOS_device_1,1456908543.000027,40.79921912405714,-96.68579162107471,366.4678,0.15,104.0625,4,13.53743972944948,-9999,1456908543.265708,9.352060317993164,31.00759887695312,-17.99810791015625,204.6589660644531,201.3818359375,25,11276.70004329167,0.0305633544921875,0.99688720703125,0.08868408203125,11276.69523829167,-0.08129059542968768,0.01470597553941755,-0.04488358543165044,11276.66022729167,0.8098519826178995,2.615730422754436,-1.475059579300407,-0.05257862433791161,0.0001295517868129537,-0.03089474514126778,0.004690800793468952,0.01036234386265278,-0.007266530301421881,XArbitraryCorrectedZVertical,0.4422013730291183,-0.5880439428268216,0.5210547462156342,-0.4326248010019721,0.04798253998160362,0.9954207539558411,0.08267546445131302,9.394742965698242,31.3546257019043,-19.06080436706543,1,11263.50103429167,walking,0,2016-03-02 02:48:50.072,2016-03-02 02:47:07.556,84,57.67838,2,2,2016-03-02 02:49:00.448,11276.67231929167,0,0.6198425,97.38368,192.168.1.101,100.78.239.175,2,1,0.35,0
2016-03-02 02:49:03.311,35,234B9614-18C8-49ED-8B56-CAB6C4F40872,my_iOS_device_1,1456908543.000027,40.79921912405714,-96.68579162107471,366.4678,0.15,104.0625,4,13.53743972944948,-9999,1456908543.265708,9.352060317993164,31.00759887695312,-17.99810791015625,204.6589660644531,201.3818359375,25,11276.73036529167,0.051849365234375,1.01092529296875,0.0929412841796875,11276.73024929167,-0.1015820187233284,0.04235970766658235,-0.03773219895646066,11276.69523829167,0.8274218656394777,2.632874694363217,-1.473719498896198,-0.0599323958158493,-0.0147840203717351,-0.03845271468162537,0.01129438448697329,0.0131768835708499,0.002736232709139585,XArbitraryCorrectedZVertical,0.4429609429790535,-0.5883120167851522,0.5205646360646101,-0.4320729493733691,0.04720781370997429,0.9952917695045471,0.08465085178613663,9.378458023071289,31.37703704833984,-19.03192710876465,1,11263.50103429167,walking,0,2016-03-02 02:48:50.072,2016-03-02 02:47:07.556,84,57.67838,2,2,2016-03-02 02:49:00.448,11276.67231929167,0,0.6198425,97.38368,192.168.1.101,100.78.239.175,2,1,0.35,0
2016-03-02 02:49:03.336,36,234B9614-18C8-49ED-8B56-CAB6C4F40872,my_iOS_device_1,1456908543.000027,40.79921912405714,-96.68579162107471,366.4678,0.15,104.0625,4,13.53743972944948,-9999,1456908543.319401,9.074941635131836,31.14674377441406,-17.8658447265625,204.5709381103516,201.2938079833984,25,11276.76066229167,0.037750244140625,1.010894775390625,0.110565185546875,11276.73024929167,-0.1015820187233284,0.04235970766658235,-0.03773219895646066,11276.73024929167,0.8513777894385406,2.657002130710983,-1.471762392344677,-0.08022493869066238,0.01287001837044954,-0.03130224347114563,0.005835948511958122,0.01394831575453281,0.005559530574828386,XArbitraryCorrectedZVertical,0.4438311550091565,-0.5888617735237954,0.5200366702034658,-0.4310656320902045,0.04605919495224953,0.9951001405715942,0.0874885618686676,9.337170600891113,31.43990325927734,-18.94829368591309,1,11263.50103429167,walking,0,2016-03-02 02:48:50.072,2016-03-02 02:47:07.556,84,57.67838,2,2,2016-03-02 02:49:00.448,11276.67231929167,0,0.6198425,97.38368,192.168.1.101,100.78.239.175,2,1,0.35,0
2016-03-02 02:49:03.393,37,234B9614-18C8-49ED-8B56-CAB6C4F40872,my_iOS_device_1,1456908543.000027,40.79921912405714,-96.68579162107471,366.4678,0.15,104.0625,4,13.53743972944948,-9999,1456908543.375385,8.624625205993652,30.90318298339844,-17.56829833984375,204.4883728027344,201.2112426757812,25,11276.79094229167,0.0377044677734375,1.013885498046875,0.0977325439453125,11276.76524429167,-0.08987689310021214,0.04874889743779145,-0.0375654850722217,11276.76524429167,0.8774556654279799,2.683455393785966,-1.46924995812908,-0.06852314621210098,0.01925986632704735,-0.03113564662635326,-0.007084357552230358,0.01604617945849895,0.01964693330228329,XArbitraryCorrectedZVertical,0.4447857108437869,-0.5895971487868394,0.5193955681666732,-0.429847783919405,0.04483460262417793,0.9948486089706421,0.09091825038194656,9.328457832336426,31.47759819030762,-18.88991165161133,1,11263.50103429167,walking,0,2016-03-02 02:48:50.072,2016-03-02 02:47:07.556,84,57.67838,2,2,2016-03-02 02:49:00.448,11276.67231929167,0,0.6198425,97.38368,192.168.1.101,100.78.239.175,2,1,0.35,0
2016-03-02 02:49:03.397,38,234B9614-18C8-49ED-8B56-CAB6C4F40872,my_iOS_device_1,1456908543.000027,40.79921912405714,-96.68579162107471,366.4678,0.15,104.0625,4,13.53743972944948,-9999,1456908543.375385,8.624625205993652,30.90318298339844,-17.56829833984375,204.4883728027344,201.2112426757812,25,11276.82125929167,0.0621185302734375,1.006484985351562,0.0822906494140625,11276.80026829167,-0.07507504376155175,0.04665085913102703,-0.03095498661442702,11276.76524429167,0.8774556654279799,2.683455393785966,-1.46924995812908,-0.06852314621210098,0.01925986632704735,-0.03113564662635326,-0.007084357552230358,0.01604617945849895,0.01964693330228329,XArbitraryCorrectedZVertical,0.4447857108437869,-0.5895971487868394,0.5193955681666732,-0.429847783919405,0.04483460262417793,0.9948486089706421,0.09091825038194656,9.328457832336426,31.47759819030762,-18.88991165161133,1,11263.50103429167,walking,0,2016-03-02 02:48:50.072,2016-03-02 02:47:07.556,84,57.67838,2,2,2016-03-02 02:49:00.448,11276.67231929167,0,0.6198425,97.38368,192.168.1.101,100.78.239.175,2,1,0.35,0
2016-03-02 02:49:03.427,39,234B9614-18C8-49ED-8B56-CAB6C4F40872,my_iOS_device_1,1456908543.000027,40.79921912405714,-96.68579162107471,366.4678,0.15,104.0625,4,13.53743972944948,-9999,1456908543.375385,8.624625205993652,30.90318298339844,-17.56829833984375,204.4883728027344,201.2112426757812,25,11276.85155829167,0.0504913330078125,1.0067138671875,0.1229248046875,11276.83526829167,-0.09841924861275031,0.02428723019319563,-0.03661127445364631,11276.80026829167,0.8993078593868808,2.706062923690054,-1.467459128199517,-0.05372460559010506,0.01716242171823978,-0.02452667243778706,-0.005814988166093826,0.01922003738582134,0.004208873491734266,XArbitraryCorrectedZVertical,0.445479894015939,-0.5901775151066274,0.5190945224966294,-0.4286945782303513,0.04351945593953133,0.9946654438972473,0.09352367371320724,9.281435012817383,31.59724235534668,-18.71249198913574,1,11263.50103429167,walking,0,2016-03-02 02:48:50.072,2016-03-02 02:47:07.556,84,57.67838,2,2,2016-03-02 02:49:00.448,11276.67231929167,0,0.6198425,97.38368,192.168.1.101,100.78.239.175,2,1,0.35,0
2016-03-02 02:49:03.482,40,234B9614-18C8-49ED-8B56-CAB6C4F40872,my_iOS_device_1,1456908543.000027,40.79921912405714,-96.68579162107471,366.4678,0.15,104.0625,4,13.53743972944948,-9999,1456908543.434275,9.00566291809082,31.42510986328125,-17.138427734375,204.4202423095703,201.1431121826172,25,11276.88186029167,0.0338134765625,1.01019287109375,0.124664306640625,11276.87030329167,-0.06970770890060604,0.03388233328464212,-0.03513348636476134,11276.83526829167,0.9092773816757075,2.715943060813787,-1.465661770616298,-0.07706717401742935,-0.005201259162276983,-0.03017952665686607,0.02312058210372925,0.01069427840411663,0.006656714249402285,XArbitraryCorrectedZVertical,0.4459884783413707,-0.5906630710202064,0.5185178970226896,-0.4281945868257598,0.04333144426345825,0.9944784641265869,0.095577172935009,9.270720481872559,31.61894035339355,-18.68112754821777,1,11263.50103429167,walking,0,2016-03-02 02:48:50.072,2016-03-02 02:47:07.556,84,57.67838,2,2,2016-03-02 02:49:00.448,11276.67231929167,0,0.6198425,97.38368,192.168.1.101,100.78.239.175,2,1,0.35,0
2016-03-02 02:49:03.488,41,234B9614-18C8-49ED-8B56-CAB6C4F40872,my_iOS_device_1,1456908543.000027,40.79921912405714,-96.68579162107471,366.4678,0.15,104.0625,4,13.53743972944948,-9999,1456908543.434275,9.00566291809082,31.42510986328125,-17.138427734375,204.4202423095703,201.1431121826172,25,11276.91215929167,0.04071044921875,1.020233154296875,0.135345458984375,11276.87030329167,-0.06970770890060604,0.03388233328464212,-0.03513348636476134,11276.87030329167,0.9278506030594023,2.734545906912057,-1.462807024244756,-0.0483611524105072,0.004394654184579849,-0.02869989164173603,0.001016091671772301,0.01437010243535042,0.01783272810280323,XArbitraryCorrectedZVertical,0.4468754311422193,-0.5914296240376765,0.5176798596624085,-0.4272246619192362,0.04266982153058052,0.9941748380661011,0.09897330403327942,9.266243934631348,31.68917846679688,-18.56396675109863,1,11263.50103429167,walking,0,2016-03-02 02:48:50.072,2016-03-02 02:47:07.556,84,57.67838,2,2,2016-03-02 02:49:00.448,11276.67231929167,0,0.6198425,97.38368,192.168.1.101,100.78.239.175,2,1,0.35,0
2016-03-02 02:49:03.524,42,234B9614-18C8-49ED-8B56-CAB6C4F40872,my_iOS_device_1,1456908543.000027,40.79921912405714,-96.68579162107471,366.4678,0.15,104.0625,4,13.53743972944948,-9999,1456908543.493092,8.555346488952637,31.52949523925781,-17.23760986328125,204.3448944091797,201.0677642822266,25,11276.94246029167,0.0341033935546875,1.013565063476562,0.11822509765625,11276.90531529167,-0.04949564780744967,0.03708771397266149,-0.03484160390928866,11276.90531529167,0.951599404376394,2.758396062937404,-1.460683774077214,-0.02815693616867065,0.007601375691592693,-0.02841063961386681,-0.006525364238768816,0.02424474060535431,0.03408128395676613,XArbitraryCorrectedZVertical,0.4479069149285423,-0.591894877645063,0.5171946358320187,-0.426086326984692,0.04108652099967003,0.9939437508583069,0.1019202992320061,9.246359825134277,31.7236328125,-18.51497077941895,1,11263.50103429167,walking,0,2016-03-02 02:48:50.072,2016-03-02 02:47:07.556,84,57.67838,2,2,2016-03-02 02:49:00.448,11276.67231929167,0,0.6198425,97.38368,192.168.1.101,100.78.239.175,2,1,0.35,0
2016-03-02 02:49:03.564,43,234B9614-18C8-49ED-8B56-CAB6C4F40872,my_iOS_device_1,1456908543.000027,40.79921912405714,-96.68579162107471,366.4678,0.15,104.0625,4,13.53743972944948,-9999,1456908543.551968,8.589985847473145,31.77301025390625,-16.74169921875,204.2808837890625,201.0037536621094,25,11276.97276229167,0.0371246337890625,1.005264282226562,0.1219482421875,11276.94032629167,-0.0006117281023912011,0.0360698538040332,-0.03093394764181539,11276.94032629167,0.9629664133900353,2.769972386040529,-1.459959733576601,0.02072103507816792,0.006584340706467628,-0.02450312487781048,-0.0003092900733463466,0.02551475167274475,0.02203195542097092,XArbitraryCorrectedZVertical,0.4483423467616404,-0.5920463991947968,0.5171123750837755,-0.4255173237788872,0.0401652455329895,0.9938638806343079,0.1030595973134041,9.201869964599609,31.79673194885254,-18.41145324707031,1,11263.50103429167,walking,0,2016-03-02 02:48:50.072,2016-03-02 02:47:07.556,84,57.67838,2,2,2016-03-02 02:49:00.448,11276.67231929167,0,0.6198425,97.38368,192.168.1.101,100.78.239.175,2,1,0.35,0
2016-03-02 02:49:03.579,44,234B9614-18C8-49ED-8B56-CAB6C4F40872,my_iOS_device_1,1456908543.000027,40.79921912405714,-96.68579162107471,366.4678,0.15,104.0625,4,13.53743972944948,-9999,1456908543.551968,8.589985847473145,31.77301025390625,-16.74169921875,204.2808837890625,201.0037536621094,25,11277.00306329167,0.0456390380859375,0.99847412109375,0.1287078857421875,11276.97534229167,-0.02835893718381777,0.03074965689438191,-0.02493970466026504,11276.97534229167,0.9739634184365999,2.781155740758642,-1.460073994647647,-0.00702982721850276,0.001264980179257691,-0.01851086318492889,-0.00184552266728133,0.01138774026185274,0.01855218037962914,XArbitraryCorrectedZVertical,0.4486946812091598,-0.59192154384286,0.5173221610815669,-0.4250644076409869,0.03897015750408173,0.9938765168190002,0.1033960655331612,9.188823699951172,31.81219100952148,-18.3912525177002,1,11263.50103429167,walking,0,2016-03-02 02:48:50.072,2016-03-02 02:47:07.556,84,57.67838,2,2,2016-03-02 02:49:00.448,11276.67231929167,0,0.6198425,97.38368,192.168.1.101,100.78.239.175,2,1,0.35,0
2016-03-02 02:49:03.640,45,234B9614-18C8-49ED-8B56-CAB6C4F40872,my_iOS_device_1,1456908543.000027,40.79921912405714,-96.68579162107471,366.4678,0.15,104.0625,4,13.53743972944948,-9999,1456908543.6104,8.520707130432129,31.98178100585938,-16.01434326171875,204.2237701416016,200.9466400146484,25,11277.03336729167,0.02935791015625,0.9980316162109375,0.11688232421875,11277.01035329167,-0.01867621609250768,0.04030694309834927,-0.03226419660630997,11276.97534229167,0.9739634184365999,2.781155740758642,-1.460073994647647,-0.00702982721850276,0.001264980179257691,-0.01851086318492889,-0.00184552266728133,0.01138774026185274,0.01855218037962914,XArbitraryCorrectedZVertical,0.4486946812091598,-0.59192154384286,0.5173221610815669,-0.4250644076409869,0.03897015750408173,0.9938765168190002,0.1033960655331612,9.188823699951172,31.81219100952148,-18.3912525177002,1,11263.50103429167,walking,0,2016-03-02 02:48:50.072,2016-03-02 02:47:07.556,84,57.67838,2,2,2016-03-02 02:49:00.448,11276.67231929167,0,0.6198425,97.38368,192.168.1.101,100.78.239.175,2,1,0.35,0
2016-03-02 02:49:03.642,46,234B9614-18C8-49ED-8B56-CAB6C4F40872,my_iOS_device_1,1456908543.000027,40.79921912405714,-96.68579162107471,366.4678,0.15,104.0625,4,13.53743972944948,-9999,1456908543.6104,8.520707130432129,31.98178100585938,-16.01434326171875,204.2237701416016,200.9466400146484,25,11277.06366929167,0.0369720458984375,1.00421142578125,0.120147705078125,11277.04536329167,-0.08361100768747372,0.03069639367258032,-0.03000503705359575,11277.01035329167,0.980597178518712,2.787932973463048,-1.458966376262942,0.002646953565999866,0.01082262769341469,-0.0258330050855875,0.006989277899265289,0.004720576107501984,0.0240174476057291,XArbitraryCorrectedZVertical,0.4490118327052474,-0.592227653252835,0.5170445133653834,-0.4246407328696334,0.03864976018667221,0.9937535524368286,0.1046904399991035,9.152185440063477,31.84576034545898,-18.35138320922852,1,11263.50103429167,walking,0,2016-03-02 02:48:50.072,2016-03-02 02:47:07.556,84,57.67838,2,2,2016-03-02 02:49:00.448,11276.67231929167,0,0.6198425,97.38368,192.168.1.101,100.78.239.175,2,1,0.35,0
2016-03-02 02:49:03.670,47,234B9614-18C8-49ED-8B56-CAB6C4F40872,my_iOS_device_1,1456908543.000027,40.79921912405714,-96.68579162107471,366.4678,0.15,104.0625,4,13.53743972944948,-9999,1456908543.6104,8.520707130432129,31.98178100585938,-16.01434326171875,204.2237701416016,200.9466400146484,25,11277.09397029167,0.0357208251953125,1.006423950195312,0.11688232421875,11277.08036129167,-0.1006395260135494,0.03706694131615887,-0.0291898434439225,11277.04536329167,0.9973895015962165,2.804954507844039,-1.457450623251154,-0.06229286640882492,0.001213114243000746,-0.02357576601207256,-0.003149557625874877,0.007301759906113148,0.01287417113780975,XArbitraryCorrectedZVertical,0.4497369678919204,-0.5925487553018781,0.5167761504270343,-0.4237511565192271,0.03735976293683052,0.9935832619667053,0.1067547351121902,9.121397018432617,31.88723754882812,-18.29459762573242,1,11263.50103429167,walking,0,2016-03-02 02:48:50.072,2016-03-02 02:47:07.556,84,57.67838,2,2,2016-03-02 02:49:00.448,11276.67231929167,0,0.6198425,97.38368,192.168.1.101,100.78.239.175,2,1,0.35,0
2016-03-02 02:49:03.723,48,234B9614-18C8-49ED-8B56-CAB6C4F40872,my_iOS_device_1,1456908543.000027,40.79921912405714,-96.68579162107471,366.4678,0.15,104.0625,4,13.53743972944948,-9999,1456908543.671372,8.174308776855469,32.05136108398438,-16.5433349609375,204.1550445556641,200.8779144287109,25,11277.12425629167,0.0257568359375,1.011459350585938,0.1292572021484375,11277.11539129167,-0.09950688360193867,0.05088022525818186,-0.03344344433699706,11277.08036129167,1.013499722219753,2.821074800792512,-1.454574447961378,-0.07931452244520187,0.007555494550615549,-0.02275672741234303,-0.00238509476184845,0.007707467302680016,0.004065659362822771,XArbitraryCorrectedZVertical,0.4506516878123784,-0.5932457065443562,0.5159919432873952,-0.4227586810475101,0.03653426468372345,0.9932538270950317,0.1100548207759857,9.104965209960938,31.92476272583008,-18.23725128173828,1,11263.50103429167,walking,0,2016-03-02 02:48:50.072,2016-03-02 02:47:07.556,84,57.67838,2,2,2016-03-02 02:49:00.448,11276.67231929167,0,0.6198425,97.38368,192.168.1.101,100.78.239.175,2,1,0.35,0
2016-03-02 02:49:03.730,49,234B9614-18C8-49ED-8B56-CAB6C4F40872,my_iOS_device_1,1456908543.000027,40.79921912405714,-96.68579162107471,366.4678,0.15,104.0625,4,13.53743972944948,-9999,1456908543.671372,8.174308776855469,32.05136108398438,-16.5433349609375,204.1550445556641,200.8779144287109,25,11277.15455429167,0.0200958251953125,1.004165649414062,0.125518798828125,11277.11539129167,-0.09950688360193867,0.05088022525818186,-0.03344344433699706,11277.11539129167,1.031923482425206,2.83980706215295,-1.451589997248883,-0.0781843438744545,0.0213694479316473,-0.02701170742511749,-0.004982325714081526,0.0188459325581789,0.01482249330729246,XArbitraryCorrectedZVertical,0.4516189601007368,-0.5939824614940931,0.5152923568606167,-0.4215435176538343,0.03534731641411781,0.9929033517837524,0.1135497018694878,9.076848030090332,32.00063323974609,-18.11790466308594,1,11263.50103429167,walking,0,2016-03-02 02:48:50.072,2016-03-02 02:47:07.556,84,57.67838,2,2,2016-03-02 02:49:00.448,11276.67231929167,0,0.6198425,97.38368,192.168.1.101,100.78.239.175,2,1,0.35,0
2016-03-02 02:49:03.809,50,234B9614-18C8-49ED-8B56-CAB6C4F40872,my_iOS_device_1,1456908543.000027,40.79921912405714,-96.68579162107471,366.4678,0.15,104.0625,4,13.53743972944948,-9999,1456908543.788774,8.035748481750488,32.6776123046875,-15.882080078125,204.0078125,200.7306823730469,25,11277.18485529167,0.0280914306640625,1.010101318359375,0.1238555908203125,11277.15039329167,-0.07722208423237362,0.05941592286799482,-0.02886120936540672,11277.15039329167,1.050930011846826,2.859772852521377,-1.449319243620239,-0.05590268597006798,0.02990611456334591,-0.02243240922689438,-0.01406218856573105,0.0105125829577446,0.01295059733092785,XArbitraryCorrectedZVertical,0.452387461887838,-0.5945962183505025,0.5150213682157251,-0.4201831883014295,0.03370025008916855,0.9926307201385498,0.1163981556892395,9.059590339660645,32.04581451416016,-18.04654312133789,1,11263.50103429167,walking,0,2016-03-02 02:48:50.072,2016-03-02 02:47:07.556,84,57.67838,2,2,2016-03-02 02:49:00.448,11276.67231929167,0,0.6198425,97.38368,192.168.1.101,100.78.239.175,2,1,0.35,0
2016-03-02 02:49:03.812,51,234B9614-18C8-49ED-8B56-CAB6C4F40872,my_iOS_device_1,1456908543.000027,40.79921912405714,-96.68579162107471,366.4678,0.15,104.0625,4,13.53743972944948,-9999,1456908543.788774,8.035748481750488,32.6776123046875,-15.882080078125,204.0078125,200.7306823730469,25,11277.21514929167,0.0288543701171875,1.014755249023438,0.1282196044921875,11277.18541829167,-0.07509155536031023,0.06367112165772343,-0.02883244722563386,11277.18541829167,1.067344985574927,2.877356618725956,-1.447699195130837,-0.05377345904707909,0.0341622605919838,-0.02240682207047939,-0.003976949024945498,0.01766820810735226,0.005330739077180624,XArbitraryCorrectedZVertical,0.4529389927243597,-0.5950703275813274,0.5150019471048372,-0.4189398149857714,0.03206837922334671,0.9924331307411194,0.1185248494148254,9.022720336914062,32.12062454223633,-17.93164825439453,1,11263.50103429167,walking,0,2016-03-02 02:48:50.072,2016-03-02 02:47:07.556,84,57.67838,2,2,2016-03-02 02:49:00.448,11276.67231929167,0,0.6198425,97.38368,192.168.1.101,100.78.239.175,2,1,0.35,0
2016-03-02 02:49:03.821,52,234B9614-18C8-49ED-8B56-CAB6C4F40872,my_iOS_device_1,1456908543.000027,40.79921912405714,-96.68579162107471,366.4678,0.15,104.0625,4,13.53743972944948,-9999,1456908543.788774,8.035748481750488,32.6776123046875,-15.882080078125,204.0078125,200.7306823730469,25,11277.24546629167,0.033203125,1.01434326171875,0.1234283447265625,11277.22042929167,-0.04332803303893516,0.06372438487952502,-0.01771374967455305,11277.22042929167,1.075756605916588,2.886935788047218,-1.44634439800227,-0.02201171033084393,0.03421592339873314,-0.01128892041742802,-0.002415866358205676,0.0224894005805254,0.008091933093965054,XArbitraryCorrectedZVertical,0.4531468549221497,-0.5955852279829283,0.5149492214117712,-0.4180472024186852,0.03127023577690125,0.9922658205032349,0.1201276704668999,9.008954048156738,32.14806365966797,-17.88935089111328,1,11263.50103429167,walking,0,2016-03-02 02:48:50.072,2016-03-02 02:47:07.556,84,57.67838,2,2,2016-03-02 02:49:00.448,11276.67231929167,0,0.6198425,97.38368,192.168.1.101,100.78.239.175,2,1,0.35,0
2016-03-02 02:49:03.884,53,234B9614-18C8-49ED-8B56-CAB6C4F40872,my_iOS_device_1,1456908543.000027,40.79921912405714,-96.68579162107471,366.4678,0.15,104.0625,4,13.53743972944948,-9999,1456908543.847435,7.550789833068848,32.74717712402344,-15.4853515625,203.9359283447266,200.6587982177734,25,11277.27576629167,0.0264129638671875,0.9990234375,0.12396240234375,11277.25544029167,-0.01453420164910744,0.0658581095448965,-0.02262541767298618,11277.25544029167,1.079851066767572,2.892285070344959,-1.446201350975409,0.006781513337045908,0.0363498367369175,-0.01620045304298401,0.002540908521041274,0.02209517918527126,0.002997567877173424,XArbitraryCorrectedZVertical,0.4530069922113908,-0.5958188092034953,0.5152570638389438,-0.4174862509963403,0.03066221624612808,0.9922480583190918,0.1204307749867439,8.121068000793457,34.33331298828125,-14.8003568649292,1,11263.50103429167,walking,0,2016-03-02 02:48:50.072,2016-03-02 02:47:07.556,84,57.67838,2,2,2016-03-02 02:49:00.448,11276.67231929167,0,0.6198425,97.38368,192.168.1.101,100.78.239.175,2,1,0.35,0
2016-03-02 02:49:03.892,54,234B9614-18C8-49ED-8B56-CAB6C4F40872,my_iOS_device_1,1456908543.000027,40.79921912405714,-96.68579162107471,366.4678,0.15,104.0625,4,13.53743972944948,-9999,1456908543.847435,7.550789833068848,32.74717712402344,-15.4853515625,203.9359283447266,200.6587982177734,25,11277.30606529167,0.025848388671875,1.007186889648438,0.12115478515625,11277.29044129167,-0.01464978284041688,0.06800834580902648,-0.01410223692029659,11277.25544029167,1.079851066767572,2.892285070344959,-1.446201350975409,0.006781513337045908,0.0363498367369175,-0.01620045304298401,0.002540908521041274,0.02209517918527126,0.002997567877173424,XArbitraryCorrectedZVertical,0.4530069922113908,-0.5958188092034953,0.5152570638389438,-0.4174862509963403,0.03066221624612808,0.9922480583190918,0.1204307749867439,8.121068000793457,34.33331298828125,-14.8003568649292,1,11263.50103429167,walking,0,2016-03-02 02:48:50.072,2016-03-02 02:47:07.556,84,57.67838,2,2,2016-03-02 02:49:00.448,11276.67231929167,0,0.6198425,97.38368,192.168.1.101,100.78.239.175,2,1,0.35,0
2016-03-02 02:49:03.927,55,234B9614-18C8-49ED-8B56-CAB6C4F40872,my_iOS_device_1,1456908543.000027,40.79921912405714,-96.68579162107471,366.4678,0.15,104.0625,4,13.53743972944948,-9999,1456908543.906198,7.100473880767822,32.71238708496094,-15.65069580078125,203.8406372070312,200.5635070800781,25,11277.33636529167,0.03192138671875,1.009201049804688,0.1248321533203125,11277.32546729167,-0.01580692633405631,0.0605813221610135,-0.007720770316248719,11277.29044129167,1.084832718338418,2.898568318391393,-1.446643014778065,0.006665809080004692,0.03850055485963821,-0.007678559049963951,-0.005934712942689657,0.007391951978206635,0.003064815420657396,XArbitraryCorrectedZVertical,0.4528142559411389,-0.595866672102334,0.5157907669506467,-0.4169676767120174,0.02979945950210094,0.9923028945922852,0.1201956793665886,8.120114326477051,34.33452987670898,-14.79805183410645,1,11263.50103429167,walking,0,2016-03-02 02:48:50.072,2016-03-02 02:47:07.556,84,57.67838,2,2,2016-03-02 02:49:00.448,11276.67231929167,0,0.6198425,97.38368,192.168.1.101,100.78.239.175,2,1,0.35,0
