loggingTime,loggingSample,identifierForVendor,deviceID,locationTimestamp_since1970,locationLatitude,locationLongitude,locationAltitude,locationSpeed,locationCourse,locationVerticalAccuracy,locationHorizontalAccuracy,locationFloor,locationHeadingTimestamp_since1970,locationHeadingX,locationHeadingY,locationHeadingZ,locationTrueHeading,locationMagneticHeading,locationHeadingAccuracy,accelerometerTimestamp_sinceReboot,accelerometerAccelerationX,accelerometerAccelerationY,accelerometerAccelerationZ,gyroTimestamp_sinceReboot,gyroRotationX,gyroRotationY,gyroRotationZ,motionTimestamp_sinceReboot,motionYaw,motionRoll,motionPitch,motionRotationRateX,motionRotationRateY,motionRotationRateZ,motionUserAccelerationX,motionUserAccelerationY,motionUserAccelerationZ,motionAttitudeReferenceFrame,motionQuaternionX,motionQuaternionY,motionQuaternionZ,motionQuaternionW,motionGravityX,motionGravityY,motionGravityZ,motionMagneticFieldX,motionMagneticFieldY,motionMagneticFieldZ,motionMagneticFieldCalibrationAccuracy,activityTimestamp_sinceReboot,activity,activityActivityConfidence,activityActivityStartDate,pedometerStartDate,pedometerNumberofSteps,pedometerDistance,pedometerFloorAscended,pedometerFloorDescended,pedometerEndDate,altimeterTimestamp_sinceReboot,altimeterReset,altimeterRelativeAltitude,altimeterPressure,IP_en0,IP_pdp_ip0,deviceOrientation,batteryState,batteryLevel,state
2016-03-02 02:48:29.952,1,234B9614-18C8-49ED-8B56-CAB6C4F40872,my_iOS_device_1,1456908509.000026,40.79919322397634,-96.6857334506667,366.0173,0.21,300.9375,4,10,-9999,1456908509.900738,9.077458381652832,42.2060546875,-5.8853759765625,201.6762847900391,198.3991546630859,25,11243.34320125,0.0676727294921875,1.024978637695312,0.0536346435546875,11243.32856825,-0.06577608418332206,0.2083739794871788,-0.002127599394864304,11243.29357025,0.8606381367435727,2.246876616635244,-1.509486305031433,-0.02925048395991325,0.1906963735818863,-0.002394899027422071,0.0214048195630312,0.01754964701831341,-0.03791287913918495,XArbitraryCorrectedZVertical,-0.5433218390410756,0.4732562108966537,-0.429916560479993,0.5440603726552837,0.04779378697276115,0.9981211423873901,0.03834012523293495,1.159325957298279,37.96670913696289,-20.43339538574219,1,11237.662025875,walking,0,2016-03-02 02:48:24.219,2016-03-02 02:47:07.556,54,34.89709,1,2,2016-03-02 02:48:26.840,11242.50259525,0,-0.01763916,97.39109,192.168.1.101,100.78.239.175,2,1,0.35,0
2016-03-02 02:48:29.953,2,234B9614-18C8-49ED-8B56-CAB6C4F40872,my_iOS_device_1,1456908509.000026,40.79919322397634,-96.6857334506667,366.0173,0.21,300.9375,4,10,-9999,1456908509.900738,9.077458381652832,42.2060546875,-5.8853759765625,201.6762847900391,198.3991546630859,25,11243.37349625,0.065338134765625,1.018905639648438,0.0348968505859375,11243.36359525,-0.0008857673785603546,0.1977857836252418,-0.002245577431154814,11243.32856825,0.8586778048764413,2.251428332068476,-1.508791379376181,-0.04636222869157791,0.1800673305988312,0.003756663762032986,0.01316723972558975,0.01455596834421158,-0.01457968167960644,XArbitraryCorrectedZVertical,-0.5418669854067327,0.475265233716416,-0.4314335704831495,0.542557095619299,0.04815783351659775,0.9980782866477966,0.03899374604225159,1.374862670898438,37.91893005371094,-20.50861167907715,1,11237.662025875,walking,0,2016-03-02 02:48:24.219,2016-03-02 02:47:07.556,54,34.89709,1,2,2016-03-02 02:48:26.840,11242.50259525,0,-0.01763916,97.39109,192.168.1.101,100.78.239.175,2,1,0.35,0
2016-03-02 02:48:29.977,3,234B9614-18C8-49ED-8B56-CAB6C4F40872,my_iOS_device_1,1456908509.000026,40.79919322397634,-96.6857334506667,366.0173,0.21,300.9375,4,10,-9999,1456908509.960118,9.077455520629883,41.9276123046875,-5.753173828125,202.0374908447266,198.7603607177734,25,11243.40377925,0.0570068359375,1.007537841796875,0.028900146484375,11243.36359525,-0.0008857673785603546,0.1977857836252418,-0.002245577431154814,11243.36359525,0.8454501915975193,2.244063773216241,-1.507893886427016,0.01852858439087868,0.1694803833961487,0.003641249146312475,0.01585846394300461,0.0177705530077219,-0.009808136150240898,XArbitraryCorrectedZVertical,-0.540294186979646,0.4771587509266115,-0.4327024173460945,0.5414520624699785,0.04914397746324539,0.9980223178863525,0.03919656574726105,1.562590718269348,37.93905258178711,-20.4578914642334,1,11237.662025875,walking,0,2016-03-02 02:48:24.219,2016-03-02 02:47:07.556,54,34.89709,1,2,2016-03-02 02:48:26.840,11242.50259525,0,-0.01763916,97.39109,192.168.1.101,100.78.239.175,2,1,0.35,0
2016-03-02 02:48:30.025,4,234B9614-18C8-49ED-8B56-CAB6C4F40872,my_iOS_device_1,1456908509.000026,40.79919322397634,-96.6857334506667,366.0173,0.21,300.9375,4,10,-9999,1456908510.020851,9.216213226318359,41.57954406738281,-5.6209716796875,202.4987335205078,199.2216033935547,25,11243.43408225,0.0476837158203125,1.00396728515625,0.03240966796875,11243.39860625,0.004500742242233913,0.2105388631373042,-0.006436860354721519,11243.39860625,0.8224397750986142,2.227223763396803,-1.508031607643034,0.02391623891890049,0.1822340190410614,-0.0005487471935339272,0.01294916402548552,0.01788397505879402,-0.008631749078631401,XArbitraryCorrectedZVertical,-0.538448708631833,0.4787617114773262,-0.4344345046361975,0.5404876251844285,0.04968816414475441,0.998030960559845,0.03827957808971405,1.743495464324951,37.91196060180664,-20.49346733093262,1,11237.662025875,walking,0,2016-03-02 02:48:24.219,2016-03-02 02:47:07.556,54,34.89709,1,2,2016-03-02 02:48:26.840,11242.50259525,0,-0.01763916,97.39109,192.168.1.101,100.78.239.175,2,1,0.35,0
2016-03-02 02:48:30.038,5,234B9614-18C8-49ED-8B56-CAB6C4F40872,my_iOS_device_1,1456908509.000026,40.79919322397634,-96.6857334506667,366.0173,0.21,300.9375,4,10,-9999,1456908510.020851,9.216213226318359,41.57954406738281,-5.6209716796875,202.4987335205078,199.2216033935547,25,11243.46438525,0.0499725341796875,1.017486572265625,0.0259246826171875,11243.43361725,-0.01864718763662582,0.234932619774103,-0.02383742228508124,11243.43361725,0.8178494491037676,2.229633710449937,-1.508722676002668,0.0007690689526498318,0.206627830862999,-0.01794928126037121,-0.0009546991204842925,0.001239305012859404,-0.004453404806554317,XArbitraryCorrectedZVertical,-0.5368403790532951,0.4804070040471264,-0.4365699268875637,0.5389046453852058,0.04905040189623833,0.9980740547180176,0.03797696530818939,1.825946688652039,37.8978385925293,-20.51239585876465,1,11237.662025875,walking,0,2016-03-02 02:48:24.219,2016-03-02 02:47:07.556,54,34.89709,1,2,2016-03-02 02:48:26.840,11242.50259525,0,-0.01763916,97.39109,192.168.1.101,100.78.239.175,2,1,0.35,0
2016-03-02 02:48:30.068,6,234B9614-18C8-49ED-8B56-CAB6C4F40872,my_iOS_device_1,1456908509.000026,40.79919322397634,-96.6857334506667,366.0173,0.21,300.9375,4,10,-9999,1456908510.020851,9.216213226318359,41.57954406738281,-5.6209716796875,202.4987335205078,199.2216033935547,25,11243.49469125,0.0559844970703125,1.021469116210938,0.0388641357421875,11243.46862325,-0.01653609984052001,0.2328103467014189,-0.02273993359985959,11243.46862325,0.8158657793535948,2.234939102099872,-1.509759845002708,0.002881614957004786,0.2045052796602249,-0.0168526116758585,0.001939471112564206,0.01934872008860111,-0.01167389377951622,XArbitraryCorrectedZVertical,-0.5352274333374156,0.4820071396853479,-0.4388989813027179,0.5371856253724745,0.04803306236863136,0.9981378316879272,0.03759857639670372,1.902862548828125,37.88863372802734,-20.52241134643555,1,11237.662025875,walking,0,2016-03-02 02:48:24.219,2016-03-02 02:47:07.556,54,34.89709,1,2,2016-03-02 02:48:26.840,11242.50259525,0,-0.01763916,97.39109,192.168.1.101,100.78.239.175,2,1,0.35,0
2016-03-02 02:48:30.106,7,234B9614-18C8-49ED-8B56-CAB6C4F40872,my_iOS_device_1,1456908510.000026,40.79918932639136,-96.68574225166503,366.0528,0.23,294.2578125,4,10,-9999,1456908510.075694,9.389659881591797,41.89280700683594,-5.7200927734375,202.9491424560547,199.6720123291016,25,11243.52496425,0.0674591064453125,1.005020141601562,0.031890869140625,11243.50362325,0.006799582895190311,0.2243324396872607,-0.01813373017845854,11243.46862325,0.8158657793535948,2.234939102099872,-1.509759845002708,0.002881614957004786,0.2045052796602249,-0.0168526116758585,0.001939471112564206,0.01934872008860111,-0.01167389377951622,XArbitraryCorrectedZVertical,-0.5352274333374156,0.4820071396853479,-0.4388989813027179,0.5371856253724745,0.04803306236863136,0.9981378316879272,0.03759857639670372,1.902862548828125,37.88863372802734,-20.52241134643555,1,11237.662025875,walking,0,2016-03-02 02:48:24.219,2016-03-02 02:47:07.556,54,34.89709,1,2,2016-03-02 02:48:26.840,11242.50259525,0,-0.01763916,97.39109,192.168.1.101,100.78.239.175,2,1,0.35,0
2016-03-02 02:48:30.129,8,234B9614-18C8-49ED-8B56-CAB6C4F40872,my_iOS_device_1,1456908510.000026,40.79918932639136,-96.68574225166503,366.0528,0.23,294.2578125,4,10,-9999,1456908510.075694,9.389659881591797,41.89280700683594,-5.7200927734375,202.9491424560547,199.6720123291016,25,11243.55526725,0.0775299072265625,1.002716064453125,0.0302886962890625,11243.53865525,-0.01876809515011542,0.2104949209793179,-0.01636645647908196,11243.50362325,0.8073787171626616,2.233435413372237,-1.510292103601575,0.02621770650148392,0.1960277855396271,-0.01224550232291222,0.008313794620335102,0.02329893782734871,0.001664669602178037,XArbitraryCorrectedZVertical,-0.5335225502795876,0.4836873178147268,-0.4409651916000027,0.5356771105111005,0.04767070338129997,0.9981701970100403,0.037199467420578,2.116156101226807,37.86774063110352,-20.54007720947266,1,11237.662025875,walking,0,2016-03-02 02:48:24.219,2016-03-02 02:47:07.556,54,34.89709,1,2,2016-03-02 02:48:26.840,11242.50259525,0,-0.01763916,97.39109,192.168.1.101,100.78.239.175,2,1,0.35,0
2016-03-02 02:48:30.162,9,234B9614-18C8-49ED-8B56-CAB6C4F40872,my_iOS_device_1,1456908510.000026,40.79918932639136,-96.68574225166503,366.0528,0.23,294.2578125,4,10,-9999,1456908510.135117,9.667177200317383,42.03204345703125,-5.9844970703125,203.4424133300781,200.165283203125,25,11243.58557725,0.0667266845703125,1.01556396484375,0.031219482421875,11243.57367225,-0.03366155723027454,0.1881494015368991,-0.01763705063515876,11243.53865525,0.7873692616528863,2.220011817141414,-1.510188758016177,0.0006515273707918823,0.1821911782026291,-0.0104753477498889,0.02360572479665279,0.00327040278352797,-0.005429620854556561,XArbitraryCorrectedZVertical,-0.5316370479172543,0.48545992853915,-0.4427069079840059,0.5345103373067907,0.04824791476130486,0.9981639385223389,0.03661858662962914,2.116156101226807,37.86774063110352,-20.54007720947266,1,11237.662025875,walking,0,2016-03-02 02:48:24.219,2016-03-02 02:47:07.556,54,34.89709,1,2,2016-03-02 02:48:26.840,11242.50259525,0,-0.01763916,97.39109,192.168.1.101,100.78.239.175,2,1,0.35,0
2016-03-02 02:48:30.189,10,234B9614-18C8-49ED-8B56-CAB6C4F40872,my_iOS_device_1,1456908510.000026,40.79918932639136,-96.68574225166503,366.0528,0.23,294.2578125,4,10,-9999,1456908510.135117,9.667177200317383,42.03204345703125,-5.9844970703125,203.4424133300781,200.165283203125,25,11243.61587525,0.0540313720703125,1.018157958984375,0.038787841796875,11243.60867225,-0.01984427854661644,0.1743355849626581,-0.01742932407013258,11243.57367225,0.7781285957816677,2.216664308828551,-1.509352930550935,-0.01424033008515835,0.1598466783761978,-0.01174221094697714,0.02725749090313911,0.00805160216987133,-0.008684475906193256,XArbitraryCorrectedZVertical,-0.5301043181145105,0.4873078266219006,-0.4439845839770238,0.5332899616720028,0.04903645440936089,0.9981129765510559,0.03695901110768318,2.476580619812012,37.83808135986328,-20.55443572998047,1,11237.662025875,walking,0,2016-03-02 02:48:24.219,2016-03-02 02:47:07.556,54,34.89709,1,2,2016-03-02 02:48:26.840,11242.50259525,0,-0.01763916,97.39109,192.168.1.101,100.78.239.175,2,1,0.35,0
2016-03-02 02:48:30.220,11,234B9614-18C8-49ED-8B56-CAB6C4F40872,my_iOS_device_1,1456908510.000026,40.79918932639136,-96.68574225166503,366.0528,0.23,294.2578125,4,10,-9999,1456908510.193736,9.38966178894043,41.892822265625,-6.050537109375,203.8492736816406,200.5721435546875,25,11243.64617125,0.05194091796875,1.014739990234375,0.033477783203125,11243.60867225,-0.01984427854661644,0.1743355849626581,-0.01742932407013258,11243.60867225,0.7670279822451868,2.210801049741438,-1.508987131414573,-0.0004214944783598185,0.1460334956645966,-0.01153181679546833,0.007827889174222946,0.01993020996451378,-0.005043812561780214,XArbitraryCorrectedZVertical,-0.5286858829220296,0.4888104845115057,-0.4452581503100569,0.5322600182364216,0.04954515770077705,0.9980904459953308,0.03688890486955643,2.567089557647705,37.83652114868164,-20.54619789123535,1,11237.662025875,walking,0,2016-03-02 02:48:24.219,2016-03-02 02:47:07.556,54,34.89709,1,2,2016-03-02 02:48:26.840,11242.50259525,0,-0.01763916,97.39109,192.168.1.101,100.78.239.175,2,1,0.35,0
2016-03-02 02:48:30.269,12,234B9614-18C8-49ED-8B56-CAB6C4F40872,my_iOS_device_1,1456908510.000026,40.79918932639136,-96.68574225166503,366.0528,0.23,294.2578125,4,10,-9999,1456908510.252872,9.597798347473145,41.82322692871094,-6.31488037109375,204.177978515625,200.9008483886719,25,11243.67647025,0.0573883056640625,1.008392333984375,0.0474090576171875,11243.64369425,0.006602775290633456,0.1573675203933272,-0.00744486682731651,11243.64369425,0.762842381944426,2.211382523075644,-1.509480445226484,0.02602572739124298,0.1290655583143234,-0.001547262771055102,-0.0005144349997863173,0.01727534830570221,-0.002565812785178423,XArbitraryCorrectedZVertical,-0.527550536491862,0.4899001392424687,-0.4467017567528127,0.5311740068294916,0.0491289384663105,0.9981207847595215,0.03662342950701714,2.694723606109619,37.82832717895508,-20.54494667053223,1,11237.662025875,walking,0,2016-03-02 02:48:24.219,2016-03-02 02:47:07.556,54,34.89709,1,2,2016-03-02 02:48:26.840,11242.50259525,0,-0.01763916,97.39109,192.168.1.101,100.78.239.175,2,1,0.35,0
2016-03-02 02:48:30.281,13,234B9614-18C8-49ED-8B56-CAB6C4F40872,my_iOS_device_1,1456908510.000026,40.79918932639136,-96.68574225166503,366.0528,0.23,294.2578125,4,10,-9999,1456908510.252872,9.597798347473145,41.82322692871094,-6.31488037109375,204.177978515625,200.9008483886719,25,11243.70676925,0.0573883056640625,1.020858764648438,0.0267181396484375,11243.67871025,0.005563343517175528,0.1701245946470248,-0.008532235500395863,11243.64369425,0.762842381944426,2.211382523075644,-1.509480445226484,0.02602572739124298,0.1290655583143234,-0.001547262771055102,-0.0005144349997863173,0.01727534830570221,-0.002565812785178423,XArbitraryCorrectedZVertical,-0.527550536491862,0.4899001392424687,-0.4467017567528127,0.5311740068294916,0.0491289384663105,0.9981207847595215,0.03662342950701714,2.694723606109619,37.82832717895508,-20.54494667053223,1,11237.662025875,walking,0,2016-03-02 02:48:24.219,2016-03-02 02:47:07.556,54,34.89709,1,2,2016-03-02 02:48:26.840,11242.50259525,0,-0.01763916,97.39109,192.168.1.101,100.78.239.175,2,1,0.35,0
2016-03-02 02:48:30.311,14,234B9614-18C8-49ED-8B56-CAB6C4F40872,my_iOS_device_1,1456908510.000026,40.79918932639136,-96.68574225166503,366.0528,0.23,294.2578125,4,10,-9999,1456908510.252872,9.597798347473145,41.82322692871094,-6.31488037109375,204.177978515625,200.9008483886719,25,11243.73706825,0.0463409423828125,1.004623413085938,0.037261962890625,11243.71372125,0.009896572926843457,0.1967010781132525,-0.01274588897711923,11243.67871025,0.7529509547014885,2.206273428848726,-1.509622799472202,0.02498560771346092,0.1418232768774033,-0.002633684547618032,0.0081872483715415,0.01026285067200661,0.01112144626677036,XArbitraryCorrectedZVertical,-0.5262730240642025,0.4911013232519268,-0.448031526989735,0.5302112270272664,0.04920105636119843,0.9981294870376587,0.03628760948777199,2.801787376403809,37.80776214599609,-20.56846618652344,1,11237.662025875,walking,0,2016-03-02 02:48:24.219,2016-03-02 02:47:07.556,54,34.89709,1,2,2016-03-02 02:48:26.840,11242.50259525,0,-0.01763916,97.39109,192.168.1.101,100.78.239.175,2,1,0.35,0
2016-03-02 02:48:30.352,15,234B9614-18C8-49ED-8B56-CAB6C4F40872,my_iOS_device_1,1456908510.000026,40.79918932639136,-96.68574225166503,366.0528,0.23,294.2578125,4,10,-9999,1456908510.313348,10.08345508575439,41.68399047851562,-6.51318359375,204.5577850341797,201.2806549072266,25,11243.76736725,0.057403564453125,1.013107299804688,0.0319671630859375,11243.74873225,0.01099858898591825,0.1892492870671018,-0.01592330647369277,11243.74873225,0.7222573949201549,2.186997941538944,-1.511170430093347,0.03042162768542767,0.1609483063220978,-0.01002394687384367,0.001158779836259782,0.007987424731254578,0.002578073646873236,XArbitraryCorrectedZVertical,-0.5231219675464095,0.4935213079292169,-0.4516498061077246,0.5280081233589594,0.04863064736127853,0.9982228875160217,0.03443975001573563,2.937130928039551,37.79372024536133,-20.57539176940918,1,11237.662025875,walking,0,2016-03-02 02:48:24.219,2016-03-02 02:47:07.556,54,34.89709,1,2,2016-03-02 02:48:26.840,11242.50259525,0,-0.01763916,97.39109,192.168.1.101,100.78.239.175,2,1,0.35,0
2016-03-02 02:48:30.371,16,234B9614-18C8-49ED-8B56-CAB6C4F40872,my_iOS_device_1,1456908510.000026,40.79918932639136,-96.68574225166503,366.0528,0.23,294.2578125,4,10,-9999,1456908510.352665,10.53442001342773,41.50996398925781,-6.5462646484375,204.7868194580078,201.5096893310547,25,11243.79764925,0.0638427734375,1.008926391601562,0.0286865234375,11243.78374825,0.0003645867532318477,0.1732873647576029,-0.01713531108578784,11243.74873225,0.7222573949201549,2.186997941538944,-1.511170430093347,0.03042162768542767,0.1609483063220978,-0.01002394687384367,0.001158779836259782,0.007987424731254578,0.002578073646873236,XArbitraryCorrectedZVertical,-0.5231219675464095,0.4935213079292169,-0.4516498061077246,0.5280081233589594,0.04863064736127853,0.9982228875160217,0.03443975001573563,2.937130928039551,37.79372024536133,-20.57539176940918,1,11237.662025875,walking,0,2016-03-02 02:48:24.219,2016-03-02 02:47:07.556,54,34.89709,1,2,2016-03-02 02:48:26.840,11242.50259525,0,-0.01763916,97.39109,192.168.1.101,100.78.239.175,2,1,0.35,0
2016-03-02 02:48:30.445,17,234B9614-18C8-49ED-8B56-CAB6C4F40872,my_iOS_device_1,1456908510.000026,40.79918932639136,-96.68574225166503,366.0528,0.23,294.2578125,4,10,-9999,1456908510.400201,10.81194019317627,41.78840637207031,-6.5462646484375,205.2685546875,201.9914245605469,25,11243.82794825,0.0672607421875,1.022125244140625,0.0457000732421875,11243.81875925,-0.009311476435353048,0.1530931468437501,-0.01087102356970345,11243.78374825,0.7083559592359057,2.178522237129332,-1.511589109286714,0.01978808827698231,0.1449866443872452,-0.0112348310649395,0.0115571953356266,0.01168570667505264,-0.00496384035795927,XArbitraryCorrectedZVertical,-0.5216259451332507,0.4947728971215461,-0.4532522076619987,0.5269426817855111,0.0485776923596859,0.9982477426528931,0.03378769382834435,3.127779006958008,37.74971008300781,-20.62800979614258,1,11237.662025875,walking,0,2016-03-02 02:48:24.219,2016-03-02 02:47:07.556,54,34.89709,1,2,2016-03-02 02:48:26.840,11243.81524725,0,0.04205322,97.3904,192.168.1.101,100.78.239.175,2,1,0.35,0
2016-03-02 02:48:30.447,18,234B9614-18C8-49ED-8B56-CAB6C4F40872,my_iOS_device_1,1456908510.000026,40.79918932639136,-96.68574225166503,366.0528,0.23,294.2578125,4,10,-9999,1456908510.400201,10.81194019317627,41.78840637207031,-6.5462646484375,205.2685546875,201.9914245605469,25,11243.85824625,0.055999755859375,1.012649536132812,0.026458740234375,11243.85377025,0.02789501452192597,0.1435534375029772,-0.009260077426314519,11243.81875925,0.694814676920115,2.169639644576465,-1.511346809835404,0.01011278945952654,0.1247930750250816,-0.004967373330146074,0.01765100657939911,0.02335778810083866,0.004228516016155481,XArbitraryCorrectedZVertical,-0.52027408512207,0.4960448382884736,-0.4544167535469887,0.5260796601785297,0.04907567799091339,0.9982333779335022,0.03349120914936066,3.196112155914307,37.73796844482422,-20.63902282714844,1,11237.662025875,walking,0,2016-03-02 02:48:24.219,2016-03-02 02:47:07.556,54,34.89709,1,2,2016-03-02 02:48:26.840,11243.81524725,0,0.04205322,97.3904,192.168.1.101,100.78.239.175,2,1,0.35,0
2016-03-02 02:48:30.473,19,234B9614-18C8-49ED-8B56-CAB6C4F40872,my_iOS_device_1,1456908510.000026,40.79918932639136,-96.68574225166503,366.0528,0.23,294.2578125,4,10,-9999,1456908510.462538,11.15883350372314,41.78843688964844,-6.34796142578125,205.8194122314453,202.5422821044922,25,11243.88855425,0.0594635009765625,1.002960205078125,0.0219268798828125,11243.88877825,0.01091230256659968,0.1328978636654612,-0.01269848470971582,11243.85377025,0.6775215938824963,2.15651636614114,-1.51116366296638,0.04731842130422592,0.1152542307972908,-0.003353872103616595,0.01160073559731245,0.02185806632041931,0.001203794497996569,XArbitraryCorrectedZVertical,-0.5189546053289729,0.4971506867118443,-0.4554877852881433,0.5254123997043471,0.04966330155730247,0.9982224702835083,0.03294537588953972,3.328622817993164,37.72346496582031,-20.64458847045898,1,11237.662025875,walking,0,2016-03-02 02:48:24.219,2016-03-02 02:47:07.556,54,34.89709,1,2,2016-03-02 02:48:26.840,11243.81524725,0,0.04205322,97.3904,192.168.1.101,100.78.239.175,2,1,0.35,0
2016-03-02 02:48:30.522,20,234B9614-18C8-49ED-8B56-CAB6C4F40872,my_iOS_device_1,1456908510.000026,40.79918932639136,-96.68574225166503,366.0528,0.23,294.2578125,4,10,-9999,1456908510.462538,11.15883350372314,41.78843688964844,-6.34796142578125,205.8194122314453,202.5422821044922,25,11243.91885425,0.06134033203125,1.014419555664062,0.039703369140625,11243.88877825,0.01091230256659968,0.1328978636654612,-0.01269848470971582,11243.88877825,0.6444171819761625,2.1272139474843,-1.512242671493437,0.03033780306577682,0.1045983880758286,-0.006791465450078249,0.009770920500159264,0.004673980642110109,-0.008980425074696541,XArbitraryCorrectedZVertical,-0.5174782932378925,0.4976644134335959,-0.4569728959162562,0.5250924871175461,0.04969258233904839,0.998286247253418,0.03090730495750904,3.400011539459229,37.71684265136719,-20.64505386352539,1,11237.662025875,walking,0,2016-03-02 02:48:24.219,2016-03-02 02:47:07.556,54,34.89709,1,2,2016-03-02 02:48:26.840,11243.81524725,0,0.04205322,97.3904,192.168.1.101,100.78.239.175,2,1,0.35,0
2016-03-02 02:48:30.533,21,234B9614-18C8-49ED-8B56-CAB6C4F40872,my_iOS_device_1,1456908510.000026,40.79918932639136,-96.68574225166503,366.0528,0.23,294.2578125,4,10,-9999,1456908510.523068,11.02007675170898,41.37075805664062,-6.7445068359375,206.2926635742188,203.0155334472656,25,11243.94914925,0.0526885986328125,1.014068603515625,0.0386962890625,11243.92379725,0.001324123693987397,0.1126860688884138,-0.01282738170647566,11243.92379725,0.6326882936516783,2.118644724138139,-1.512118943439811,0.02074920386075974,0.08438727259635925,-0.006918066181242466,0.01127928867936134,0.01614058017730713,0.00915868766605854,XArbitraryCorrectedZVertical,-0.5165078466911199,0.4984897041353367,-0.4577917660667239,0.5245515781113084,0.05006104335188866,0.9982789754867554,0.03054468147456646,3.54725193977356,37.65194702148438,-20.73852920532227,1,11237.662025875,walking,0,2016-03-02 02:48:24.219,2016-03-02 02:47:07.556,54,34.89709,1,2,2016-03-02 02:48:26.840,11243.81524725,0,0.04205322,97.3904,192.168.1.101,100.78.239.175,2,1,0.35,0
2016-03-02 02:48:30.555,22,234B9614-18C8-49ED-8B56-CAB6C4F40872,my_iOS_device_1,1456908510.000026,40.79918932639136,-96.68574225166503,366.0528,0.23,294.2578125,4,10,-9999,1456908510.523068,11.02007675170898,41.37075805664062,-6.7445068359375,206.2926635742188,203.0155334472656,25,11243.97944725,0.051025390625,1.009475708007812,0.03985595703125,11243.95880925,0.00334919138688365,0.09356403962942685,-0.006393717145062235,11243.95880925,0.6273095759244229,2.115930344315417,-1.51230409489501,0.02277301251888275,0.06526584923267365,-0.0004838006279896945,0.002702873665839434,0.01577878557145596,0.008383446373045444,XArbitraryCorrectedZVertical,-0.5158024677167929,0.4991034315771205,-0.458566654430359,0.5239849256703333,0.04998572543263435,0.9982898235321045,0.03031284175813198,3.627865314483643,37.64468002319336,-20.73777389526367,1,11237.662025875,walking,0,2016-03-02 02:48:24.219,2016-03-02 02:47:07.556,54,34.89709,1,2,2016-03-02 02:48:26.840,11243.81524725,0,0.04205322,97.3904,192.168.1.101,100.78.239.175,2,1,0.35,0
2016-03-02 02:48:30.601,23,234B9614-18C8-49ED-8B56-CAB6C4F40872,my_iOS_device_1,1456908510.000026,40.79918932639136,-96.68574225166503,366.0528,0.23,294.2578125,4,10,-9999,1456908510.583731,10.81194019317627,41.02268981933594,-6.7445068359375,206.7054748535156,203.4283447265625,25,11244.00974625,0.0620880126953125,1.0164794921875,0.0318145751953125,11243.99380025,-0.005151086180431263,0.0861109170027311,-0.007579090146256504,11243.99380025,0.6252567490253088,2.116065935364598,-1.512213393229201,0.01427083276212215,0.05781356245279312,-0.001668361248448491,0.003484060522168875,0.01319009903818369,0.005628901999443769,XArbitraryCorrectedZVertical,-0.5152517212245625,0.4996988637350943,-0.459107120387475,0.5234857795265221,0.05005903169512749,0.9982845187187195,0.03036658093333244,5.011398792266846,37.95281600952148,-19.98531723022461,1,11237.662025875,walking,0,2016-03-02 02:48:24.219,2016-03-02 02:47:07.556,54,34.89709,1,2,2016-03-02 02:48:26.840,11243.81524725,0,0.04205322,97.3904,192.168.1.101,100.78.239.175,2,1,0.35,0
2016-03-02 02:48:30.615,24,234B9614-18C8-49ED-8B56-CAB6C4F40872,my_iOS_device_1,1456908510.000026,40.79918932639136,-96.68574225166503,366.0528,0.23,294.2578125,4,10,-9999,1456908510.583731,10.81194019317627,41.02268981933594,-6.7445068359375,206.7054748535156,203.4283447265625,25,11244.04004525,0.05865478515625,1.006927490234375,0.0406646728515625,11244.02883125,-0.0008751147342000377,0.07547425160895462,-0.009643039991067914,11243.99380025,0.6252567490253088,2.116065935364598,-1.512213393229201,0.01427083276212215,0.05781356245279312,-0.001668361248448491,0.003484060522168875,0.01319009903818369,0.005628901999443769,XArbitraryCorrectedZVertical,-0.5152517212245625,0.4996988637350943,-0.459107120387475,0.5234857795265221,0.05005903169512749,0.9982845187187195,0.03036658093333244,5.011398792266846,37.95281600952148,-19.98531723022461,1,11237.662025875,walking,0,2016-03-02 02:48:24.219,2016-03-02 02:47:07.556,54,34.89709,1,2,2016-03-02 02:48:26.840,11243.81524725,0,0.04205322,97.3904,192.168.1.101,100.78.239.175,2,1,0.35,0
2016-03-02 02:48:30.682,25,234B9614-18C8-49ED-8B56-CAB6C4F40872,my_iOS_device_1,1456908510.000026,40.79918932639136,-96.68574225166503,366.0528,0.23,294.2578125,4,10,-9999,1456908510.638745,11.50572967529297,41.44036865234375,-7.0089111328125,207.1307525634766,203.8536224365234,25,11244.07034525,0.0537261962890625,1.011398315429688,0.0378265380859375,11244.06382825,-0.02111087796105812,0.0797185314382139,-0.007807589367785302,11244.02883125,0.6140362282704129,2.106671102803173,-1.512199522310631,0.01854666508734226,0.04717720672488213,-0.00373085867613554,0.007202140055596828,0.01560179982334375,0.0003408977936487645,XArbitraryCorrectedZVertical,-0.5146037743793492,0.500133948517798,-0.4596196463370925,0.5232578424022702,0.0503540113568306,0.9982836842536926,0.02990202233195305,5.066948413848877,37.94771194458008,-19.98101234436035,1,11237.662025875,walking,0,2016-03-02 02:48:24.219,2016-03-02 02:47:07.556,54,34.89709,1,2,2016-03-02 02:48:26.840,11243.81524725,0,0.04205322,97.3904,192.168.1.101,100.78.239.175,2,1,0.35,0
2016-03-02 02:48:30.684,26,234B9614-18C8-49ED-8B56-CAB6C4F40872,my_iOS_device_1,1456908510.000026,40.79918932639136,-96.68574225166503,366.0528,0.23,294.2578125,4,10,-9999,1456908510.638745,11.50572967529297,41.44036865234375,-7.0089111328125,207.1307525634766,203.8536224365234,25,11244.10062825,0.050262451171875,1.011428833007812,0.0435333251953125,11244.06382825,-0.02111087796105812,0.0797185314382139,-0.007807589367785302,11244.06382825,0.6188217455125519,2.113177754866022,-1.51195881555195,-0.001691331970505416,0.05142240598797798,-0.00189429335296154,0.000249212171183899,0.01276253163814545,0.01006747595965862,XArbitraryCorrectedZVertical,-0.5142859255339227,0.5006860441804339,-0.4599569497411874,0.5227457090645861,0.05036419257521629,0.9982695579528809,0.03035305626690388,5.096512794494629,37.93927383422852,-19.98950958251953,1,11237.662025875,walking,0,2016-03-02 02:48:24.219,2016-03-02 02:47:07.556,54,34.89709,1,2,2016-03-02 02:48:26.840,11243.81524725,0,0.04205322,97.3904,192.168.1.101,100.78.239.175,2,1,0.35,0
2016-03-02 02:48:30.712,27,234B9614-18C8-49ED-8B56-CAB6C4F40872,my_iOS_device_1,1456908510.000026,40.79918932639136,-96.68574225166503,366.0528,0.23,294.2578125,4,10,-9999,1456908510.704875,11.64448738098145,41.37075805664062,-6.7445068359375,207.5945587158203,204.3174285888672,25,11244.13092725,0.0467529296875,1.013961791992188,0.032440185546875,11244.09886325,-0.03698038858073129,0.0764987696803081,-0.01443087099881237,11244.09886325,0.6281341820269609,2.124189868224202,-1.511704960556293,-0.01754471845924854,0.04815827310085297,-0.008513818494975567,0.002339303493499756,0.014196558855474,0.005185355897992849,XArbitraryCorrectedZVertical,-0.5140654172325324,0.5012546771971621,-0.4602656798867358,0.5221455729122875,0.05024248361587524,0.9982545971870422,0.03103900887072086,5.158019542694092,37.949951171875,-19.95343208312988,1,11237.662025875,walking,0,2016-03-02 02:48:24.219,2016-03-02 02:47:07.556,54,34.89709,1,2,2016-03-02 02:48:26.840,11243.81524725,0,0.04205322,97.3904,192.168.1.101,100.78.239.175,2,1,0.35,0
2016-03-02 02:48:30.761,28,234B9614-18C8-49ED-8B56-CAB6C4F40872,my_iOS_device_1,1456908510.000026,40.79918932639136,-96.68574225166503,366.0528,0.23,294.2578125,4,10,-9999,1456908510.704875,11.64448738098145,41.37075805664062,-6.7445068359375,207.5945587158203,204.3174285888672,25,11244.16122425,0.0568695068359375,1.013626098632812,0.0377655029296875,11244.13387325,-0.03597877369475249,0.09140181914039151,-0.009095227754838614,11244.13387325,0.6495407798688726,2.147604500648892,-1.511513947441187,-0.01654517091810703,0.06306203454732895,-0.00317882769741118,-0.002908909693360329,0.01571847684681416,0.0001293957902817056,XArbitraryCorrectedZVertical,-0.5140297032361549,0.501925152855111,-0.4606323718356514,0.5212124548966338,0.04966184124350548,0.9982433319091797,0.03231079131364822,5.181578159332275,37.97919464111328,-19.89159202575684,1,11237.662025875,walking,0,2016-03-02 02:48:24.219,2016-03-02 02:47:07.556,54,34.89709,1,2,2016-03-02 02:48:26.840,11243.81524725,0,0.04205322,97.3904,192.168.1.101,100.78.239.175,2,1,0.35,0
2016-03-02 02:48:30.767,29,234B9614-18C8-49ED-8B56-CAB6C4F40872,my_iOS_device_1,1456908510.000026,40.79918932639136,-96.68574225166503,366.0528,0.23,294.2578125,4,10,-9999,1456908510.753212,11.26290130615234,40.98786926269531,-7.04193115234375,207.9584350585938,204.6813049316406,25,11244.19153825,0.0445556640625,1.009262084960938,0.036590576171875,11244.16888425,-0.02738475285706679,0.08713703297073863,-0.01536271106423109,11244.16888425,0.6558143029749498,2.155928256818724,-1.511284896286039,-0.007951470091938972,0.05879747867584229,-0.009445670992136002,0.007287722546607256,0.01539638079702854,0.004916180390864611,XArbitraryCorrectedZVertical,-0.5136718004285217,0.5025593923113213,-0.4610555918379091,0.5205795615265563,0.04958178475499153,0.9982297420501709,0.03284932300448418,5.201352119445801,37.9857177734375,-19.87397003173828,1,11237.662025875,walking,0,2016-03-02 02:48:24.219,2016-03-02 02:47:07.556,54,34.89709,1,2,2016-03-02 02:48:26.840,11243.81524725,0,0.04205322,97.3904,192.168.1.101,100.78.239.175,2,1,0.35,0
2016-03-02 02:48:30.804,30,234B9614-18C8-49ED-8B56-CAB6C4F40872,my_iOS_device_1,1456908510.000026,40.79918932639136,-96.68574225166503,366.0528,0.23,294.2578125,4,10,-9999,1456908510.753212,11.26290130615234,40.98786926269531,-7.04193115234375,207.9584350585938,204.6813049316406,25,11244.22183625,0.0520782470703125,1.020706176757812,0.036712646484375,11244.20388425,-0.03485731655972012,0.09032749995665355,-0.01334137179686095,11244.16888425,0.6558143029749498,2.155928256818724,-1.511284896286039,-0.007951470091938972,0.05879747867584229,-0.009445670992136002,0.007287722546607256,0.01539638079702854,0.004916180390864611,XArbitraryCorrectedZVertical,-0.5136718004285217,0.5025593923113213,-0.4610555918379091,0.5205795615265563,0.04958178475499153,0.9982297420501709,0.03284932300448418,5.201352119445801,37.9857177734375,-19.87397003173828,1,11237.662025875,walking,0,2016-03-02 02:48:24.219,2016-03-02 02:47:07.556,54,34.89709,1,2,2016-03-02 02:48:26.840,11243.81524725,0,0.04205322,97.3904,192.168.1.101,100.78.239.175,2,1,0.35,0
2016-03-02 02:48:30.842,31,234B9614-18C8-49ED-8B56-CAB6C4F40872,my_iOS_device_1,1456908510.000026,40.79918932639136,-96.68574225166503,366.0528,0.23,294.2578125,4,10,-9999,1456908510.812097,11.05476188659668,40.63980102539062,-6.3809814453125,208.3345336914062,205.0574035644531,25,11244.25213325,0.057586669921875,1.010025024414062,0.0350341796875,11244.23891225,-0.02319107308851901,0.08396174600303716,-0.0110372048217244,11244.20388425,0.6705032885112959,2.172827413965586,-1.511293344316385,-0.01542524341493845,0.06198842823505402,-0.007424717303365469,-0.004197591450065374,0.01306128408759832,0.003767361398786306,XArbitraryCorrectedZVertical,-0.5134677288307137,0.5031796348351664,-0.4615778184764834,0.5197182544677998,0.04901265352964401,0.9982302188873291,0.03367770835757256,5.226580619812012,37.99054336547852,-19.85812377929688,1,11237.662025875,walking,0,2016-03-02 02:48:24.219,2016-03-02 02:47:07.556,54,34.89709,1,2,2016-03-02 02:48:26.840,11243.81524725,0,0.04205322,97.3904,192.168.1.101,100.78.239.175,2,1,0.35,0
2016-03-02 02:48:30.861,32,234B9614-18C8-49ED-8B56-CAB6C4F40872,my_iOS_device_1,1456908510.000026,40.79918932639136,-96.68574225166503,366.0528,0.23,294.2578125,4,10,-9999,1456908510.812097,11.05476188659668,40.63980102539062,-6.3809814453125,208.3345336914062,205.0574035644531,25,11244.28243125,0.0503082275390625,1.0126953125,0.0330657958984375,11244.27392325,-0.02010260517235412,0.08398464918841184,-0.003532150553772094,11244.23891225,0.6777296232271923,2.182032101816376,-1.511137575639685,-0.003759431652724743,0.05562291294336319,-0.005120260175317526,0.004730420652776957,0.01865527592599392,0.000588643888477236,XArbitraryCorrectedZVertical,-0.5131523827508703,0.5037687555373977,-0.4620079875100337,0.5190763840691693,0.04882792755961418,0.9982209205627441,0.03421665355563164,5.256145477294922,38.00844955444336,-19.81601142883301,1,11237.662025875,walking,0,2016-03-02 02:48:24.219,2016-03-02 02:47:07.556,54,34.89709,1,2,2016-03-02 02:48:26.840,11243.81524725,0,0.04205322,97.3904,192.168.1.101,100.78.239.175,2,1,0.35,0
2016-03-02 02:48:30.922,33,234B9614-18C8-49ED-8B56-CAB6C4F40872,my_iOS_device_1,1456908510.000026,40.79918932639136,-96.68574225166503,366.0528,0.23,294.2578125,4,10,-9999,1456908510.871213,11.40165901184082,40.77900695800781,-6.71148681640625,208.6978912353516,205.4207611083984,25,11244.31272825,0.0582427978515625,1.016220092773438,0.0289459228515625,11244.27392325,-0.02010260517235412,0.08398464918841184,-0.003532150553772094,11244.27392325,0.6747054089311064,2.180937520637154,-1.51078123432137,-0.0006710943416692317,0.05564602091908455,0.002386192325502634,0.004081039689481258,0.0121610825881362,0.000331486837239936,XArbitraryCorrectedZVertical,-0.5126225562355629,0.5043824090815731,-0.4623846407183704,0.5186684338528023,0.04915687441825867,0.9981996417045593,0.03436699882149696,5.298834800720215,38.01734161376953,-19.78755950927734,1,11237.662025875,walking,0,2016-03-02 02:48:24.219,2016-03-02 02:47:07.556,54,34.89709,1,2,2016-03-02 02:48:26.840,11243.81524725,0,0.04205322,97.3904,192.168.1.101,100.78.239.175,2,1,0.35,0
2016-03-02 02:48:30.925,34,234B9614-18C8-49ED-8B56-CAB6C4F40872,my_iOS_device_1,1456908510.000026,40.79918932639136,-96.68574225166503,366.0528,0.23,294.2578125,4,10,-9999,1456908510.871213,11.40165901184082,40.77900695800781,-6.71148681640625,208.6978912353516,205.4207611083984,25,11244.34302525,0.055908203125,1.008956909179688,0.0348358154296875,11244.30893925,-0.0168349065148269,0.06908186604443742,-0.009871539212596711,11244.30893925,0.6714355237798808,2.179371965687495,-1.510925371899314,0.002597014885395765,0.04074329510331154,-0.00395300704985857,0.003443439258262515,0.01703526079654694,-0.003827495267614722,XArbitraryCorrectedZVertical,-0.5121681790549942,0.5047649239944877,-0.462882695616473,0.5183008180267006,0.04909257218241692,0.9982082843780518,0.03420774266123772,5.374302864074707,38.01220703125,-19.77706909179688,1,11237.662025875,walking,0,2016-03-02 02:48:24.219,2016-03-02 02:47:07.556,54,34.89709,1,2,2016-03-02 02:48:26.840,11243.81524725,0,0.04205322,97.3904,192.168.1.101,100.78.239.175,2,1,0.35,0
2016-03-02 02:48:30.950,35,234B9614-18C8-49ED-8B56-CAB6C4F40872,my_iOS_device_1,1456908510.000026,40.79918932639136,-96.68574225166503,366.0528,0.23,294.2578125,4,10,-9999,1456908510.929743,11.15883350372314,40.67459106445312,-6.81060791015625,209.0082702636719,205.7311401367188,25,11244.37331825,0.057403564453125,1.014785766601562,0.027587890625,11244.34395025,-0.02110981269662209,0.06163779816544793,-0.008864065372219737,11244.34395025,0.6654796810628973,2.174644141397446,-1.510752115700667,-0.00167717388831079,0.03329925984144211,-0.002943723928183317,0.006512091960757971,0.01075902115553617,0.0007623531273566186,XArbitraryCorrectedZVertical,-0.51174865808824,0.5051237888771162,-0.4631538503679458,0.5181233248413428,0.04939611256122589,0.9981979131698608,0.03407346084713936,5.395627021789551,38.00754928588867,-19.78021621704102,1,11237.662025875,walking,0,2016-03-02 02:48:24.219,2016-03-02 02:47:07.556,54,34.89709,1,2,2016-03-02 02:48:26.840,11243.81524725,0,0.04205322,97.3904,192.168.1.101,100.78.239.175,2,1,0.35,0
2016-03-02 02:48:31.002,36,234B9614-18C8-49ED-8B56-CAB6C4F40872,my_iOS_device_1,1456908510.000026,40.79918932639136,-96.68574225166503,366.0528,0.23,294.2578125,4,10,-9999,1456908510.989738,10.98538684844971,40.98785400390625,-6.51324462890625,209.2996978759766,206.0225677490234,25,11244.40361425,0.0431976318359375,1.019912719726562,0.0384674072265625,11244.37896125,-0.02543025893305764,0.05207571827151843,-0.004658934010984619,11244.37896125,0.6622326822587268,2.172345018635255,-1.510588314878754,-0.005996679421514273,0.02373712882399559,0.001262189005501568,0.007794441655278206,0.01659772172570229,-0.006464444566518068,XArbitraryCorrectedZVertical,-0.5114508494250875,0.5054148753774902,-0.4633483646048456,0.5179595789127907,0.04960912093520164,0.9981880187988281,0.03405233472585678,5.429943561553955,38.00466918945312,-19.7763614654541,1,11237.662025875,walking,0,2016-03-02 02:48:24.219,2016-03-02 02:47:07.556,54,34.89709,1,2,2016-03-02 02:48:26.840,11243.81524725,0,0.04205322,97.3904,192.168.1.101,100.78.239.175,2,1,0.35,0
2016-03-02 02:48:31.010,37,234B9614-18C8-49ED-8B56-CAB6C4F40872,my_iOS_device_1,1456908510.000026,40.79918932639136,-96.68574225166503,366.0528,0.23,294.2578125,4,10,-9999,1456908510.989738,10.98538684844971,40.98785400390625,-6.51324462890625,209.2996978759766,206.0225677490234,25,11244.43390625,0.055023193359375,1.010391235351562,0.0290985107421875,11244.41394825,-0.03071130737468477,0.06269986680817154,-0.006872553509058482,11244.37896125,0.6622326822587268,2.172345018635255,-1.510588314878754,-0.005996679421514273,0.02373712882399559,0.001262189005501568,0.007794441655278206,0.01659772172570229,-0.006464444566518068,XArbitraryCorrectedZVertical,-0.5114508494250875,0.5054148753774902,-0.4633483646048456,0.5179595789127907,0.04960912093520164,0.9981880187988281,0.03405233472585678,5.429943561553955,38.00466918945312,-19.7763614654541,1,11237.662025875,walking,0,2016-03-02 02:48:24.219,2016-03-02 02:47:07.556,54,34.89709,1,2,2016-03-02 02:48:26.840,11243.81524725,0,0.04205322,97.3904,192.168.1.101,100.78.239.175,2,1,0.35,0
2016-03-02 02:48:31.084,38,234B9614-18C8-49ED-8B56-CAB6C4F40872,my_iOS_device_1,1456908510.000026,40.79918932639136,-96.68574225166503,366.0528,0.23,294.2578125,4,10,-9999,1456908511.050236,11.88731575012207,41.61436462402344,-5.9183349609375,209.7068481445312,206.4297180175781,25,11244.46418625,0.062896728515625,1.00872802734375,0.0340576171875,11244.44898825,-0.02109090425288253,0.04780773630855745,-0.01098820265766694,11244.41394825,0.6719019883233205,2.183064379694296,-1.510479387427633,-0.01127859391272068,0.03436166420578957,-0.0009519632440060377,-0.006300453562289476,0.02437100559473038,-0.003974470309913158,XArbitraryCorrectedZVertical,-0.5114047078793299,0.5057544295475103,-0.4635475545040651,0.517495262263548,0.04933023825287819,0.9981814622879028,0.03464463725686073,5.447324275970459,38.00418853759766,-19.77250099182129,1,11237.662025875,walking,0,2016-03-02 02:48:24.219,2016-03-02 02:47:07.556,54,34.89709,1,2,2016-03-02 02:48:26.840,11243.81524725,0,0.04205322,97.3904,192.168.1.101,100.78.239.175,2,1,0.35,0
2016-03-02 02:48:31.088,39,234B9614-18C8-49ED-8B56-CAB6C4F40872,my_iOS_device_1,1456908510.000026,40.79918932639136,-96.68574225166503,366.0528,0.23,294.2578125,4,10,-9999,1456908511.050236,11.88731575012207,41.61436462402344,-5.9183349609375,209.7068481445312,206.4297180175781,25,11244.49448725,0.044219970703125,1.01171875,0.03192138671875,11244.48400025,-0.03380536792913882,0.05523316205991638,-0.01437387935148467,11244.44898825,0.6664970356053265,2.178538366882405,-1.51044962760469,-0.001657367567531765,0.01946954429149628,-0.005066804587841034,0.01175311673432589,0.004490597639232874,-0.00361522170715034,XArbitraryCorrectedZVertical,-0.5110851332593204,0.5059752704627081,-0.4637783551717067,0.5173882966551386,0.04951092228293419,0.9981796741485596,0.03443797677755356,5.459125518798828,38.01566314697266,-19.7471752166748,1,11237.662025875,walking,0,2016-03-02 02:48:24.219,2016-03-02 02:47:07.556,54,34.89709,1,2,2016-03-02 02:48:26.840,11243.81524725,0,0.04205322,97.3904,192.168.1.101,100.78.239.175,2,1,0.35,0
2016-03-02 02:48:31.101,40,234B9614-18C8-49ED-8B56-CAB6C4F40872,my_iOS_device_1,1456908511.000027,40.79918932639136,-96.68574225166503,366.0537,0,305.859375,4,10,-9999,1456908511.050236,11.88731575012207,41.61436462402344,-5.9183349609375,209.7068481445312,206.4297180175781,25,11244.52479025,0.0478973388671875,1.0113525390625,0.03240966796875,11244.48400025,-0.03380536792913882,0.05523316205991638,-0.01437387935148467,11244.48400025,0.6701985337434513,2.183044330336003,-1.5100983655241,-0.01437131315469742,0.02689502015709877,-0.008450688794255257,0.006433874368667603,0.01356030534952879,-0.002895060228183866,XArbitraryCorrectedZVertical,-0.5109560992745488,0.506315095816702,-0.4638469791534018,0.5171217151624099,0.0496421754360199,0.9981584548950195,0.0348622240126133,5.471530914306641,38.01164245605469,-19.75148391723633,1,11237.662025875,walking,0,2016-03-02 02:48:24.219,2016-03-02 02:47:07.556,54,34.89709,1,2,2016-03-02 02:48:26.840,11243.81524725,0,0.04205322,97.3904,192.168.1.101,100.78.239.175,2,1,0.35,0
2016-03-02 02:48:31.166,41,234B9614-18C8-49ED-8B56-CAB6C4F40872,my_iOS_device_1,1456908511.000027,40.79918932639136,-96.68574225166503,366.0537,0,305.859375,4,10,-9999,1456908511.164415,12.40765857696533,41.71878051757812,-6.54620361328125,210.4882354736328,207.2111053466797,25,11244.55508225,0.051422119140625,1.017715454101562,0.044525146484375,11244.51900125,-0.04017751346937142,0.04884503755314331,-0.01552889231625204,11244.51900125,0.6804791454541695,2.194259532013748,-1.510423865812786,-0.02074253000319004,0.02050691656768322,-0.009607073850929737,-0.004092940129339695,0.01293026190251112,-0.004526387434452772,XArbitraryCorrectedZVertical,-0.5109755968890201,0.5064755421370533,-0.4641716254087357,0.5166538171409244,0.04898429661989212,0.9981781244277954,0.03522707149386406,5.502448558807373,38.02184677124023,-19.72322654724121,1,11237.662025875,walking,0,2016-03-02 02:48:24.219,2016-03-02 02:47:07.556,54,34.89709,1,2,2016-03-02 02:48:26.840,11243.81524725,0,0.04205322,97.3904,192.168.1.101,100.78.239.175,2,1,0.35,0
2016-03-02 02:48:31.168,42,234B9614-18C8-49ED-8B56-CAB6C4F40872,my_iOS_device_1,1456908511.000027,40.79918932639136,-96.68574225166503,366.0537,0,305.859375,4,10,-9999,1456908511.164415,12.40765857696533,41.71878051757812,-6.54620361328125,210.4882354736328,207.2111053466797,25,11244.58537525,0.050140380859375,1.010299682617188,0.038665771484375,11244.55400725,-0.04224545805581795,0.04989512197096155,-0.01982244062567778,11244.55400725,0.6963175887373856,2.210754926898501,-1.510165411074091,-0.02281104028224945,0.02155724540352821,-0.01390062365680933,0.001109626842662692,0.01981234364211559,0.006372448522597551,XArbitraryCorrectedZVertical,-0.5111457761253002,0.5067762351887678,-0.464204634420903,0.5161607311480664,0.04860350862145424,0.9981625080108643,0.03618431463837624,5.497506141662598,38.03894424438477,-19.69161033630371,1,11237.662025875,walking,0,2016-03-02 02:48:24.219,2016-03-02 02:47:07.556,54,34.89709,1,2,2016-03-02 02:48:26.840,11243.81524725,0,0.04205322,97.3904,192.168.1.101,100.78.239.175,2,1,0.35,0
2016-03-02 02:48:31.192,43,234B9614-18C8-49ED-8B56-CAB6C4F40872,my_iOS_device_1,1456908511.000027,40.79918932639136,-96.68574225166503,366.0537,0,305.859375,4,10,-9999,1456908511.164415,12.40765857696533,41.71878051757812,-6.54620361328125,210.4882354736328,207.2111053466797,25,11244.61567125,0.0464935302734375,1.014678955078125,0.043243408203125,11244.58903625,-0.03693112010056483,0.04458211559625347,-0.01974254579297541,11244.58903625,0.714704106144525,2.229746679372331,-1.509898974467283,-0.01749788410961628,0.01624463126063347,-0.01382008194923401,0.002022534841671586,0.01215335354208946,0.001402137917466462,XArbitraryCorrectedZVertical,-0.5113857175687068,0.5070665288252076,-0.4642212448267884,0.5156227487837871,0.04811784625053406,0.9981463551521301,0.03726363182067871,5.495251178741455,38.05410766601562,-19.66292762756348,1,11237.662025875,walking,0,2016-03-02 02:48:24.219,2016-03-02 02:47:07.556,54,34.89709,1,2,2016-03-02 02:48:26.840,11243.81524725,0,0.04205322,97.3904,192.168.1.101,100.78.239.175,2,1,0.35,0
2016-03-02 02:48:31.241,44,234B9614-18C8-49ED-8B56-CAB6C4F40872,my_iOS_device_1,1456908511.000027,40.79918932639136,-96.68574225166503,366.0537,0,305.859375,4,10,-9999,1456908511.223338,11.88731575012207,41.68399047851562,-6.90966796875,210.7302856445312,207.4531555175781,25,11244.64596225,0.04107666015625,1.008285522460938,0.0478668212890625,11244.62403825,-0.04327982982320473,0.04988846406823635,-0.02196894846428165,11244.58903625,0.714704106144525,2.229746679372331,-1.509898974467283,-0.01749788410961628,0.01624463126063347,-0.01382008194923401,0.002022534841671586,0.01215335354208946,0.001402137917466462,XArbitraryCorrectedZVertical,-0.5113857175687068,0.5070665288252076,-0.4642212448267884,0.5156227487837871,0.04811784625053406,0.9981463551521301,0.03726363182067871,5.495251178741455,38.05410766601562,-19.66292762756348,1,11237.662025875,walking,0,2016-03-02 02:48:24.219,2016-03-02 02:47:07.556,54,34.89709,1,2,2016-03-02 02:48:26.840,11243.81524725,0,0.04205322,97.3904,192.168.1.101,100.78.239.175,2,1,0.35,0
2016-03-02 02:48:31.250,45,234B9614-18C8-49ED-8B56-CAB6C4F40872,my_iOS_device_1,1456908511.000027,40.79918932639136,-96.68574225166503,366.0537,0,305.859375,4,10,-9999,1456908511.223338,11.88731575012207,41.68399047851562,-6.90966796875,210.7302856445312,207.4531555175781,25,11244.67626225,0.0511474609375,1.013565063476562,0.05389404296875,11244.65906525,-0.05177451475223047,0.04987914300442108,-0.02315804989100203,11244.62403825,0.7312714127529203,2.246999670594664,-1.509801041060892,-0.02384720183908939,0.02155123092234135,-0.01604692079126835,-0.001050518942065537,0.0165385901927948,0.005094008520245552,XArbitraryCorrectedZVertical,-0.5115781445648633,0.5073090792337981,-0.4643292889803756,0.5150957304477437,0.04754405096173286,0.9981403350830078,0.0381494015455246,5.488944053649902,38.07659912109375,-19.6210994720459,1,11237.662025875,walking,0,2016-03-02 02:48:24.219,2016-03-02 02:47:07.556,54,34.89709,1,2,2016-03-02 02:48:26.840,11243.81524725,0,0.04205322,97.3904,192.168.1.101,100.78.239.175,2,1,0.35,0
2016-03-02 02:48:31.284,46,234B9614-18C8-49ED-8B56-CAB6C4F40872,my_iOS_device_1,1456908511.000027,40.79918932639136,-96.68574225166503,366.0537,0,305.859375,4,10,-9999,1456908511.282915,11.78324508666992,41.44033813476562,-6.6783447265625,210.9651641845703,207.6880340576172,25,11244.70655825,0.0464019775390625,1.0147705078125,0.0481719970703125,11244.69407625,-0.04233414132011758,0.04884929861088744,-0.01342872348061555,11244.65906525,0.7602826671732824,2.276752397892072,-1.509594127671045,-0.03234417736530304,0.02154247462749481,-0.01723723113536835,-0.002401614794507623,0.01009675767272711,0.008674243465065956,XArbitraryCorrectedZVertical,-0.5120246393230475,0.5076132368635603,-0.4644026169312163,0.5142856986874398,0.04654529318213463,0.9981277585029602,0.03968085721135139,5.473543167114258,38.10625839233398,-19.56775093078613,1,11237.662025875,walking,0,2016-03-02 02:48:24.219,2016-03-02 02:47:07.556,54,34.89709,1,2,2016-03-02 02:48:26.840,11243.81524725,0,0.04205322,97.3904,192.168.1.101,100.78.239.175,2,1,0.35,0
2016-03-02 02:48:31.314,47,234B9614-18C8-49ED-8B56-CAB6C4F40872,my_iOS_device_1,1456908511.000027,40.79918932639136,-96.68574225166503,366.0537,0,305.859375,4,10,-9999,1456908511.282915,11.78324508666992,41.44033813476562,-6.6783447265625,210.9651641845703,207.6880340576172,25,11244.73684025,0.0412750244140625,1.014663696289062,0.04669189453125,11244.72909225,-0.04868764473271962,0.04777524574325848,-0.0156519303586137,11244.69407625,0.7829403629090493,2.3000937795084,-1.508703705561275,-0.02290652692317963,0.0205131359398365,-0.007507335860282183,0.00155187863856554,0.01868127845227718,0.0145291006192565,XArbitraryCorrectedZVertical,-0.5123393846016,0.5081167655400493,-0.4642365204219606,0.5136245327762985,0.04626916721463203,0.9980728626251221,0.04134858399629593,5.466756343841553,38.14739227294922,-19.48934173583984,1,11237.662025875,walking,0,2016-03-02 02:48:24.219,2016-03-02 02:47:07.556,54,34.89709,1,2,2016-03-02 02:48:26.840,11243.81524725,0,0.04205322,97.3904,192.168.1.101,100.78.239.175,2,1,0.35,0
2016-03-02 02:48:31.343,48,234B9614-18C8-49ED-8B56-CAB6C4F40872,my_iOS_device_1,1456908511.000027,40.79918932639136,-96.68574225166503,366.0537,0,305.859375,4,10,-9999,1456908511.282915,11.78324508666992,41.44033813476562,-6.6783447265625,210.9651641845703,207.6880340576172,25,11244.76713525,0.0555267333984375,1.01190185546875,0.046173095703125,11244.72909225,-0.04868764473271962,0.04777524574325848,-0.0156519303586137,11244.72909225,0.8016471472639694,2.319507616747724,-1.508201208458437,-0.02926165424287319,0.01943952590227127,-0.009730925783514977,-0.003070033388212323,0.01595074497163296,0.002310975920408964,XArbitraryCorrectedZVertical,-0.5125799210588691,0.5084801031556349,-0.4642282067535888,0.5130321444865359,0.04582516103982925,0.998041570186615,0.04258038103580475,5.469387054443359,38.17856597900391,-19.42746353149414,1,11244.74823125,stationary,1,2016-03-02 02:48:31.329,2016-03-02 02:47:07.556,54,34.89709,1,2,2016-03-02 02:48:26.840,11243.81524725,0,0.04205322,97.3904,192.168.1.101,100.78.239.175,2,1,0.35,0
2016-03-02 02:48:31.386,49,234B9614-18C8-49ED-8B56-CAB6C4F40872,my_iOS_device_1,1456908511.000027,40.79918932639136,-96.68574225166503,366.0537,0,305.859375,4,10,-9999,1456908511.343667,11.33228015899658,41.405517578125,-6.5130615234375,211.1459655761719,207.8688354492188,25,11244.79742425,0.0507354736328125,1.012191772460938,0.0552520751953125,11244.76410325,-0.04651636949597802,0.04776805520831526,-0.01881762994639089,11244.76410325,0.8189098879537968,2.337456730202889,-1.507705105064752,-0.02709109708666801,0.01943258941173553,-0.01289679855108261,0.005950940307229757,0.01473067980259657,0.002113177208229899,XArbitraryCorrectedZVertical,-0.512799841607905,0.5088281285103645,-0.4642245135338888,0.5124703495010804,0.0454101450741291,0.9980103969573975,0.04373948276042938,5.465053081512451,38.19309234619141,-19.40011215209961,1,11244.74823125,stationary,1,2016-03-02 02:48:31.329,2016-03-02 02:47:07.556,54,34.89709,1,2,2016-03-02 02:48:26.840,11243.81524725,0,0.04205322,97.3904,192.168.1.101,100.78.239.175,2,1,0.35,0
2016-03-02 02:48:31.403,50,234B9614-18C8-49ED-8B56-CAB6C4F40872,my_iOS_device_1,1456908511.000027,40.79918932639136,-96.68574225166503,366.0537,0,305.859375,4,10,-9999,1456908511.343667,11.33228015899658,41.405517578125,-6.5130615234375,211.1459655761719,207.8688354492188,25,11244.82773725,0.0411224365234375,1.013275146484375,0.0493011474609375,11244.79911425,-0.0423682297820706,0.04247475622567377,-0.01129446618302605,11244.79911425,0.8307548225364089,2.349757264457118,-1.506697408470336,-0.02294457145035267,0.01413956191390753,-0.005371629260480404,0.005151099059730768,0.01424540486186743,0.01025082916021347,XArbitraryCorrectedZVertical,-0.5129569380816762,0.5092895078407347,-0.4639810670546334,0.5120751373500232,0.04558437317609787,0.9979463815689087,0.04500124603509903,5.466311931610107,38.20660018920898,-19.37314224243164,1,11244.74823125,stationary,1,2016-03-02 02:48:31.329,2016-03-02 02:47:07.556,54,34.89709,1,2,2016-03-02 02:48:26.840,11243.81524725,0,0.04205322,97.3904,192.168.1.101,100.78.239.175,2,1,0.35,0
2016-03-02 02:48:31.433,51,234B9614-18C8-49ED-8B56-CAB6C4F40872,my_iOS_device_1,1456908511.000027,40.79918932639136,-96.68574225166503,366.0537,0,305.859375,4,10,-9999,1456908511.403679,10.77724838256836,41.892822265625,-6.57916259765625,211.2698669433594,207.9927368164062,25,11244.85801625,0.0331878662109375,1.017257690429688,0.049957275390625,11244.83413025,-0.04221376643884601,0.0530794636863693,-0.02195510002661324,11244.83413025,0.8482632114662932,2.367893679277591,-1.506285193664473,-0.02279178239405155,0.0247446708381176,-0.01603267155587673,-0.003925778903067112,0.01535526849329472,0.003186349757015705,XArbitraryCorrectedZVertical,-0.5132097971639712,0.5095813015611452,-0.4640046446117093,0.5115098151286188,0.04504821449518204,0.9979198575019836,0.04611479863524437,5.481019020080566,38.24705505371094,-19.28898620605469,1,11244.74823125,stationary,1,2016-03-02 02:48:31.329,2016-03-02 02:47:07.556,54,34.89709,1,2,2016-03-02 02:48:26.840,11243.81524725,0,0.04205322,97.3904,192.168.1.101,100.78.239.175,2,1,0.35,0
2016-03-02 02:48:31.466,52,234B9614-18C8-49ED-8B56-CAB6C4F40872,my_iOS_device_1,1456908511.000027,40.79918932639136,-96.68574225166503,366.0537,0,305.859375,4,10,-9999,1456908511.403679,10.77724838256836,41.892822265625,-6.57916259765625,211.2698669433594,207.9927368164062,25,11244.88830325,0.0476531982421875,1.013046264648438,0.0558624267578125,11244.86914125,-0.03589515043652401,0.04671557394551595,-0.01759710321880758,11244.86914125,0.8704860547558575,2.390933009136275,-1.506379823625877,-0.0164740327745676,0.01838131807744503,-0.01167770754545927,-0.00286334240809083,0.01588322967290878,0.007814569398760796,XArbitraryCorrectedZVertical,-0.5135252665478647,0.5097327220008975,-0.4642729638533856,0.5107983631270577,0.04390948638319969,0.9979259967803955,0.04707129299640656,5.469119071960449,38.25954818725586,-19.2675724029541,1,11244.74823125,stationary,1,2016-03-02 02:48:31.329,2016-03-02 02:47:07.556,54,34.89709,1,2,2016-03-02 02:48:26.840,11243.81524725,0,0.04205322,97.3904,192.168.1.101,100.78.239.175,2,1,0.35,0
2016-03-02 02:48:31.494,53,234B9614-18C8-49ED-8B56-CAB6C4F40872,my_iOS_device_1,1456908511.000027,40.79918932639136,-96.68574225166503,366.0537,0,305.859375,4,10,-9999,1456908511.463153,10.81193733215332,41.649169921875,-6.6121826171875,211.36083984375,208.0837097167969,25,11244.91860925,0.0409698486328125,1.010330200195312,0.05108642578125,11244.90415325,-0.02741111815185858,0.05204482560287351,-0.01534513420103657,11244.90415325,0.8819542013007711,2.403048586519758,-1.506142636599038,-0.007991444319486618,0.02371085435152054,-0.009425603784620762,-0.002922205021604896,0.01415902376174927,0.005661441013216972,XArbitraryCorrectedZVertical,-0.5136395607900501,0.5099625679853689,-0.4643709263774807,0.5103647946131095,0.04349532350897789,0.9979106783866882,0.04777484014630318,5.453627586364746,38.27250289916992,-19.24622344970703,1,11244.74823125,stationary,1,2016-03-02 02:48:31.329,2016-03-02 02:47:07.556,54,34.89709,1,2,2016-03-02 02:48:26.840,11243.81524725,0,0.04205322,97.3904,192.168.1.101,100.78.239.175,2,1,0.35,0
2016-03-02 02:48:31.546,54,234B9614-18C8-49ED-8B56-CAB6C4F40872,my_iOS_device_1,1456908511.000027,40.79918932639136,-96.68574225166503,366.0537,0,305.859375,4,10,-9999,1456908511.510351,11.47104072570801,41.892822265625,-6.314697265625,211.4999847412109,208.2228546142578,25,11244.94891425,0.0383758544921875,1.010238647460938,0.05181884765625,11244.93916825,-0.02742177079621889,0.0573647561964158,-0.01428226660998595,11244.90415325,0.8819542013007711,2.403048586519758,-1.506142636599038,-0.007991444319486618,0.02371085435152054,-0.009425603784620762,-0.002922205021604896,0.01415902376174927,0.005661441013216972,XArbitraryCorrectedZVertical,-0.5136395607900501,0.5099625679853689,-0.4643709263774807,0.5103647946131095,0.04349532350897789,0.9979106783866882,0.04777484014630318,5.453627586364746,38.27250289916992,-19.24622344970703,1,11244.74823125,stationary,1,2016-03-02 02:48:31.329,2016-03-02 02:47:07.556,54,34.89709,1,2,2016-03-02 02:48:26.840,11243.81524725,0,0.04205322,97.3904,192.168.1.101,100.78.239.175,2,1,0.35,0
2016-03-02 02:48:31.553,55,234B9614-18C8-49ED-8B56-CAB6C4F40872,my_iOS_device_1,1456908511.000027,40.79918932639136,-96.68574225166503,366.0537,0,305.859375,4,10,-9999,1456908511.510351,11.47104072570801,41.892822265625,-6.314697265625,211.4999847412109,208.2228546142578,25,11244.97920925,0.036712646484375,1.022933959960938,0.0495147705078125,11244.93916825,-0.02742177079621889,0.0573647561964158,-0.01428226660998595,11244.93916825,0.8890323419784136,2.411060991187807,-1.506189941433086,-0.00800221785902977,0.02903107367455959,-0.008363489992916584,-0.001041678944602609,0.01185189187526703,-0.003744602203369141,XArbitraryCorrectedZVertical,-0.5135829541376086,0.5101723932263498,-0.4646400853469062,0.5099669298079967,0.04307964444160461,0.9979137182235718,0.04808664321899414,5.449236392974854,38.29211044311523,-19.20842933654785,1,11244.74823125,stationary,1,2016-03-02 02:48:31.329,2016-03-02 02:47:07.556,54,34.89709,1,2,2016-03-02 02:48:26.840,11243.81524725,0,0.04205322,97.3904,192.168.1.101,100.78.239.175,2,1,0.35,0
2016-03-02 02:48:31.584,56,234B9614-18C8-49ED-8B56-CAB6C4F40872,my_iOS_device_1,1456908511.000027,40.79918932639136,-96.68574225166503,366.0537,0,305.859375,4,10,-9999,1456908511.573232,11.57510852813721,42.34532165527344,-5.5545654296875,211.6861572265625,208.4090270996094,25,11245.00949125,0.0467529296875,1.007843017578125,0.0481719970703125,11245.00917125,-0.02633440212313954,0.04991589462746417,-0.01639415335441878,11244.97415725,0.9035005339129126,2.426480216057149,-1.506074729881183,-0.01757760345935822,0.02689741179347038,-0.008502623066306114,-0.003742707427591085,0.023654380813241,0.001384714269079268,XArbitraryCorrectedZVertical,-0.5136939989112326,0.5104257592678674,-0.4648715067662507,0.5093903237746791,0.04240847751498222,0.9979062676429749,0.04883196204900742,5.449962615966797,38.31143569946289,-19.16964530944824,1,11244.74823125,stationary,1,2016-03-02 02:48:31.329,2016-03-02 02:47:07.556,54,34.89709,1,2,2016-03-02 02:48:26.840,11243.81524725,0,0.04205322,97.3904,192.168.1.101,100.78.239.175,2,1,0.35,0
