loggingTime,loggingSample,identifierForVendor,deviceID,locationTimestamp_since1970,locationLatitude,locationLongitude,locationAltitude,locationSpeed,locationCourse,locationVerticalAccuracy,locationHorizontalAccuracy,locationFloor,locationHeadingTimestamp_since1970,locationHeadingX,locationHeadingY,locationHeadingZ,locationTrueHeading,locationMagneticHeading,locationHeadingAccuracy,accelerometerTimestamp_sinceReboot,accelerometerAccelerationX,accelerometerAccelerationY,accelerometerAccelerationZ,gyroTimestamp_sinceReboot,gyroRotationX,gyroRotationY,gyroRotationZ,motionTimestamp_sinceReboot,motionYaw,motionRoll,motionPitch,motionRotationRateX,motionRotationRateY,motionRotationRateZ,motionUserAccelerationX,motionUserAccelerationY,motionUserAccelerationZ,motionAttitudeReferenceFrame,motionQuaternionX,motionQuaternionY,motionQuaternionZ,motionQuaternionW,motionGravityX,motionGravityY,motionGravityZ,motionMagneticFieldX,motionMagneticFieldY,motionMagneticFieldZ,motionMagneticFieldCalibrationAccuracy,activityTimestamp_sinceReboot,activity,activityActivityConfidence,activityActivityStartDate,pedometerStartDate,pedometerNumberofSteps,pedometerDistance,pedometerFloorAscended,pedometerFloorDescended,pedometerEndDate,altimeterTimestamp_sinceReboot,altimeterReset,altimeterRelativeAltitude,altimeterPressure,IP_en0,IP_pdp_ip0,deviceOrientation,batteryState,batteryLevel,state
2016-03-02 02:47:26.716,1,234B9614-18C8-49ED-8B56-CAB6C4F40872,my_iOS_device_1,1456908446.000088,40.79926585316732,-96.68582204738323,367.5448,0.54,112.5,4,5,-9999,1456908446.712636,17.4029655456543,39.70005798339844,-17.0567626953125,239.6426391601562,236.3655090332031,25,11180.11574916667,-0.0522003173828125,1.016342163085938,-0.0378570556640625,11180.09676516667,-0.1137750354581472,0.06903845651866913,-0.0006218481145335021,11180.09676516667,-2.32402554413381,-0.7224258974472032,-1.486793924498328,-0.09636193513870239,0.03479475528001785,0.00491083599627018,0.003353614592924714,0.02061597071588039,-0.02697520144283772,XArbitraryCorrectedZVertical,-0.4903941886986923,0.477536509774734,-0.536850539354638,0.4932179233537078,-0.05547763779759407,0.9964738488197327,-0.06294484436511993,17.14667510986328,39.37374496459961,-17.82529449462891,1,11179.79597716667,stationary,1,2016-03-02 02:47:26.374,null,0,0,0,0,null,11179.48598016667,0,-0.2933044,97.3943,192.168.1.101,100.78.239.175,2,1,0.36,0
2016-03-02 02:47:26.743,2,234B9614-18C8-49ED-8B56-CAB6C4F40872,my_iOS_device_1,1456908446.000088,40.79926585316732,-96.68582204738323,367.5448,0.54,112.5,4,5,-9999,1456908446.712636,17.4029655456543,39.70005798339844,-17.0567626953125,239.6426391601562,236.3655090332031,25,11180.14606716667,-0.05633544921875,1.006439208984375,-0.0673065185546875,11180.13177916667,0.009674465291930849,0.01806741746731557,-0.006263222251648352,11180.09676516667,-2.32402554413381,-0.7224258974472032,-1.486793924498328,-0.09636193513870239,0.03479475528001785,0.00491083599627018,0.003353614592924714,0.02061597071588039,-0.02697520144283772,XArbitraryCorrectedZVertical,-0.4903941886986923,0.477536509774734,-0.536850539354638,0.4932179233537078,-0.05547763779759407,0.9964738488197327,-0.06294484436511993,17.14667510986328,39.37374496459961,-17.82529449462891,1,11179.79597716667,stationary,1,2016-03-02 02:47:26.374,null,0,0,0,0,null,11179.48598016667,0,-0.2933044,97.3943,192.168.1.101,100.78.239.175,2,1,0.36,0
2016-03-02 02:47:26.763,3,234B9614-18C8-49ED-8B56-CAB6C4F40872,my_iOS_device_1,1456908446.000088,40.79926585316732,-96.68582204738323,367.5448,0.54,112.5,4,5,-9999,1456908446.712636,17.4029655456543,39.70005798339844,-17.0567626953125,239.6426391601562,236.3655090332031,25,11180.17635316667,-0.0523834228515625,1.008590698242188,-0.0527801513671875,11180.16678616667,-0.04360420284397638,0.02761857840077575,0.0004183826072514483,11180.13177916667,-2.34802571182936,-0.7457220399184287,-1.48902471351849,0.02708747982978821,-0.01617596112191677,-0.0007289812783710659,-0.01374766603112221,0.01223730947822332,0.06436637043952942,XArbitraryCorrectedZVertical,-0.4909588719568548,0.4784957752894498,-0.5362843897307465,0.4923415810269482,-0.05542042478919029,0.9966585636138916,-0.06000235676765442,17.16617393493652,39.38772201538086,-17.77557754516602,1,11179.79597716667,stationary,1,2016-03-02 02:47:26.374,null,0,0,0,0,null,11179.48598016667,0,-0.2933044,97.3943,192.168.1.101,100.78.239.175,2,1,0.36,0
2016-03-02 02:47:26.787,4,234B9614-18C8-49ED-8B56-CAB6C4F40872,my_iOS_device_1,1456908446.000088,40.79926585316732,-96.68582204738323,367.5448,0.54,112.5,4,5,-9999,1456908446.774802,17.57641220092773,39.73484802246094,-17.08990478515625,239.5891571044922,236.3120269775391,25,11180.20663816667,-0.04522705078125,1.011077880859375,-0.0594635009765625,11180.20180016667,-0.02232581205035227,0.01487082521089346,-0.0003318298718238731,11180.16678616667,-2.340893490622347,-0.7389524407671665,-1.48877511546083,-0.02619007602334023,-0.006624439265578985,0.005952933803200722,0.002049407223239541,0.009785803966224194,-0.001650050398893654,XArbitraryCorrectedZVertical,-0.4908447997877659,0.4783214047107268,-0.5362752726119692,0.4926345991724665,-0.05518051236867905,0.9966381192207336,-0.06056003272533417,17.1726188659668,39.42018127441406,-17.69722747802734,1,11179.79597716667,stationary,1,2016-03-02 02:47:26.374,null,0,0,0,0,null,11179.48598016667,0,-0.2933044,97.3943,192.168.1.101,100.78.239.175,2,1,0.36,0
2016-03-02 02:47:26.819,5,234B9614-18C8-49ED-8B56-CAB6C4F40872,my_iOS_device_1,1456908446.000088,40.79926585316732,-96.68582204738323,367.5448,0.54,112.5,4,5,-9999,1456908446.774802,17.57641220092773,39.73484802246094,-17.08990478515625,239.5891571044922,236.3120269775391,25,11180.23692216667,-0.0485687255859375,1.009292602539062,-0.0566558837890625,11180.20180016667,-0.02232581205035227,0.01487082521089346,-0.0003318298718238731,11180.20180016667,-2.340395089307271,-0.7390041261990694,-1.489299504078517,-0.004912027157843113,-0.01937192864716053,0.005203647539019585,0.007437818683683872,0.01650262251496315,0.001058329944498837,XArbitraryCorrectedZVertical,-0.4909888727066181,0.4783769303292585,-0.5359600871746626,0.4927800973687571,-0.0548316165804863,0.9966809749603271,-0.06017087772488594,17.17886352539062,39.41769409179688,-17.69670486450195,1,11179.79597716667,stationary,1,2016-03-02 02:47:26.374,null,0,0,0,0,null,11179.48598016667,0,-0.2933044,97.3943,192.168.1.101,100.78.239.175,2,1,0.36,0
2016-03-02 02:47:26.847,6,234B9614-18C8-49ED-8B56-CAB6C4F40872,my_iOS_device_1,1456908446.000088,40.79926585316732,-96.68582204738323,367.5448,0.54,112.5,4,5,-9999,1456908446.821618,17.05606842041016,39.63043212890625,-17.32122802734375,238.4815979003906,235.2044677734375,25,11180.26720716667,-0.0460662841796875,1.013626098632812,-0.0681915283203125,11180.23679116667,-0.01706526994911875,0.01594993808459357,0.004006992176133222,11180.23679116667,-2.340466092293942,-0.7397581952053301,-1.489606523143514,0.0003484105109237134,-0.01829260960221291,0.009542436338961124,0.000257852952927351,0.010023208335042,0.01250969152897596,XArbitraryCorrectedZVertical,-0.4911803377201507,0.4783201129608806,-0.5356871902285024,0.4929411522679918,-0.05467069521546364,0.9967058897018433,-0.05990349128842354,17.17938995361328,39.41647338867188,-17.69891738891602,1,11179.79597716667,stationary,1,2016-03-02 02:47:26.374,null,0,0,0,0,null,11179.48598016667,0,-0.2933044,97.3943,192.168.1.101,100.78.239.175,2,1,0.36,0
2016-03-02 02:47:26.878,7,234B9614-18C8-49ED-8B56-CAB6C4F40872,my_iOS_device_1,1456908446.000088,40.79926585316732,-96.68582204738323,367.5448,0.54,112.5,4,5,-9999,1456908446.821618,17.05606842041016,39.63043212890625,-17.32122802734375,238.4815979003906,235.2044677734375,25,11180.29749016667,-0.052215576171875,1.021102905273438,-0.0532073974609375,11180.27182816667,-0.02655437922918008,0.01060816957011263,-0.002522546184523054,11180.27182816667,-2.331166238355685,-0.731195192590276,-1.490090212783309,-0.009140820242464542,-0.02363377250730991,0.003016999224200845,0.00776752782985568,0.01688106916844845,-0.00818096287548542,XArbitraryCorrectedZVertical,-0.4911225393634334,0.4783234977043092,-0.5353310885148743,0.493382112102377,-0.05383381247520447,0.9967450499534607,-0.06001056730747223,17.1843433380127,39.41302108764648,-17.7017879486084,1,11179.79597716667,stationary,1,2016-03-02 02:47:26.374,null,0,0,0,0,null,11179.48598016667,0,-0.2933044,97.3943,192.168.1.101,100.78.239.175,2,1,0.36,0
2016-03-02 02:47:26.911,8,234B9614-18C8-49ED-8B56-CAB6C4F40872,my_iOS_device_1,1456908446.000088,40.79926585316732,-96.68582204738323,367.5448,0.54,112.5,4,5,-9999,1456908446.881128,17.68047904968262,39.63040161132812,-17.0567626953125,239.5350341796875,236.2579040527344,25,11180.32777416667,-0.0576171875,1.0069580078125,-0.052520751953125,11180.30682716667,-0.006242183279036726,0.01060284324793247,-0.009687781097381245,11180.30682716667,-2.332254440776466,-0.7331493015081783,-1.490527164781303,0.01116933114826679,-0.02363885939121246,-0.00414650421589613,0.00144393288064748,0.0243227444589138,0.006374221760779619,XArbitraryCorrectedZVertical,-0.4913954969330135,0.4782673478837381,-0.5349698123247724,0.4935565919359236,-0.05365950986742973,0.9967801570892334,-0.05958161875605583,17.20259284973145,39.39649963378906,-17.7208309173584,1,11179.79597716667,stationary,1,2016-03-02 02:47:26.374,null,0,0,0,0,null,11179.48598016667,0,-0.2933044,97.3943,192.168.1.101,100.78.239.175,2,1,0.36,0
2016-03-02 02:47:26.938,9,234B9614-18C8-49ED-8B56-CAB6C4F40872,my_iOS_device_1,1456908446.000088,40.79926585316732,-96.68582204738323,367.5448,0.54,112.5,4,5,-9999,1456908446.914635,17.33358383178711,39.97846984863281,-17.18896484375,239.0376586914062,235.7605285644531,25,11180.35805716667,-0.0571746826171875,1.003982543945312,-0.0634765625,11180.34185416667,-0.006400108731678425,0.01488866839019699,0.002030926647294427,11180.30682716667,-2.332254440776466,-0.7331493015081783,-1.490527164781303,0.01116933114826679,-0.02363885939121246,-0.00414650421589613,0.00144393288064748,0.0243227444589138,0.006374221760779619,XArbitraryCorrectedZVertical,-0.4913954969330135,0.4782673478837381,-0.5349698123247724,0.4935565919359236,-0.05365950986742973,0.9967801570892334,-0.05958161875605583,17.20259284973145,39.39649963378906,-17.7208309173584,1,11179.79597716667,stationary,1,2016-03-02 02:47:26.374,null,0,0,0,0,null,11179.48598016667,0,-0.2933044,97.3943,192.168.1.101,100.78.239.175,2,1,0.36,0
2016-03-02 02:47:26.979,10,234B9614-18C8-49ED-8B56-CAB6C4F40872,my_iOS_device_1,1456908446.000088,40.79926585316732,-96.68582204738323,367.5448,0.54,112.5,4,5,-9999,1456908446.971813,17.36827278137207,39.73481750488281,-17.1558837890625,238.9887542724609,235.7116241455078,25,11180.38834216667,-0.05657958984375,1.01300048828125,-0.0668487548828125,11180.37686416667,-0.02653334025656846,0.01911244187906266,-0.003592337994407884,11180.34185416667,-2.331624894411848,-0.7332663052629493,-1.490377406594731,0.0110082384198904,-0.01935297437012196,0.007571154739707708,-0.005193571094423532,0.00606999360024929,0.003839082550257444,XArbitraryCorrectedZVertical,-0.4915737939340636,0.4780293713204967,-0.5348370118657404,0.49375347696064,-0.05376638844609261,0.9967681169509888,-0.05968625098466873,17.18886375427246,39.39982223510742,-17.72676658630371,1,11179.79597716667,stationary,1,2016-03-02 02:47:26.374,null,0,0,0,0,null,11179.48598016667,0,-0.2933044,97.3943,192.168.1.101,100.78.239.175,2,1,0.36,0
2016-03-02 02:47:27.002,11,234B9614-18C8-49ED-8B56-CAB6C4F40872,my_iOS_device_1,1456908446.000088,40.79926585316732,-96.68582204738323,367.5448,0.54,112.5,4,5,-9999,1456908446.971813,17.36827278137207,39.73481750488281,-17.1558837890625,238.9887542724609,235.7116241455078,25,11180.41862716667,-0.06512451171875,1.008316040039062,-0.0671844482421875,11180.41187516667,-0.03386449010533858,0.03503734624940948,-0.01116716708292026,11180.37686416667,-2.332171666527695,-0.7344072281669659,-1.49031569013985,-0.009124266915023327,-0.01512906420975924,0.001946233329363167,-0.005084283649921417,0.007173586171120405,-0.004187504295259714,XArbitraryCorrectedZVertical,-0.4917467603171252,0.4778596653301014,-0.5347126991249143,0.4938801406847188,-0.05387567728757858,0.9967631697654724,-0.05967052653431892,17.17123603820801,39.39810943603516,-17.74765396118164,1,11179.79597716667,stationary,1,2016-03-02 02:47:26.374,null,0,0,0,0,null,11179.48598016667,0,-0.2933044,97.3943,192.168.1.101,100.78.239.175,2,1,0.36,0
2016-03-02 02:47:27.032,12,234B9614-18C8-49ED-8B56-CAB6C4F40872,my_iOS_device_1,1456908446.000088,40.79926585316732,-96.68582204738323,367.5448,0.54,112.5,4,5,-9999,1456908447.027834,16.74386215209961,39.804443359375,-17.2880859375,238.9670104980469,235.6898803710938,25,11180.44889316667,-0.0615081787109375,1.01019287109375,-0.0617828369140625,11180.44688916667,-0.0243029428436271,0.03930106715462634,-0.009964749850749485,11180.41187516667,-2.33463181342134,-0.737087123837576,-1.489947607192599,-0.01645178720355034,0.000796188076492399,-0.005630375817418098,-0.007867056876420975,0.0134746078401804,-0.01201027538627386,XArbitraryCorrectedZVertical,-0.4918672430158309,0.4776691556745843,-0.5347873881240828,0.4938635869028525,-0.05428199097514153,0.996733546257019,-0.05979758501052856,17.15358924865723,39.4012451171875,-17.75775146484375,1,11179.79597716667,stationary,1,2016-03-02 02:47:26.374,null,0,0,0,0,null,11179.48598016667,0,-0.2933044,97.3943,192.168.1.101,100.78.239.175,2,1,0.36,0
2016-03-02 02:47:27.061,13,234B9614-18C8-49ED-8B56-CAB6C4F40872,my_iOS_device_1,1456908446.000088,40.79926585316732,-96.68582204738323,367.5448,0.54,112.5,4,5,-9999,1456908447.027834,16.74386215209961,39.804443359375,-17.2880859375,238.9670104980469,235.6898803710938,25,11180.47917316667,-0.0560302734375,1.013290405273438,-0.068145751953125,11180.44688916667,-0.0243029428436271,0.03930106715462634,-0.009964749850749485,11180.44688916667,-2.342491986778578,-0.7447932055733466,-1.489671937345233,-0.006888804957270622,0.00505997147411108,-0.004431165754795074,-0.008686469867825508,0.01102498546242714,-0.001913390937261283,XArbitraryCorrectedZVertical,-0.4920451498493636,0.4776000481558684,-0.5349267846571366,0.4936021673044008,-0.05492742359638214,0.9967111945152283,-0.05957952886819839,17.15358924865723,39.4012451171875,-17.75775146484375,1,11179.79597716667,stationary,1,2016-03-02 02:47:26.374,null,0,0,0,0,null,11179.48598016667,0,-0.2933044,97.3943,192.168.1.101,100.78.239.175,2,1,0.36,0
2016-03-02 02:47:27.092,14,234B9614-18C8-49ED-8B56-CAB6C4F40872,my_iOS_device_1,1456908447.000088,40.79926585316732,-96.68582204738323,367.6018,0,117.7734375,4,5,-9999,1456908447.086691,16.88262176513672,39.66522216796875,-17.1558837890625,238.9511260986328,235.6739959716797,25,11180.50947416667,-0.051727294921875,1.010635375976562,-0.0731201171875,11180.48189316667,-0.02537326728572994,0.0499371999161848,-0.008919991755111401,11180.48189316667,-2.346464479668108,-0.7484350187461628,-1.489494712299361,-0.00795789435505867,0.01569634117186069,-0.003388050012290478,-0.0007660356932319701,0.0165935605764389,-0.008637218736112118,XArbitraryCorrectedZVertical,-0.4920673333056801,0.477614355709428,-0.5350717841477731,0.4934090113917851,-0.05526423826813698,0.9966968297958374,-0.05950853228569031,17.11672592163086,39.42333221435547,-17.74430274963379,1,11179.79597716667,stationary,1,2016-03-02 02:47:26.374,null,0,0,0,0,null,11179.48598016667,0,-0.2933044,97.3943,192.168.1.101,100.78.239.175,2,1,0.36,0
2016-03-02 02:47:27.138,15,234B9614-18C8-49ED-8B56-CAB6C4F40872,my_iOS_device_1,1456908447.000088,40.79926585316732,-96.68582204738323,367.6018,0,117.7734375,4,5,-9999,1456908447.086691,16.88262176513672,39.66522216796875,-17.1558837890625,238.9511260986328,235.6739959716797,25,11180.53975016667,-0.04962158203125,1.013656616210938,-0.0640716552734375,11180.51691116667,-0.010385262986873,0.06162821078552365,-0.01510278654183936,11180.51691116667,-2.341254599132629,-0.742466479952225,-1.488966487771878,0.007033767644315958,0.0273878388106823,-0.009569946676492691,0.003536730771884322,0.01398156955838203,-0.0128948949277401,XArbitraryCorrectedZVertical,-0.4917039607649875,0.4776134462578233,-0.5354355226954063,0.4933775551822773,-0.05526402592658997,0.9966537952423096,-0.0602252222597599,17.12026405334473,39.42074203491211,-17.74663734436035,1,11179.79597716667,stationary,1,2016-03-02 02:47:26.374,null,0,0,0,0,null,11179.48598016667,0,-0.2933044,97.3943,192.168.1.101,100.78.239.175,2,1,0.36,0
2016-03-02 02:47:27.152,16,234B9614-18C8-49ED-8B56-CAB6C4F40872,my_iOS_device_1,1456908447.000088,40.79926585316732,-96.68582204738323,367.6018,0,117.7734375,4,5,-9999,1456908447.14551,17.61110305786133,40.11767578125,-16.9906005859375,238.9594421386719,235.6823120117188,25,11180.57004816667,-0.0428924560546875,1.00689697265625,-0.0663604736328125,11180.55192716667,-0.01995080499021961,0.05204748876396359,-0.01630254061292006,11180.55192716667,-2.33710707439801,-0.7374874240907185,-1.488593865206213,-0.002528895391151309,0.01780777424573898,-0.01076688338071108,0.007926209829747677,0.01504969410598278,0.0003191879659425467,XArbitraryCorrectedZVertical,-0.4913532301442695,0.4776868724425676,-0.535763824505098,0.4932994825402681,-0.05521319806575775,0.9966232776641846,-0.06077450886368752,17.13032150268555,39.40963745117188,-17.76158905029297,1,11179.79597716667,stationary,1,2016-03-02 02:47:26.374,null,0,0,0,0,null,11179.48598016667,0,-0.2933044,97.3943,192.168.1.101,100.78.239.175,2,1,0.36,0
2016-03-02 02:47:27.181,17,234B9614-18C8-49ED-8B56-CAB6C4F40872,my_iOS_device_1,1456908447.000088,40.79926585316732,-96.68582204738323,367.6018,0,117.7734375,4,5,-9999,1456908447.14551,17.61110305786133,40.11767578125,-16.9906005859375,238.9594421386719,235.6823120117188,25,11180.60034116667,-0.0377197265625,1.009307861328125,-0.0695343017578125,11180.58693716667,-0.02127040131035387,0.02338175542256869,0.0007448861568951629,11180.55192716667,-2.33710707439801,-0.7374874240907185,-1.488593865206213,-0.002528895391151309,0.01780777424573898,-0.01076688338071108,0.007926209829747677,0.01504969410598278,0.0003191879659425467,XArbitraryCorrectedZVertical,-0.4913532301442695,0.4776868724425676,-0.535763824505098,0.4932994825402681,-0.05521319806575775,0.9966232776641846,-0.06077450886368752,17.13032150268555,39.40963745117188,-17.76158905029297,1,11179.79597716667,stationary,1,2016-03-02 02:47:26.374,null,0,0,0,0,null,11179.48598016667,0,-0.2933044,97.3943,192.168.1.101,100.78.239.175,2,1,0.36,0
2016-03-02 02:47:27.219,18,234B9614-18C8-49ED-8B56-CAB6C4F40872,my_iOS_device_1,1456908447.000088,40.79926585316732,-96.68582204738323,367.6018,0,117.7734375,4,5,-9999,1456908447.204331,17.54172515869141,40.74420166015625,-17.18890380859375,238.9685211181641,235.6913909912109,25,11180.63061416667,-0.042877197265625,1.014144897460938,-0.06927490234375,11180.62194716667,-0.01169154350155686,0.01168861402435778,-0.0001757686319452297,11180.58693716667,-2.329793452463486,-0.7301848334171466,-1.488788617798671,-0.003846544306725264,-0.01085734087973833,0.006284486036747694,0.01122719887644053,0.01153945922851562,-0.01059328205883503,XArbitraryCorrectedZVertical,-0.4911486125204187,0.4777628109785486,-0.5356865085513358,0.4935136284047465,-0.05463845282793045,0.9966392517089844,-0.06103147193789482,17.14741134643555,39.40384674072266,-17.75794410705566,1,11179.79597716667,stationary,1,2016-03-02 02:47:26.374,null,0,0,0,0,null,11179.48598016667,0,-0.2933044,97.3943,192.168.1.101,100.78.239.175,2,1,0.36,0
2016-03-02 02:47:27.241,19,234B9614-18C8-49ED-8B56-CAB6C4F40872,my_iOS_device_1,1456908447.000088,40.79926585316732,-96.68582204738323,367.6018,0,117.7734375,4,5,-9999,1456908447.204331,17.54172515869141,40.74420166015625,-17.18890380859375,238.9685211181641,235.6913909912109,25,11180.66091716667,-0.0436859130859375,1.011825561523438,-0.0614013671875,11180.65696316667,-0.006237123272965576,-0.002160888908490294,-0.01074692026290576,11180.62194716667,-2.313685352163956,-0.7146299613762743,-1.489185709409993,0.005735908634960651,-0.02254949510097504,0.005370547063648701,0.01182772777974606,0.0153369652107358,-0.009073177352547646,XArbitraryCorrectedZVertical,-0.4908423617145162,0.4777931225399071,-0.5353920198070525,0.4941081795791296,-0.0534231886267662,0.9966716766357422,-0.06157501414418221,17.16393852233887,39.39229202270508,-17.76760864257812,1,11179.79597716667,stationary,1,2016-03-02 02:47:26.374,null,0,0,0,0,null,11179.48598016667,0,-0.2933044,97.3943,192.168.1.101,100.78.239.175,2,1,0.36,0
2016-03-02 02:47:27.271,20,234B9614-18C8-49ED-8B56-CAB6C4F40872,my_iOS_device_1,1456908447.000088,40.79926585316732,-96.68582204738323,367.6018,0,117.7734375,4,5,-9999,1456908447.262919,17.4029655456543,40.53535461425781,-17.71771240234375,238.9620208740234,235.6848907470703,25,11180.69119116667,-0.0595550537109375,1.008041381835938,-0.05377197265625,11180.65696316667,-0.006237123272965576,-0.002160888908490294,-0.01074692026290576,11180.65696316667,-2.303041954433259,-0.7050670565988894,-1.48913802936921,0.01119190454483032,-0.03639837726950645,-0.005196389276534319,0.01132829114794731,0.01717190816998482,-0.003157835453748703,XArbitraryCorrectedZVertical,-0.4908234947097777,0.4775276587892111,-0.5351242337237501,0.4946733130195521,-0.05286271497607231,0.9966678023338318,-0.0621192641556263,17.20455551147461,39.36043167114258,-17.79890441894531,1,11179.79597716667,stationary,1,2016-03-02 02:47:26.374,null,0,0,0,0,null,11179.48598016667,0,-0.2933044,97.3943,192.168.1.101,100.78.239.175,2,1,0.36,0
2016-03-02 02:47:27.302,21,234B9614-18C8-49ED-8B56-CAB6C4F40872,my_iOS_device_1,1456908447.000088,40.79926585316732,-96.68582204738323,367.6018,0,117.7734375,4,5,-9999,1456908447.262919,17.4029655456543,40.53535461425781,-17.71771240234375,238.9620208740234,235.6848907470703,25,11180.72149516667,-0.0632476806640625,1.006057739257812,-0.0560455322265625,11180.69196416667,-0.02548405478707724,-2.7963191445832e-05,-0.003567304280161139,11180.69196416667,-2.305783173512197,-0.7091072956450161,-1.489520007317727,-0.008058096282184124,-0.03426522761583328,0.001984201371669769,-0.006689696572721004,0.01134248450398445,0.007844269275665283,XArbitraryCorrectedZVertical,-0.4912622934218492,0.4773397513638161,-0.5346797150916037,0.4948997101427637,-0.05286535620689392,0.9966989159584045,-0.06161624193191528,17.20048713684082,39.33988189697266,-17.84821510314941,1,11179.79597716667,stationary,1,2016-03-02 02:47:26.374,null,0,0,0,0,null,11179.48598016667,0,-0.2933044,97.3943,192.168.1.101,100.78.239.175,2,1,0.36,0
2016-03-02 02:47:27.342,22,234B9614-18C8-49ED-8B56-CAB6C4F40872,my_iOS_device_1,1456908447.000088,40.79926585316732,-96.68582204738323,367.6018,0,117.7734375,4,5,-9999,1456908447.330594,17.68048286437988,39.83921813964844,-17.916015625,238.9404602050781,235.663330078125,25,11180.75178016667,-0.060394287109375,1.018020629882812,-0.051055908203125,11180.72698416667,-0.02448323884942546,0.01381168604536894,0.00176887159603063,11180.72698416667,-2.31489924649791,-0.7192180911275075,-1.48992501755216,-0.007060548290610313,-0.02042576670646667,0.007317055948078632,-0.01002798974514008,0.009326041676104069,0.004729361273348331,XArbitraryCorrectedZVertical,-0.491801335628877,0.4772253130983578,-0.5343118575975303,0.4948719891471923,-0.05321969091892242,0.996731698513031,-0.06077489256858826,17.20048713684082,39.33988189697266,-17.84821510314941,1,11179.79597716667,stationary,1,2016-03-02 02:47:26.374,null,0,0,0,0,null,11179.48598016667,0,-0.2933044,97.3943,192.168.1.101,100.78.239.175,2,1,0.36,0
2016-03-02 02:47:27.383,23,234B9614-18C8-49ED-8B56-CAB6C4F40872,my_iOS_device_1,1456908447.000088,40.79926585316732,-96.68582204738323,367.6018,0,117.7734375,4,5,-9999,1456908447.380872,17.4029655456543,40.25689697265625,-17.98211669921875,238.9158630371094,235.6387329101562,25,11180.78207216667,-0.0559234619140625,1.0084228515625,-0.05767822265625,11180.76198716667,-0.02332369851080496,0.02442891036318784,-0.004614192904671288,11180.76198716667,-2.323841386990687,-0.7287598659465315,-1.490352208567715,-0.005904678255319595,-0.009808692149817944,0.000930597772821784,-0.00137226574588567,0.020186398178339,0.01047768164426088,XArbitraryCorrectedZVertical,-0.492227775066838,0.4772195298198385,-0.5340304894787484,0.4947572880901972,-0.05351359769701958,0.9967660903930664,-0.05994667485356331,17.14496040344238,39.37366485595703,-17.82711791992188,1,11179.79597716667,stationary,1,2016-03-02 02:47:26.374,null,0,0,0,0,null,11179.48598016667,0,-0.2933044,97.3943,192.168.1.101,100.78.239.175,2,1,0.36,0
2016-03-02 02:47:27.393,24,234B9614-18C8-49ED-8B56-CAB6C4F40872,my_iOS_device_1,1456908447.000088,40.79926585316732,-96.68582204738323,367.6018,0,117.7734375,4,5,-9999,1456908447.380872,17.4029655456543,40.25689697265625,-17.98211669921875,238.9158630371094,235.6387329101562,25,11180.81236616667,-0.0601806640625,1.012451171875,-0.061279296875,11180.79700516667,-0.02320119310066131,0.05099340960451023,-0.01208622397510661,11180.76198716667,-2.323841386990687,-0.7287598659465315,-1.490352208567715,-0.005904678255319595,-0.009808692149817944,0.000930597772821784,-0.00137226574588567,0.020186398178339,0.01047768164426088,XArbitraryCorrectedZVertical,-0.492227775066838,0.4772195298198385,-0.5340304894787484,0.4947572880901972,-0.05351359769701958,0.9967660903930664,-0.05994667485356331,17.14496040344238,39.37366485595703,-17.82711791992188,1,11179.79597716667,stationary,1,2016-03-02 02:47:26.374,null,0,0,0,0,null,11180.79692316667,0,-0.2933044,97.3943,192.168.1.101,100.78.239.175,2,1,0.36,0
2016-03-02 02:47:27.436,25,234B9614-18C8-49ED-8B56-CAB6C4F40872,my_iOS_device_1,1456908447.000088,40.79926585316732,-96.68582204738323,367.6018,0,117.7734375,4,5,-9999,1456908447.380872,17.4029655456543,40.25689697265625,-17.98211669921875,238.9158630371094,235.6387329101562,25,11180.84265116667,-0.0592498779296875,1.01605224609375,-0.0548095703125,11180.83200216667,-0.03797294871900383,0.05414898918014512,-0.02082831656940071,11180.83200216667,-2.339746354248596,-0.7436970648219245,-1.49021337943909,-0.02055489085614681,0.01991157792508602,-0.0152866942808032,-0.006965687032788992,0.01693218201398849,0.002113611437380314,XArbitraryCorrectedZVertical,-0.4924184248336569,0.4773917008271646,-0.5343329578312943,0.4940744367410062,-0.05449671670794487,0.9967549443244934,-0.05924251675605774,17.13130950927734,39.3940315246582,-17.79522705078125,1,11179.79597716667,stationary,1,2016-03-02 02:47:26.374,null,0,0,0,0,null,11180.79692316667,0,-0.2933044,97.3943,192.168.1.101,100.78.239.175,2,1,0.36,0
2016-03-02 02:47:27.470,26,234B9614-18C8-49ED-8B56-CAB6C4F40872,my_iOS_device_1,1456908447.000088,40.79926585316732,-96.68582204738323,367.6018,0,117.7734375,4,5,-9999,1456908447.439763,17.29889297485352,40.36128234863281,-16.9576416015625,238.9185791015625,235.6414489746094,25,11180.87293916667,-0.0532073974609375,1.0135498046875,-0.0523681640625,11180.86703516667,-0.03797294871900383,0.05414898918014512,-0.02082831656940071,11180.83200216667,-2.339746354248596,-0.7436970648219245,-1.49021337943909,-0.02055489085614681,0.01991157792508602,-0.0152866942808032,-0.006965687032788992,0.01693218201398849,0.002113611437380314,XArbitraryCorrectedZVertical,-0.4924184248336569,0.4773917008271646,-0.5343329578312943,0.4940744367410062,-0.05449671670794487,0.9967549443244934,-0.05924251675605774,17.13130950927734,39.3940315246582,-17.79522705078125,1,11179.79597716667,stationary,1,2016-03-02 02:47:26.374,null,0,0,0,0,null,11180.79692316667,0,-0.2933044,97.3943,192.168.1.101,100.78.239.175,2,1,0.36,0
2016-03-02 02:47:27.484,27,234B9614-18C8-49ED-8B56-CAB6C4F40872,my_iOS_device_1,1456908447.000088,40.79926585316732,-96.68582204738323,367.6018,0,117.7734375,4,5,-9999,1456908447.439763,17.29889297485352,40.36128234863281,-16.9576416015625,238.9185791015625,235.6414489746094,25,11180.90322416667,-0.0694122314453125,1.004180908203125,-0.06402587890625,11180.86703516667,-0.03797294871900383,0.05414898918014512,-0.02082831656940071,11180.86703516667,-2.354296524393559,-0.7575421041547803,-1.490638974884102,-0.02055756002664566,0.01991168782114983,-0.01528705656528473,0.003659098641946912,0.01489911321550608,0.005683911964297295,XArbitraryCorrectedZVertical,-0.4926507845476492,0.4777113473084073,-0.5343697109449318,0.4934937539239956,-0.05502018332481384,0.9967890977859497,-0.05817414447665215,17.10821914672852,39.42370986938477,-17.75166511535645,1,11179.79597716667,stationary,1,2016-03-02 02:47:26.374,null,0,0,0,0,null,11180.79692316667,0,-0.2933044,97.3943,192.168.1.101,100.78.239.175,2,1,0.36,0
2016-03-02 02:47:27.514,28,234B9614-18C8-49ED-8B56-CAB6C4F40872,my_iOS_device_1,1456908447.000088,40.79926585316732,-96.68582204738323,367.6018,0,117.7734375,4,5,-9999,1456908447.498093,17.12544441223145,40.04803466796875,-16.8585205078125,238.9264221191406,235.6492919921875,25,11180.93351116667,-0.072845458984375,1.006698608398438,-0.0576629638671875,11180.90204616667,-0.01996412079567,0.07332135218373456,-0.01418213175299897,11180.90204616667,-2.364695172244594,-0.7668484765398057,-1.490821672200922,-0.002550834324210882,0.03908410295844078,-0.008641572669148445,-0.007784342858940363,0.01415207888931036,0.001788100693374872,XArbitraryCorrectedZVertical,-0.4926556000817304,0.4780441727935687,-0.5345790103369907,0.4929396618992443,-0.05543281883001328,0.9968037605285645,-0.05752845853567123,17.10530853271484,39.45329666137695,-17.68862152099609,1,11179.79597716667,stationary,1,2016-03-02 02:47:26.374,null,0,0,0,0,null,11180.79692316667,0,-0.2933044,97.3943,192.168.1.101,100.78.239.175,2,1,0.36,0
2016-03-02 02:47:27.551,29,234B9614-18C8-49ED-8B56-CAB6C4F40872,my_iOS_device_1,1456908447.000088,40.79926585316732,-96.68582204738323,367.6018,0,117.7734375,4,5,-9999,1456908447.498093,17.12544441223145,40.04803466796875,-16.8585205078125,238.9264221191406,235.6492919921875,25,11180.96379816667,-0.0552215576171875,1.0213623046875,-0.0596466064453125,11180.93704116667,-0.0358581324973719,0.07648785071983878,-0.01867754767305272,11180.93704116667,-2.379691276353093,-0.7802615563859856,-1.490012673070052,-0.01844333112239838,0.04225049912929535,-0.01314416714012623,-0.01607874967157841,0.009959833696484566,-0.0003100610338151455,XArbitraryCorrectedZVertical,-0.492650836561382,0.4781408807226439,-0.5352456124368627,0.4921265952823798,-0.05676671117544174,0.9967387914657593,-0.05735290423035622,17.09250831604004,39.47657012939453,-17.64902877807617,1,11179.79597716667,stationary,1,2016-03-02 02:47:26.374,null,0,0,0,0,null,11180.79692316667,0,-0.2933044,97.3943,192.168.1.101,100.78.239.175,2,1,0.36,0
2016-03-02 02:47:27.588,30,234B9614-18C8-49ED-8B56-CAB6C4F40872,my_iOS_device_1,1456908447.000088,40.79926585316732,-96.68582204738323,367.6018,0,117.7734375,4,5,-9999,1456908447.557407,17.36827278137207,40.22207641601562,-17.0238037109375,238.9440765380859,235.6669464111328,25,11180.99408716667,-0.0424346923828125,1.00885009765625,-0.055755615234375,11180.97207116667,-0.03363226245828368,0.07115194115975601,-0.02610270710830264,11180.97207116667,-2.392294399235158,-0.7914568367552007,-1.4897468660948,-0.01621757447719574,0.03691466897726059,-0.02057132869958878,0.002372134011238813,0.0246450137346983,-0.002746603218838573,XArbitraryCorrectedZVertical,-0.4926330983216377,0.4783958913008374,-0.5356781007848409,0.4914254510747698,-0.0575936920940876,0.9967172741889954,-0.05690000206232071,17.07541275024414,39.49620819091797,-17.62161254882812,1,11179.79597716667,stationary,1,2016-03-02 02:47:26.374,null,0,0,0,0,null,11180.79692316667,0,-0.2933044,97.3943,192.168.1.101,100.78.239.175,2,1,0.36,0
2016-03-02 02:47:27.642,31,234B9614-18C8-49ED-8B56-CAB6C4F40872,my_iOS_device_1,1456908447.000088,40.79926585316732,-96.68582204738323,367.6018,0,117.7734375,4,5,-9999,1456908447.61787,17.47234344482422,39.83918762207031,-17.18896484375,238.9484405517578,235.6713104248047,25,11181.02437816667,-0.0528717041015625,1.004791259765625,-0.059112548828125,11181.00708216667,-0.02097159463604698,0.07011863465680528,-0.01845810319923019,11180.97207116667,-2.392294399235158,-0.7914568367552007,-1.4897468660948,-0.01621757447719574,0.03691466897726059,-0.02057132869958878,0.002372134011238813,0.0246450137346983,-0.002746603218838573,XArbitraryCorrectedZVertical,-0.4926330983216377,0.4783958913008374,-0.5356781007848409,0.4914254510747698,-0.0575936920940876,0.9967172741889954,-0.05690000206232071,17.07541275024414,39.49620819091797,-17.62161254882812,1,11179.79597716667,stationary,1,2016-03-02 02:47:26.374,null,0,0,0,0,null,11180.79692316667,0,-0.2933044,97.3943,192.168.1.101,100.78.239.175,2,1,0.36,0
2016-03-02 02:47:27.644,32,234B9614-18C8-49ED-8B56-CAB6C4F40872,my_iOS_device_1,1456908447.000088,40.79926585316732,-96.68582204738323,367.6018,0,117.7734375,4,5,-9999,1456908447.61787,17.47234344482422,39.83918762207031,-17.18896484375,238.9484405517578,235.6713104248047,25,11181.05466816667,-0.05035400390625,1.00701904296875,-0.0664825439453125,11181.04209316667,-0.02642255275522116,0.0690776049866933,-0.008945025469358145,11181.00708216667,-2.392646948204374,-0.7905829113078832,-1.490160845626589,-0.003557586576789618,0.03588200360536575,-0.0129206757992506,0.01237456407397985,0.006835094653069973,0.001575830625370145,XArbitraryCorrectedZVertical,-0.4923156774297747,0.4788478299108249,-0.5358379270241465,0.4911290517868143,-0.05725066363811493,0.9967507123947144,-0.05666005983948708,17.06857490539551,39.52045822143555,-17.57379913330078,1,11179.79597716667,stationary,1,2016-03-02 02:47:26.374,null,0,0,0,0,null,11180.79692316667,0,-0.2933044,97.3943,192.168.1.101,100.78.239.175,2,1,0.36,0
2016-03-02 02:47:27.666,33,234B9614-18C8-49ED-8B56-CAB6C4F40872,my_iOS_device_1,1456908447.000088,40.79926585316732,-96.68582204738323,367.6018,0,117.7734375,4,5,-9999,1456908447.61787,17.47234344482422,39.83918762207031,-17.18896484375,238.9484405517578,235.6713104248047,25,11181.08494616667,-0.049713134765625,1.0181884765625,-0.063690185546875,11181.04209316667,-0.02642255275522116,0.0690776049866933,-0.008945025469358145,11181.04209316667,-2.393128648721497,-0.7898017359642935,-1.490281182232663,-0.008914395235478878,0.03500359877943993,-0.003360032569617033,0.002296367427334189,0.009160003624856472,-0.009114539250731468,XArbitraryCorrectedZVertical,-0.4919912703389728,0.4792018654299886,-0.5361071359625138,0.4908149354377143,-0.05712119489908218,0.9967604279518127,-0.05662032589316368,17.08587646484375,39.52066040039062,-17.55653381347656,1,11179.79597716667,stationary,1,2016-03-02 02:47:26.374,null,0,0,0,0,null,11180.79692316667,0,-0.2933044,97.3943,192.168.1.101,100.78.239.175,2,1,0.36,0
2016-03-02 02:47:27.721,34,234B9614-18C8-49ED-8B56-CAB6C4F40872,my_iOS_device_1,1456908447.000088,40.79926585316732,-96.68582204738323,367.6018,0,117.7734375,4,5,-9999,1456908447.677869,17.47234725952148,40.25689697265625,-17.1229248046875,238.9579772949219,235.6808471679688,25,11181.11523916667,-0.0501708984375,1.013946533203125,-0.0619659423828125,11181.07710816667,-0.0178333256074976,0.05843241747742856,-0.01520931298544253,11181.07710816667,-2.387998831609326,-0.7836578463616697,-1.490239841443332,-0.0003215015749447048,0.02435912191867828,-0.009621086530387402,0.006966133136302233,0.01923413015902042,-0.0082929702475667,XArbitraryCorrectedZVertical,-0.4915732266206334,0.4794330703178853,-0.5363732729432363,0.4907172363260741,-0.05680133774876595,0.9967570900917053,-0.05699938908219337,17.11968612670898,39.51992034912109,-17.52523612976074,1,11179.79597716667,stationary,1,2016-03-02 02:47:26.374,null,0,0,0,0,null,11180.79692316667,0,-0.2933044,97.3943,192.168.1.101,100.78.239.175,2,1,0.36,0
2016-03-02 02:47:27.737,35,234B9614-18C8-49ED-8B56-CAB6C4F40872,my_iOS_device_1,1456908447.000088,40.79926585316732,-96.68582204738323,367.6018,0,117.7734375,4,5,-9999,1456908447.677869,17.47234725952148,40.25689697265625,-17.1229248046875,238.9579772949219,235.6808471679688,25,11181.14554516667,-0.0512847900390625,1.00384521484375,-0.057647705078125,11181.14712816667,-0.01993029864982599,0.04034422735361038,-0.01842774316280329,11181.11211816667,-2.387447848636272,-0.7823953847923796,-1.489938875262515,-0.002351102652028203,0.01583028770983219,-0.01710387319326401,0.005762839689850807,0.02105893194675446,-0.006146975792944431,XArbitraryCorrectedZVertical,-0.4913652185461519,0.4794979841077025,-0.5366515602347637,0.4905578540165578,-0.05694081634283066,0.9967328310012817,-0.05728381127119064,17.15285873413086,39.5086669921875,-17.51816177368164,1,11179.79597716667,stationary,1,2016-03-02 02:47:26.374,null,0,0,0,0,null,11180.79692316667,0,-0.2933044,97.3943,192.168.1.101,100.78.239.175,2,1,0.36,0
2016-03-02 02:47:27.756,36,234B9614-18C8-49ED-8B56-CAB6C4F40872,my_iOS_device_1,1456908447.000088,40.79926585316732,-96.68582204738323,367.6018,0,117.7734375,4,5,-9999,1456908447.737943,17.64579391479492,40.29170227050781,-17.4864501953125,238.9580688476562,235.6809387207031,25,11181.17583516667,-0.0548248291015625,1.01312255859375,-0.0632781982421875,11181.14712816667,-0.01993029864982599,0.04034422735361038,-0.01842774316280329,11181.14712816667,-2.385795368254258,-0.7803145216697905,-1.48998564775753,-0.002415924798697233,0.006272019352763891,-0.01283292565494776,0.005503908265382051,0.007108621299266815,-0.000278664956567809,XArbitraryCorrectedZVertical,-0.4912032995611915,0.4796194308449317,-0.5367413708249155,0.4905030284322086,-0.05678869783878326,0.9967365860939026,-0.05736903846263885,17.15559005737305,39.50842666625977,-17.51603889465332,1,11179.79597716667,stationary,1,2016-03-02 02:47:26.374,null,0,0,0,0,null,11180.79692316667,0,-0.2933044,97.3943,192.168.1.101,100.78.239.175,2,1,0.36,0
2016-03-02 02:47:27.802,37,234B9614-18C8-49ED-8B56-CAB6C4F40872,my_iOS_device_1,1456908447.000088,40.79926585316732,-96.68582204738323,367.6018,0,117.7734375,4,5,-9999,1456908447.792537,17.78455352783203,40.430908203125,-17.1558837890625,238.9767456054688,235.6996154785156,25,11181.20612516667,-0.0578765869140625,1.0103759765625,-0.05426025390625,11181.18213616667,-0.03161012424258651,0.02863217751165991,-0.02072285539023358,11181.14712816667,-2.385795368254258,-0.7803145216697905,-1.48998564775753,-0.002415924798697233,0.006272019352763891,-0.01283292565494776,0.005503908265382051,0.007108621299266815,-0.000278664956567809,XArbitraryCorrectedZVertical,-0.4912032995611915,0.4796194308449317,-0.5367413708249155,0.4905030284322086,-0.05678869783878326,0.9967365860939026,-0.05736903846263885,17.15559005737305,39.50842666625977,-17.51603889465332,1,11179.79597716667,stationary,1,2016-03-02 02:47:26.374,null,0,0,0,0,null,11180.79692316667,0,-0.2933044,97.3943,192.168.1.101,100.78.239.175,2,1,0.36,0
2016-03-02 02:47:27.817,38,234B9614-18C8-49ED-8B56-CAB6C4F40872,my_iOS_device_1,1456908447.000088,40.79926585316732,-96.68582204738323,367.6018,0,117.7734375,4,5,-9999,1456908447.792537,17.78455352783203,40.430908203125,-17.1558837890625,238.9767456054688,235.6996154785156,25,11181.23641516667,-0.064117431640625,1.011947631835938,-0.045928955078125,11181.21714016667,-0.02205416961916419,0.02545209685399629,-0.01951670973253669,11181.18213616667,-2.388784864251972,-0.7832749311505843,-1.489868321559028,-0.01409478951245546,-0.005439654923975468,-0.01512638106942177,0.002215971006080508,0.0163954421877861,-0.005994660779833794,XArbitraryCorrectedZVertical,-0.4912803412044323,0.4795850889685707,-0.5367875776255758,0.490408875625153,-0.05704079940915108,0.9967271089553833,-0.05728353932499886,17.1640453338623,39.50658798217773,-17.51189994812012,1,11179.79597716667,stationary,1,2016-03-02 02:47:26.374,null,0,0,0,0,null,11180.79692316667,0,-0.2933044,97.3943,192.168.1.101,100.78.239.175,2,1,0.36,0
2016-03-02 02:47:27.882,39,234B9614-18C8-49ED-8B56-CAB6C4F40872,my_iOS_device_1,1456908447.000088,40.79926585316732,-96.68582204738323,367.6018,0,117.7734375,4,5,-9999,1456908447.85132,17.68048286437988,40.674560546875,-16.66021728515625,239.0060272216797,235.7288970947266,25,11181.26670516667,-0.0614166259765625,1.006988525390625,-0.048126220703125,11181.25213916667,-0.03064073360579767,0.02014335153703234,-0.01430996348532277,11181.21714016667,-2.396108472310051,-0.7908808414755955,-1.489896773675416,-0.004539287649095058,-0.008619450032711029,-0.01391987130045891,0.0003715470666065812,0.01331086736172438,0.003162933979183435,XArbitraryCorrectedZVertical,-0.4915656092435898,0.4795301912325461,-0.5367044838964206,0.4902676253546915,-0.0574546754360199,0.9967294335365295,-0.0568280965089798,17.15640258789062,39.51123809814453,-17.50890350341797,1,11179.79597716667,stationary,1,2016-03-02 02:47:26.374,null,0,0,0,0,null,11180.79692316667,0,-0.2933044,97.3943,192.168.1.101,100.78.239.175,2,1,0.36,0
2016-03-02 02:47:27.885,40,234B9614-18C8-49ED-8B56-CAB6C4F40872,my_iOS_device_1,1456908447.000088,40.79926585316732,-96.68582204738323,367.6018,0,117.7734375,4,5,-9999,1456908447.85132,17.68048286437988,40.674560546875,-16.66021728515625,239.0060272216797,235.7288970947266,25,11181.29699616667,-0.0709991455078125,1.008331298828125,-0.0540771484375,11181.28718416667,-0.02960556289008387,0.02121340966302617,-0.01216398827893692,11181.25213916667,-2.409399854672462,-0.8044772421802866,-1.490048868931532,-0.0131293460726738,-0.01392826996743679,-0.008714715950191021,-0.008034072816371918,0.01635034568607807,0.009763462468981743,XArbitraryCorrectedZVertical,-0.4920269166192141,0.4795218810873333,-0.5365661680072965,0.4899643111805341,-0.05811277776956558,0.9967417120933533,-0.05593655630946159,17.13172149658203,39.52742767333984,-17.49651336669922,1,11179.79597716667,stationary,1,2016-03-02 02:47:26.374,null,0,0,0,0,null,11180.79692316667,0,-0.2933044,97.3943,192.168.1.101,100.78.239.175,2,1,0.36,0
2016-03-02 02:47:27.908,41,234B9614-18C8-49ED-8B56-CAB6C4F40872,my_iOS_device_1,1456908447.000088,40.79926585316732,-96.68582204738323,367.6018,0,117.7734375,4,5,-9999,1456908447.885413,17.6111011505127,40.53533935546875,-16.92462158203125,239.0187377929688,235.7416076660156,25,11181.32728416667,-0.067718505859375,1.013580322265625,-0.0506744384765625,11181.32218416667,-0.02743428765334226,0.02120621912808296,-0.01532968786671411,11181.28718416667,-2.423032976327092,-0.8186074333822031,-1.490211606857247,-0.0120975449681282,-0.01285827998071909,-0.006571432575583458,-0.007871489971876144,0.01063044555485249,0.001898443093523383,XArbitraryCorrectedZVertical,-0.4925477285840779,0.4794759853861419,-0.5363713090318996,0.4896992274366542,-0.05877890065312386,0.9967548251152039,-0.05499902740120888,17.07663536071777,39.57430648803711,-17.44431495666504,1,11179.79597716667,stationary,1,2016-03-02 02:47:26.374,null,0,0,0,0,null,11180.79692316667,0,-0.2933044,97.3943,192.168.1.101,100.78.239.175,2,1,0.36,0
2016-03-02 02:47:27.961,42,234B9614-18C8-49ED-8B56-CAB6C4F40872,my_iOS_device_1,1456908447.000088,40.79926585316732,-96.68582204738323,367.6018,0,117.7734375,4,5,-9999,1456908447.939735,17.22951507568359,40.22207641601562,-16.82550048828125,239.0376586914062,235.7605285644531,25,11181.35757316667,-0.066741943359375,1.002670288085938,-0.0544586181640625,11181.32218416667,-0.02743428765334226,0.02120621912808296,-0.01532968786671411,11181.32218416667,-2.434374301869627,-0.830328928573753,-1.490038554220288,-0.009927188977599144,-0.01286546606570482,-0.009740166366100311,-0.00876675546169281,0.01729722321033478,0.002756397472694516,XArbitraryCorrectedZVertical,-0.4929742533762087,0.4793381445820117,-0.5363188745772186,0.4894623513908553,-0.05954684317111969,0.9967408776283264,-0.05442265793681145,17.05380821228027,39.58782196044922,-17.43598556518555,1,11179.79597716667,stationary,1,2016-03-02 02:47:26.374,null,0,0,0,0,null,11180.79692316667,0,-0.2933044,97.3943,192.168.1.101,100.78.239.175,2,1,0.36,0
2016-03-02 02:47:27.969,43,234B9614-18C8-49ED-8B56-CAB6C4F40872,my_iOS_device_1,1456908447.000088,40.79926585316732,-96.68582204738323,367.6018,0,117.7734375,4,5,-9999,1456908447.939735,17.22951507568359,40.22207641601562,-16.82550048828125,239.0376586914062,235.7605285644531,25,11181.38786216667,-0.06524658203125,1.01458740234375,-0.0504302978515625,11181.35718016667,-0.02317402885754251,0.02865321648427153,-0.01527163095495038,11181.35718016667,-2.443395246940581,-0.8396083386674268,-1.489756611651242,-0.005667909048497677,-0.005418441724032164,-0.009684184566140175,-0.004530349746346474,0.009293884038925171,3.93019690818619e-05,XArbitraryCorrectedZVertical,-0.493304725473817,0.4791896703817204,-0.5363345836478197,0.4892575211562675,-0.06025846675038338,0.9967181086540222,-0.05405541509389877,17.03233909606934,39.60115814208984,-17.42667961120605,1,11179.79597716667,stationary,1,2016-03-02 02:47:26.374,null,0,0,0,0,null,11180.79692316667,0,-0.2933044,97.3943,192.168.1.101,100.78.239.175,2,1,0.36,0
2016-03-02 02:47:28.005,44,234B9614-18C8-49ED-8B56-CAB6C4F40872,my_iOS_device_1,1456908447.000088,40.79926585316732,-96.68582204738323,367.6018,0,117.7734375,4,5,-9999,1456908448.000771,16.98669052124023,40.11766052246094,-16.9246826171875,239.0484313964844,235.7713012695312,25,11181.41813816667,-0.0612640380859375,1.012619018554688,-0.05181884765625,11181.39220616667,-0.03698145384516732,0.03608370224170161,-0.01654169247880917,11181.35718016667,-2.443395246940581,-0.8396083386674268,-1.489756611651242,-0.005667909048497677,-0.005418441724032164,-0.009684184566140175,-0.004530349746346474,0.009293884038925171,3.93019690818619e-05,XArbitraryCorrectedZVertical,-0.493304725473817,0.4791896703817204,-0.5363345836478197,0.4892575211562675,-0.06025846675038338,0.9967181086540222,-0.05405541509389877,17.03233909606934,39.60115814208984,-17.42667961120605,1,11179.79597716667,stationary,1,2016-03-02 02:47:26.374,null,0,0,0,0,null,11180.79692316667,0,-0.2933044,97.3943,192.168.1.101,100.78.239.175,2,1,0.36,0
2016-03-02 02:47:28.046,45,234B9614-18C8-49ED-8B56-CAB6C4F40872,my_iOS_device_1,1456908447.000088,40.79926585316732,-96.68582204738323,367.6018,0,117.7734375,4,5,-9999,1456908448.000771,16.98669052124023,40.11766052246094,-16.9246826171875,239.0484313964844,235.7713012695312,25,11181.44842916667,-0.0621185302734375,1.00665283203125,-0.055999755859375,11181.42722716667,-0.02745878873537099,0.02759247942209297,-0.0132018221557408,11181.42722716667,-2.463283222432351,-0.8594938519786459,-1.489763835347465,-0.009954823181033134,-0.006479000207036734,-0.007617414463311434,5.191145828575827e-05,0.01590035483241081,0.001022988348267972,XArbitraryCorrectedZVertical,-0.493871716998279,0.4792387809187427,-0.536286831431372,0.4886894233007144,-0.06131595000624657,0.9967186450958252,-0.05284183472394943,16.96774101257324,39.64813995361328,-17.38281440734863,1,11179.79597716667,stationary,1,2016-03-02 02:47:26.374,null,0,0,0,0,null,11180.79692316667,0,-0.2933044,97.3943,192.168.1.101,100.78.239.175,2,1,0.36,0
2016-03-02 02:47:28.059,46,234B9614-18C8-49ED-8B56-CAB6C4F40872,my_iOS_device_1,1456908447.000088,40.79926585316732,-96.68582204738323,367.6018,0,117.7734375,4,5,-9999,1456908448.056987,17.05607223510742,40.46572875976562,-16.528076171875,239.0712890625,235.7941589355469,25,11181.47872916667,-0.0681915283203125,1.008758544921875,-0.053375244140625,11181.46223816667,-0.03066123994619128,0.03184661294738555,-0.01218476093543954,11181.46223816667,-2.468491666648343,-0.8647729163252553,-1.489782289049943,-0.01315681263804436,-0.002224548254162073,-0.006600274238735437,-0.002522119786590338,0.009764827787876129,-0.003433244070038199,XArbitraryCorrectedZVertical,-0.494038742444823,0.4792420918877172,-0.5362492053243858,0.4885586230081135,-0.06158005446195602,0.9967201352119446,-0.05250547826290131,16.96774101257324,39.64813995361328,-17.38281440734863,1,11179.79597716667,stationary,1,2016-03-02 02:47:26.374,null,0,0,0,0,null,11180.79692316667,0,-0.2933044,97.3943,192.168.1.101,100.78.239.175,2,1,0.36,0
2016-03-02 02:47:28.111,47,234B9614-18C8-49ED-8B56-CAB6C4F40872,my_iOS_device_1,1456908448.000089,40.79926585316732,-96.68582204738323,367.5645,0,117.7734375,4,5,-9999,1456908448.056987,17.05607223510742,40.46572875976562,-16.528076171875,239.0712890625,235.7941589355469,25,11181.50901616667,-0.06597900390625,1.013031005859375,-0.053314208984375,11181.49725316667,-0.03064739150852287,0.03078028324691782,-0.01324975905536223,11181.46223816667,-2.468491666648343,-0.8647729163252553,-1.489782289049943,-0.01315681263804436,-0.002224548254162073,-0.006600274238735437,-0.002522119786590338,0.009764827787876129,-0.003433244070038199,XArbitraryCorrectedZVertical,-0.494038742444823,0.4792420918877172,-0.5362492053243858,0.4885586230081135,-0.06158005446195602,0.9967201352119446,-0.05250547826290131,16.96774101257324,39.64813995361328,-17.38281440734863,1,11179.79597716667,stationary,1,2016-03-02 02:47:26.374,null,0,0,0,0,null,11180.79692316667,0,-0.2933044,97.3943,192.168.1.101,100.78.239.175,2,1,0.36,0
2016-03-02 02:47:28.120,48,234B9614-18C8-49ED-8B56-CAB6C4F40872,my_iOS_device_1,1456908448.000089,40.79926585316732,-96.68582204738323,367.5645,0,117.7734375,4,5,-9999,1456908448.115331,17.09076118469238,40.430908203125,-16.7593994140625,239.0918426513672,235.8147125244141,25,11181.53920775,-0.0587921142578125,1.009613037109375,-0.0549163818359375,11181.53226416667,-0.0284875678644686,0.03502962308224825,-0.01535205841987078,11181.49725316667,-2.477713966689769,-0.8740742592335997,-1.489638882793317,-0.01314289215952158,-0.003290797816589475,-0.007667605299502611,-0.008228675462305546,0.01656660437583923,-0.002390682930126786,XArbitraryCorrectedZVertical,-0.4943265678534144,0.4791974174017057,-0.5362520917750286,0.4883080723648769,-0.06217537820339203,0.9967085123062134,-0.05202215909957886,16.92970657348633,39.67959213256836,-17.34809875488281,1,11179.79597716667,stationary,1,2016-03-02 02:47:26.374,null,0,0,0,0,null,11180.79692316667,0,-0.2933044,97.3943,192.168.1.101,100.78.239.175,2,1,0.36,0
2016-03-02 02:47:28.150,49,234B9614-18C8-49ED-8B56-CAB6C4F40872,my_iOS_device_1,1456908448.000089,40.79926585316732,-96.68582204738323,367.5645,0,117.7734375,4,5,-9999,1456908448.115331,17.09076118469238,40.430908203125,-16.7593994140625,239.0918426513672,235.8147125244141,25,11181.56949575,-0.057952880859375,1.009063720703125,-0.0533294677734375,11181.56718075,-0.0263903285060312,0.03397367971003183,-0.01318957161472644,11181.53226416667,-2.483614454087325,-0.879990745705184,-1.489507551385661,-0.01098305080085993,0.0009587698150426149,-0.009770880453288555,0.002966874977573752,0.01239635143429041,-0.002462425036355853,XArbitraryCorrectedZVertical,-0.4945029578209741,0.4791643014646275,-0.5362746376054134,0.4881371835554047,-0.06258296221494675,0.9966979026794434,-0.05173679441213608,16.90336990356445,39.69709396362305,-17.3337345123291,1,11179.79597716667,stationary,1,2016-03-02 02:47:26.374,null,0,0,0,0,null,11180.79692316667,0,-0.2933044,97.3943,192.168.1.101,100.78.239.175,2,1,0.36,0
2016-03-02 02:47:28.198,50,234B9614-18C8-49ED-8B56-CAB6C4F40872,my_iOS_device_1,1456908448.000089,40.79926585316732,-96.68582204738323,367.5645,0,117.7734375,4,5,-9999,1456908448.174602,17.50703620910645,40.430908203125,-16.62725830078125,239.124267578125,235.8471374511719,25,11181.59978375,-0.062591552734375,1.010910034179688,-0.0568084716796875,11181.56718075,-0.0263903285060312,0.03397367971003183,-0.01318957161472644,11181.56718075,-2.488269430480576,-0.8845272727282213,-1.489647450837427,-0.008792884647846222,5.441065513878129e-05,-0.007562890648841858,0.003947556018829346,0.01227819081395864,0.00062852370319888,XArbitraryCorrectedZVertical,-0.4945997816897773,0.4792588625147206,-0.5362411575569569,0.4879830115849246,-0.06270915269851685,0.9967092275619507,-0.0513639971613884,16.9025993347168,39.70032501220703,-17.32708740234375,1,11179.79597716667,stationary,1,2016-03-02 02:47:26.374,null,0,0,0,0,null,11180.79692316667,0,-0.2933044,97.3943,192.168.1.101,100.78.239.175,2,1,0.36,0
2016-03-02 02:47:28.211,51,234B9614-18C8-49ED-8B56-CAB6C4F40872,my_iOS_device_1,1456908448.000089,40.79926585316732,-96.68582204738323,367.5645,0,117.7734375,4,5,-9999,1456908448.174602,17.50703620910645,40.430908203125,-16.62725830078125,239.124267578125,235.8471374511719,25,11181.63007075,-0.0585784912109375,1.0096435546875,-0.0518341064453125,11181.60219575,-0.03165246850391877,0.03076776638979445,-0.0175273283982475,11181.60219575,-2.490841511953794,-0.8870509446814471,-1.489650233925512,-0.01405346766114235,-0.00315103167667985,-0.011899184435606,0.0002448757295496762,0.01420057192444801,-0.005604647565633059,XArbitraryCorrectedZVertical,-0.4946599845556996,0.4792802807723237,-0.536243579550674,0.4878982840027566,-0.0628364309668541,0.9967094659805298,-0.05120382457971573,16.90020751953125,39.70837020874023,-17.31097412109375,1,11179.79597716667,stationary,1,2016-03-02 02:47:26.374,null,0,0,0,0,null,11180.79692316667,0,-0.2933044,97.3943,192.168.1.101,100.78.239.175,2,1,0.36,0
2016-03-02 02:47:28.245,52,234B9614-18C8-49ED-8B56-CAB6C4F40872,my_iOS_device_1,1456908448.000089,40.79926585316732,-96.68582204738323,367.5645,0,117.7734375,4,5,-9999,1456908448.233834,17.09076118469238,40.36131286621094,-16.8255615234375,239.1397399902344,235.8626098632812,25,11181.66035775,-0.0546875,1.00787353515625,-0.0535430908203125,11181.63718975,-0.03276327299459082,0.02652215497999013,-0.01434405194727579,11181.63718975,-2.497017767946731,-0.893443465680349,-1.48980340729721,-0.01516411360353231,-0.007396350149065256,-0.0087147057056427,0.00446500675752759,0.01292168814688921,-0.001128692296333611,XArbitraryCorrectedZVertical,-0.4948886193728145,0.4793042325264426,-0.5361165293924541,0.4877825068713452,-0.0630434975028038,0.9967218637466431,-0.05070541426539421,16.89474487304688,39.71236419677734,-17.30713844299316,1,11179.79597716667,stationary,1,2016-03-02 02:47:26.374,null,0,0,0,0,null,11180.79692316667,0,-0.2933044,97.3943,192.168.1.101,100.78.239.175,2,1,0.36,0
2016-03-02 02:47:28.287,53,234B9614-18C8-49ED-8B56-CAB6C4F40872,my_iOS_device_1,1456908448.000089,40.79926585316732,-96.68582204738323,367.5645,0,117.7734375,4,5,-9999,1456908448.233834,17.09076118469238,40.36131286621094,-16.8255615234375,239.1397399902344,235.8626098632812,25,11181.69064675,-0.0592193603515625,1.011474609375,-0.0535736083984375,11181.67221575,-0.03809465518082045,0.02864789016209137,-0.01335681813118341,11181.67221575,-2.499912961813306,-0.8965109310009385,-1.490251428003352,-0.02049484848976135,-0.005270120222121477,-0.00772461574524641,0.005461600609123707,0.01464030239731073,-0.005583663005381823,XArbitraryCorrectedZVertical,-0.4950013578860877,0.4794342104013501,-0.5359110949718634,0.4877661241556429,-0.06284990906715393,0.996757984161377,-0.05023298785090446,16.88709449768066,39.72712326049805,-17.28071594238281,1,11179.79597716667,stationary,1,2016-03-02 02:47:26.374,null,0,0,0,0,null,11180.79692316667,0,-0.2933044,97.3943,192.168.1.101,100.78.239.175,2,1,0.36,0
2016-03-02 02:47:28.300,54,234B9614-18C8-49ED-8B56-CAB6C4F40872,my_iOS_device_1,1456908448.000089,40.79926585316732,-96.68582204738323,367.5645,0,117.7734375,4,5,-9999,1456908448.292725,16.8132438659668,40.63975524902344,-16.627197265625,239.1536407470703,235.8765106201172,25,11181.72092475,-0.0558319091796875,1.011398315429688,-0.0548248291015625,11181.70723175,-0.03489220397000016,0.0243937566367988,-0.01437387935148467,11181.67221575,-2.499912961813306,-0.8965109310009385,-1.490251428003352,-0.02049484848976135,-0.005270120222121477,-0.00772461574524641,0.005461600609123707,0.01464030239731073,-0.005583663005381823,XArbitraryCorrectedZVertical,-0.4950013578860877,0.4794342104013501,-0.5359110949718634,0.4877661241556429,-0.06284990906715393,0.996757984161377,-0.05023298785090446,16.88709449768066,39.72712326049805,-17.28071594238281,1,11179.79597716667,stationary,1,2016-03-02 02:47:26.374,null,0,0,0,0,null,11180.79692316667,0,-0.2933044,97.3943,192.168.1.101,100.78.239.175,2,1,0.36,0
2016-03-02 02:47:28.369,55,234B9614-18C8-49ED-8B56-CAB6C4F40872,my_iOS_device_1,1456908448.000089,40.79926585316732,-96.68582204738323,367.5645,0,117.7734375,4,5,-9999,1456908448.351665,16.60510444641113,40.63975524902344,-16.16448974609375,239.1735229492188,235.8963928222656,25,11181.75121175,-0.0655364990234375,1.0093994140625,-0.05609130859375,11181.74224175,-0.03274702771194134,0.02864602594932832,-0.01541064796385252,11181.70723175,-2.504720230966301,-0.9015908812497864,-1.490640802508009,-0.01729147136211395,-0.009523872286081314,-0.00873979739844799,0.007166323252022266,0.01503629609942436,-0.003702952293679118,XArbitraryCorrectedZVertical,-0.4951958173983718,0.4795257621147609,-0.5356934876282883,0.4877177802910759,-0.06279987096786499,0.996789276599884,-0.04967229068279266,16.8875904083252,39.73117446899414,-17.27091979980469,1,11181.72788975,unknown,1,2016-03-02 02:47:28.313,null,0,0,0,0,null,11180.79692316667,0,-0.2933044,97.3943,192.168.1.101,100.78.239.175,2,1,0.36,0
2016-03-02 02:47:28.372,56,234B9614-18C8-49ED-8B56-CAB6C4F40872,my_iOS_device_1,1456908448.000089,40.79926585316732,-96.68582204738323,367.5645,0,117.7734375,4,5,-9999,1456908448.351665,16.60510444641113,40.63975524902344,-16.16448974609375,239.1735229492188,235.8963928222656,25,11181.78150175,-0.06304931640625,1.011627197265625,-0.0466461181640625,11181.77725275,-0.03170280224852127,0.02226935303524259,-0.01432647508408126,11181.74224175,-2.50731527461607,-0.9043829314373116,-1.490784663689396,-0.01508027128875256,-0.005243898369371891,-0.009736774489283562,0.0001119691296480596,0.01305640395730734,-0.006057586055248976,XArbitraryCorrectedZVertical,-0.4953160213951965,0.4795393443811893,-0.5355860055883315,0.4877004067638507,-0.06282559037208557,0.9968007802963257,-0.04940811172127724,16.88742637634277,39.73715209960938,-17.2573184967041,1,11181.72788975,unknown,1,2016-03-02 02:47:28.313,null,0,0,0,0,null,11180.79692316667,0,-0.2933044,97.3943,192.168.1.101,100.78.239.175,2,1,0.36,0
2016-03-02 02:47:28.392,57,234B9614-18C8-49ED-8B56-CAB6C4F40872,my_iOS_device_1,1456908448.000089,40.79926585316732,-96.68582204738323,367.5645,0,117.7734375,4,5,-9999,1456908448.351665,16.60510444641113,40.63975524902344,-16.16448974609375,239.1735229492188,235.8963928222656,25,11181.81180575,-0.0589141845703125,1.009689331054688,-0.0483245849609375,11181.77725275,-0.03170280224852127,0.02226935303524259,-0.01432647508408126,11181.77725275,-2.515145480556205,-0.9124341758347381,-1.490700678114768,-0.0140354922041297,-0.01162037160247564,-0.008653315715491772,-0.002096343319863081,0.01338355429470539,0.002427863888442516,XArbitraryCorrectedZVertical,-0.495597918442557,0.4794859198259732,-0.5355290747377623,0.4875290412217084,-0.06328757107257843,0.9967940449714661,-0.04895191267132759,16.88125038146973,39.74154281616211,-17.25324821472168,1,11181.72788975,unknown,1,2016-03-02 02:47:28.313,null,0,0,0,0,null,11180.79692316667,0,-0.2933044,97.3943,192.168.1.101,100.78.239.175,2,1,0.36,0
2016-03-02 02:47:28.438,58,234B9614-18C8-49ED-8B56-CAB6C4F40872,my_iOS_device_1,1456908448.000089,40.79926585316732,-96.68582204738323,367.5645,0,117.7734375,4,5,-9999,1456908448.411307,16.57041549682617,40.46572875976562,-16.197509765625,239.1934814453125,235.9163513183594,25,11181.84209275,-0.0630340576171875,1.013381958007812,-0.0458831787109375,11181.81226575,-0.02636902321731057,0.02333381852294726,-0.01531530679682768,11181.81226575,-2.521576212121022,-0.9192646104101561,-1.490902225173966,-0.008702638559043407,-0.01055559888482094,-0.009640836156904697,0.004546518437564373,0.01287916768342257,7.207842281786725e-05,XArbitraryCorrectedZVertical,-0.4958764132916841,0.4794874878957598,-0.5353350995988667,0.4874573446260267,-0.06346070021390915,0.9968101382255554,-0.04839666187763214,16.85667991638184,39.75943374633789,-17.23604393005371,1,11181.72788975,unknown,1,2016-03-02 02:47:28.313,null,0,0,0,0,null,11180.79692316667,0,-0.2933044,97.3943,192.168.1.101,100.78.239.175,2,1,0.36,0
