loggingTime,loggingSample,identifierForVendor,deviceID,locationTimestamp_since1970,locationLatitude,locationLongitude,locationAltitude,locationSpeed,locationCourse,locationVerticalAccuracy,locationHorizontalAccuracy,locationFloor,locationHeadingTimestamp_since1970,locationHeadingX,locationHeadingY,locationHeadingZ,locationTrueHeading,locationMagneticHeading,locationHeadingAccuracy,accelerometerTimestamp_sinceReboot,accelerometerAccelerationX,accelerometerAccelerationY,accelerometerAccelerationZ,gyroTimestamp_sinceReboot,gyroRotationX,gyroRotationY,gyroRotationZ,motionTimestamp_sinceReboot,motionYaw,motionRoll,motionPitch,motionRotationRateX,motionRotationRateY,motionRotationRateZ,motionUserAccelerationX,motionUserAccelerationY,motionUserAccelerationZ,motionAttitudeReferenceFrame,motionQuaternionX,motionQuaternionY,motionQuaternionZ,motionQuaternionW,motionGravityX,motionGravityY,motionGravityZ,motionMagneticFieldX,motionMagneticFieldY,motionMagneticFieldZ,motionMagneticFieldCalibrationAccuracy,activityTimestamp_sinceReboot,activity,activityActivityConfidence,activityActivityStartDate,pedometerStartDate,pedometerNumberofSteps,pedometerDistance,pedometerFloorAscended,pedometerFloorDescended,pedometerEndDate,altimeterTimestamp_sinceReboot,altimeterReset,altimeterRelativeAltitude,altimeterPressure,IP_en0,IP_pdp_ip0,deviceOrientation,batteryState,batteryLevel,state
2016-03-02 02:38:37.014,1,234B9614-18C8-49ED-8B56-CAB6C4F40872,my_iOS_device_1,1456907915.999845,40.79926019538268,-96.68576111094717,372.3556,0,-1,3,10,-9999,1456907916.952851,27.40921592712402,42.60028076171875,6.13848876953125,288.9112243652344,285.6340942382812,25,10650.40895741667,0.0798187255859375,1.006546020507812,-0.04925537109375,10650.38428741667,-0.1136554595252026,0.07220522137088235,-0.009147692028313175,10650.38428741667,2.734132636176521,0.8590997837091677,-1.468837057587003,-0.09276072680950165,0.03960463032126427,-0.003514060284942389,0.008450058288872242,0.004277817439287901,0.001977360341697931,XArbitraryCorrectedZVertical,-0.4259842240974921,-0.5341341684952906,0.6043693694206905,0.4098485039278754,0.07707545161247253,0.9948066473007202,-0.06647626310586929,28.36104202270508,42.83917236328125,4.445622444152832,1,10648.56620041667,stationary,1,2016-03-02 02:38:35.155,null,0,0,0,0,null,10649.24097441667,0,-0.02957153,97.39694,192.168.1.101,100.78.239.175,2,1,0.4,0
2016-03-02 02:38:37.032,2,234B9614-18C8-49ED-8B56-CAB6C4F40872,my_iOS_device_1,1456907915.999845,40.79926019538268,-96.68576111094717,372.3556,0,-1,3,10,-9999,1456907917.013431,26.99307632446289,42.46104431152344,6.20452880859375,289.7680969238281,286.490966796875,25,10650.43925641667,0.08349609375,1.013671875,-0.0576629638671875,10650.41929741667,-0.01894173325318858,0.05737700673743016,-0.01202763443112486,10650.38428741667,2.734132636176521,0.8590997837091677,-1.468837057587003,-0.09276072680950165,0.03960463032126427,-0.003514060284942389,0.008450058288872242,0.004277817439287901,0.001977360341697931,XArbitraryCorrectedZVertical,-0.4259842240974921,-0.5341341684952906,0.6043693694206905,0.4098485039278754,0.07707545161247253,0.9948066473007202,-0.06647626310586929,28.36104202270508,42.83917236328125,4.445622444152832,1,10648.56620041667,stationary,1,2016-03-02 02:38:35.155,null,0,0,0,0,null,10649.24097441667,0,-0.02957153,97.39694,192.168.1.101,100.78.239.175,2,1,0.4,0
2016-03-02 02:38:37.072,3,234B9614-18C8-49ED-8B56-CAB6C4F40872,my_iOS_device_1,1456907915.999845,40.79926019538268,-96.68576111094717,372.3556,0,-1,3,10,-9999,1456907917.013431,26.99307632446289,42.46104431152344,6.20452880859375,289.7680969238281,286.490966796875,25,10650.46953841667,0.0814666748046875,1.005767822265625,-0.055633544921875,10650.45430841667,-0.01260181196214595,0.04037325580949224,-0.009795372805420446,10650.41929741667,2.736086253175918,0.8616578153625311,-1.469225588573365,0.001950147445313632,0.0247768722474575,-0.006394371856004,0.002195428358390927,0.01733038760721684,-0.01086184941232204,XArbitraryCorrectedZVertical,-0.4262085530492413,-0.5341654005848977,0.6040967516316927,0.4099764734636163,0.07695191353559494,0.9948461055755615,-0.06602718681097031,28.35598564147949,42.83082962036133,4.55690860748291,1,10648.56620041667,stationary,1,2016-03-02 02:38:35.155,null,0,0,0,0,null,10649.24097441667,0,-0.02957153,97.39694,192.168.1.101,100.78.239.175,2,1,0.4,0
2016-03-02 02:38:37.091,4,234B9614-18C8-49ED-8B56-CAB6C4F40872,my_iOS_device_1,1456907916.999845,40.79926019538268,-96.68576111094717,372.1939,0,-1,3,10,-9999,1456907917.0726,26.68097496032715,43.05282592773438,6.3697509765625,290.3145446777344,287.0374145507812,25,10650.49984741667,0.0805206298828125,1.002273559570312,-0.0739898681640625,10650.48932241667,-0.02231782256708203,0.02550482744357986,-0.0003371561940040316,10650.45430841667,2.737024417598634,0.8630920253299702,-1.469619417969287,0.008290373720228672,0.007773322518914938,-0.004161981400102377,0.008288420736789703,0.01869434118270874,0.01390423253178596,XArbitraryCorrectedZVertical,-0.4263637429509747,-0.5342124449940525,0.6038536480022201,0.4101119287520188,0.0767488107085228,0.9948859810829163,-0.06566204130649567,28.3494987487793,42.83382415771484,4.569085121154785,1,10648.56620041667,stationary,1,2016-03-02 02:38:35.155,null,0,0,0,0,null,10649.24097441667,0,-0.02957153,97.39694,192.168.1.101,100.78.239.175,2,1,0.4,0
2016-03-02 02:38:37.124,5,234B9614-18C8-49ED-8B56-CAB6C4F40872,my_iOS_device_1,1456907916.999845,40.79926019538268,-96.68576111094717,372.1939,0,-1,3,10,-9999,1456907917.0726,26.68097496032715,43.05282592773438,6.3697509765625,290.3145446777344,287.0374145507812,25,10650.53014741667,0.0802764892578125,1.008255004882812,-0.068359375,10650.52431841667,-0.02761644787190368,0.01273417106832288,-0.002539057783281546,10650.48932241667,2.735459338924259,0.8615420333818408,-1.469225833277634,-0.001424232847057283,-0.007052394561469555,0.005295916460454464,0.002722057281062007,0.007396891247481108,-0.003376292530447245,XArbitraryCorrectedZVertical,-0.4263409881226095,-0.5340556079598192,0.6039928135886338,0.4101349175412518,0.07694408297538757,0.9948461651802063,-0.06603594124317169,28.34124565124512,42.83724594116211,4.58817195892334,1,10648.56620041667,stationary,1,2016-03-02 02:38:35.155,null,0,0,0,0,null,10649.24097441667,0,-0.02957153,97.39694,192.168.1.101,100.78.239.175,2,1,0.4,0
2016-03-02 02:38:37.153,6,234B9614-18C8-49ED-8B56-CAB6C4F40872,my_iOS_device_1,1456907916.999845,40.79926019538268,-96.68576111094717,372.1939,0,-1,3,10,-9999,1456907917.129715,26.99308013916016,43.2965087890625,6.20452880859375,289.8984069824219,286.6212768554688,25,10650.56044641667,0.0746917724609375,1.012893676757812,-0.061767578125,10650.55931741667,-0.03174994019981567,0.01802454057376529,-0.01112775229878709,10650.52431841667,2.73954584911156,0.8651183203552836,-1.469320786490823,-0.0067229806445539,-0.01982277818024158,0.003094225656241179,0.002039490966126323,0.01132403593510389,-0.0005545838503167033,XArbitraryCorrectedZVertical,-0.4263230434431,-0.5342275952234163,0.6040369295567429,0.4098645225716167,0.07710784673690796,0.9948557615280151,-0.06569907814264297,28.35343360900879,42.83041381835938,4.576622009277344,1,10648.56620041667,stationary,1,2016-03-02 02:38:35.155,null,0,0,0,0,null,10650.55405441667,0,-0.05709839,97.39726,192.168.1.101,100.78.239.175,2,1,0.4,0
2016-03-02 02:38:37.189,7,234B9614-18C8-49ED-8B56-CAB6C4F40872,my_iOS_device_1,1456907916.999845,40.79926019538268,-96.68576111094717,372.1939,0,-1,3,10,-9999,1456907917.129715,26.99308013916016,43.2965087890625,6.20452880859375,289.8984069824219,286.6212768554688,25,10650.59074441667,0.0728302001953125,1.009979248046875,-0.063079833984375,10650.55931741667,-0.03174994019981567,0.01802454057376529,-0.01112775229878709,10650.55931741667,2.741614157630664,0.8665892429222198,-1.469587955473807,-0.01085619907826185,-0.01453223824501038,-0.005494349636137486,-0.0006468506180681288,0.01842286065220833,-0.002381297992542386,XArbitraryCorrectedZVertical,-0.4261958049433067,-0.5344627067485366,0.6040592436723391,0.409657394755343,0.07700183242559433,0.9948828220367432,-0.06541350483894348,28.36218452453613,42.82521438598633,4.571037292480469,1,10648.56620041667,stationary,1,2016-03-02 02:38:35.155,null,0,0,0,0,null,10650.55405441667,0,-0.05709839,97.39726,192.168.1.101,100.78.239.175,2,1,0.4,0
2016-03-02 02:38:37.230,8,234B9614-18C8-49ED-8B56-CAB6C4F40872,my_iOS_device_1,1456907916.999845,40.79926019538268,-96.68576111094717,372.1939,0,-1,3,10,-9999,1456907917.190425,27.09711456298828,43.33131408691406,5.97320556640625,289.4032287597656,286.1260986328125,25,10650.62104341667,0.069976806640625,1.004196166992188,-0.0657958984375,10650.59435941667,-0.0147949251198262,0.03081277381221679,-0.00555934877554041,10650.59435941667,2.741345444396792,0.8661167978328582,-1.470218477674311,0.006096363067626953,-0.001743696397170424,7.173666381277144e-05,-0.003662816947326064,0.0150329377502203,0.001963671064004302,XArbitraryCorrectedZVertical,-0.4260801769915395,-0.53472790300922,0.6038973102080486,0.409670344596338,0.07649301737546921,0.994946300983429,-0.06504350155591965,28.35517120361328,42.82950973510742,4.574342250823975,1,10648.56620041667,stationary,1,2016-03-02 02:38:35.155,null,0,0,0,0,null,10650.55405441667,0,-0.05709839,97.39726,192.168.1.101,100.78.239.175,2,1,0.4,0
2016-03-02 02:38:37.247,9,234B9614-18C8-49ED-8B56-CAB6C4F40872,my_iOS_device_1,1456907916.999845,40.79926019538268,-96.68576111094717,372.1939,0,-1,3,10,-9999,1456907917.190425,27.09711456298828,43.33131408691406,5.97320556640625,289.4032287597656,286.1260986328125,25,10650.65134141667,0.0715789794921875,1.009429931640625,-0.0695037841796875,10650.62937041667,-0.01688337604666634,0.04356611964038824,-0.007727694535082925,10650.62937041667,2.737809736823423,0.8627737978657237,-1.470317879285257,0.004008176270872355,0.01100972108542919,-0.002098214812576771,-0.006223213858902454,0.009239880368113518,-0.0005613589310087264,XArbitraryCorrectedZVertical,-0.4260090934736973,-0.5346952239631826,0.6038523029012216,0.4098532249837132,0.07620002329349518,0.9949563145637512,-0.06523454189300537,28.33538055419922,42.84205627441406,4.579497337341309,1,10648.56620041667,stationary,1,2016-03-02 02:38:35.155,null,0,0,0,0,null,10650.55405441667,0,-0.05709839,97.39726,192.168.1.101,100.78.239.175,2,1,0.4,0
2016-03-02 02:38:37.274,10,234B9614-18C8-49ED-8B56-CAB6C4F40872,my_iOS_device_1,1456907916.999845,40.79926019538268,-96.68576111094717,372.1939,0,-1,3,10,-9999,1456907917.253699,27.37453842163086,43.47053527832031,5.77490234375,289.3905334472656,286.1134033203125,25,10650.68163841667,0.07818603515625,1.008255004882812,-0.067901611328125,10650.66435741667,-0.01253683083154801,0.04886873968684501,-0.01406175687172739,10650.66435741667,2.732341839236484,0.8579011731527307,-1.470617129957191,0.008356789126992226,0.01635250821709633,-0.008432526141405106,-0.003100475529208779,0.01415375526994467,-0.001758865430019796,XArbitraryCorrectedZVertical,-0.4259792594906536,-0.534636800520632,0.6036704439593008,0.4102281768757662,0.07565601915121078,0.9949862360954285,-0.06541032344102859,28.32468032836914,42.84925079345703,4.578374862670898,1,10648.56620041667,stationary,1,2016-03-02 02:38:35.155,null,0,0,0,0,null,10650.55405441667,0,-0.05709839,97.39726,192.168.1.101,100.78.239.175,2,1,0.4,0
2016-03-02 02:38:37.309,11,234B9614-18C8-49ED-8B56-CAB6C4F40872,my_iOS_device_1,1456907916.999845,40.79926019538268,-96.68576111094717,372.1939,0,-1,3,10,-9999,1456907917.253699,27.37453842163086,43.47053527832031,5.77490234375,289.3905334472656,286.1134033203125,25,10650.71193741667,0.0849456787109375,1.00567626953125,-0.06298828125,10650.69939741667,-0.0167978885756748,0.0403583421073878,-0.0141192811512731,10650.66435741667,2.732341839236484,0.8579011731527307,-1.470617129957191,0.008356789126992226,0.01635250821709633,-0.008432526141405106,-0.003100475529208779,0.01415375526994467,-0.001758865430019796,XArbitraryCorrectedZVertical,-0.4259792594906536,-0.534636800520632,0.6036704439593008,0.4102281768757662,0.07565601915121078,0.9949862360954285,-0.06541032344102859,28.32468032836914,42.84925079345703,4.578374862670898,1,10648.56620041667,stationary,1,2016-03-02 02:38:35.155,null,0,0,0,0,null,10650.55405441667,0,-0.05709839,97.39726,192.168.1.101,100.78.239.175,2,1,0.4,0
2016-03-02 02:38:37.335,12,234B9614-18C8-49ED-8B56-CAB6C4F40872,my_iOS_device_1,1456907916.999845,40.79926019538268,-96.68576111094717,372.1939,0,-1,3,10,-9999,1456907917.314307,27.23582649230957,43.47053527832031,5.90716552734375,289.3856811523438,286.1085510253906,25,10650.74223441667,0.083221435546875,1.009689331054688,-0.073028564453125,10650.73440741667,-0.0136556248054903,0.03398912604435429,-0.01087315409857551,10650.69939741667,2.729003767064747,0.8550293093520188,-1.470579647723084,0.004095802549272776,0.007842330262064934,-0.008489475585520267,0.004994114395231009,0.01189920399338007,-0.001288507482968271,XArbitraryCorrectedZVertical,-0.4260072198914135,-0.5345015889081279,0.6036096317136237,0.4104647519064174,0.07549599558115005,0.9949824810028076,-0.0656517967581749,28.28775405883789,42.87284469604492,4.58579158782959,1,10648.56620041667,stationary,1,2016-03-02 02:38:35.155,null,0,0,0,0,null,10650.55405441667,0,-0.05709839,97.39726,192.168.1.101,100.78.239.175,2,1,0.4,0
2016-03-02 02:38:37.389,13,234B9614-18C8-49ED-8B56-CAB6C4F40872,my_iOS_device_1,1456907916.999845,40.79926019538268,-96.68576111094717,372.1939,0,-1,3,10,-9999,1456907917.374882,26.95839881896973,43.47053527832031,5.642822265625,289.3726806640625,286.0955505371094,25,10650.77253041667,0.082183837890625,1.007858276367188,-0.0644378662109375,10650.76941841667,-0.02330079532543028,0.01591584962264055,-0.006740993351208568,10650.73440741667,2.730018151935421,0.8562793403951844,-1.470216145708044,0.007237693760544062,0.00147356721572578,-0.00524038914591074,0.009109721519052982,0.01266805920749903,-0.005448923446238041,XArbitraryCorrectedZVertical,-0.4261378680951895,-0.5343307365447039,0.6036715288332992,0.4104605542983704,0.07585121691226959,0.9949460625648499,-0.06579436361789703,28.28660202026367,42.87321090698242,4.5894455909729,1,10648.56620041667,stationary,1,2016-03-02 02:38:35.155,null,0,0,0,0,null,10650.55405441667,0,-0.05709839,97.39726,192.168.1.101,100.78.239.175,2,1,0.4,0
2016-03-02 02:38:37.395,14,234B9614-18C8-49ED-8B56-CAB6C4F40872,my_iOS_device_1,1456907916.999845,40.79926019538268,-96.68576111094717,372.1939,0,-1,3,10,-9999,1456907917.374882,26.95839881896973,43.47053527832031,5.642822265625,289.3726806640625,286.0955505371094,25,10650.80281441667,0.07684326171875,1.0032958984375,-0.067413330078125,10650.76941841667,-0.02330079532543028,0.01591584962264055,-0.006740993351208568,10650.76941841667,2.730914630526679,0.856964344191683,-1.469858671468846,-0.002406813902780414,-0.01659942790865898,-0.001105913426727057,0.01161871664226055,0.01245987694710493,0.001262728357687593,XArbitraryCorrectedZVertical,-0.426129277907556,-0.5342529477165271,0.6038275142645743,0.4103412718496995,0.0761650949716568,0.9949101209640503,-0.06597525626420975,28.3023681640625,42.86394119262695,4.578861236572266,1,10648.56620041667,stationary,1,2016-03-02 02:38:35.155,null,0,0,0,0,null,10650.55405441667,0,-0.05709839,97.39726,192.168.1.101,100.78.239.175,2,1,0.4,0
2016-03-02 02:38:37.436,15,234B9614-18C8-49ED-8B56-CAB6C4F40872,my_iOS_device_1,1456907916.999845,40.79926019538268,-96.68576111094717,372.1939,0,-1,3,10,-9999,1456907917.423568,26.50758171081543,43.36610412597656,6.20452880859375,289.3826293945312,286.1054992675781,25,10650.83309941667,0.0693511962890625,1.006240844726562,-0.0668792724609375,10650.80441541667,-0.03509939790280833,0.002100435151745495,-0.0005107942970771979,10650.80441541667,2.735758129865865,0.8610022110190287,-1.469835646572153,-0.01420219149440527,-0.03038167767226696,0.005129870492964983,0.000395011535147205,0.008388100191950798,-0.001731230411678553,XArbitraryCorrectedZVertical,-0.4260560175446717,-0.5344485195979755,0.6039681318954853,0.4099555408433474,0.07644824683666229,0.9949077963829041,-0.06568209826946259,28.31539916992188,42.85597991943359,4.572779655456543,1,10648.56620041667,stationary,1,2016-03-02 02:38:35.155,null,0,0,0,0,null,10650.55405441667,0,-0.05709839,97.39726,192.168.1.101,100.78.239.175,2,1,0.4,0
2016-03-02 02:38:37.473,16,234B9614-18C8-49ED-8B56-CAB6C4F40872,my_iOS_device_1,1456907916.999845,40.79926019538268,-96.68576111094717,372.1939,0,-1,3,10,-9999,1456907917.423568,26.50758171081543,43.36610412597656,6.20452880859375,289.3826293945312,286.1054992675781,25,10650.86342341667,0.072845458984375,1.01422119140625,-0.0629730224609375,10650.83944341667,-0.0393703093429684,-2.663161090079238e-05,0.0004940163822096987,10650.83944341667,2.740012159626907,0.8641854554789759,-1.47031239872314,-0.018472945317626,-0.03250866383314133,0.006133155431598425,-0.006944984197616577,0.01128510851413012,-0.001748825889080763,XArbitraryCorrectedZVertical,-0.4258468375494865,-0.5348731136177156,0.6040046527324409,0.4095651385988941,0.07629618048667908,0.9949557185173035,-0.06513044983148575,28.33631134033203,42.84300994873047,4.564783096313477,1,10648.56620041667,stationary,1,2016-03-02 02:38:35.155,null,0,0,0,0,null,10650.55405441667,0,-0.05709839,97.39726,192.168.1.101,100.78.239.175,2,1,0.4,0
2016-03-02 02:38:37.491,17,234B9614-18C8-49ED-8B56-CAB6C4F40872,my_iOS_device_1,1456907916.999845,40.79926019538268,-96.68576111094717,372.1939,0,-1,3,10,-9999,1456907917.482958,27.09711456298828,43.40090942382812,6.76629638671875,289.4098205566406,286.1326904296875,25,10650.89372141667,0.0776214599609375,1.009292602539062,-0.051300048828125,10650.87445541667,-0.03295661848973058,0.003162503794469095,-0.001545965012790998,10650.87445541667,2.74373869277052,0.8667600861684296,-1.471015883377719,-0.01206041127443314,-0.02931934781372547,0.004090627189725637,-0.004259547218680382,0.01913409680128098,0.004681517835706472,XArbitraryCorrectedZVertical,-0.4255773094991709,-0.5353910697731548,0.6039877456897547,0.4091933028572059,0.07593008130788803,0.9950260519981384,-0.06448071449995041,28.33188247680664,42.84637451171875,4.560704231262207,1,10648.56620041667,stationary,1,2016-03-02 02:38:35.155,null,0,0,0,0,null,10650.55405441667,0,-0.05709839,97.39726,192.168.1.101,100.78.239.175,2,1,0.4,0
2016-03-02 02:38:37.516,18,234B9614-18C8-49ED-8B56-CAB6C4F40872,my_iOS_device_1,1456907916.999845,40.79926019538268,-96.68576111094717,372.1939,0,-1,3,10,-9999,1456907917.482958,27.09711456298828,43.40090942382812,6.76629638671875,289.4098205566406,286.1326904296875,25,10650.92401541667,0.0744171142578125,1.00640869140625,-0.05731201171875,10650.90945441667,-0.02228506568567406,0.01060843588622164,-0.003526291599373919,10650.87445541667,2.74373869277052,0.8667600861684296,-1.471015883377719,-0.01206041127443314,-0.02931934781372547,0.004090627189725637,-0.004259547218680382,0.01913409680128098,0.004681517835706472,XArbitraryCorrectedZVertical,-0.4255773094991709,-0.5353910697731548,0.6039877456897547,0.4091933028572059,0.07593008130788803,0.9950260519981384,-0.06448071449995041,28.33188247680664,42.84637451171875,4.560704231262207,1,10648.56620041667,stationary,1,2016-03-02 02:38:35.155,null,0,0,0,0,null,10650.55405441667,0,-0.05709839,97.39726,192.168.1.101,100.78.239.175,2,1,0.4,0
2016-03-02 02:38:37.550,19,234B9614-18C8-49ED-8B56-CAB6C4F40872,my_iOS_device_1,1456907916.999845,40.79926019538268,-96.68576111094717,372.1939,0,-1,3,10,-9999,1456907917.541401,27.23582649230957,43.05279541015625,6.56805419921875,289.4314575195312,286.1543273925781,25,10650.95431741667,0.0948486328125,1.004150390625,-0.0675201416015625,10650.94448141667,-0.02774561118477253,-0.003193396463114014,0.005993177717114317,10650.90945441667,2.750265210791795,0.8723796837774644,-1.471387356194778,-0.001392276491969824,-0.02187295630574226,0.002110498724505305,0.001689606695435941,0.01293260976672173,0.01193544175475836,XArbitraryCorrectedZVertical,-0.4254996927350232,-0.5357633333865656,0.6040044507671983,0.4087618934469168,0.0760081484913826,0.9950630068778992,-0.06381532549858093,28.33197402954102,42.84625244140625,4.561217308044434,1,10648.56620041667,stationary,1,2016-03-02 02:38:35.155,null,0,0,0,0,null,10650.55405441667,0,-0.05709839,97.39726,192.168.1.101,100.78.239.175,2,1,0.4,0
2016-03-02 02:38:37.577,20,234B9614-18C8-49ED-8B56-CAB6C4F40872,my_iOS_device_1,1456907916.999845,40.79926019538268,-96.68576111094717,372.1939,0,-1,3,10,-9999,1456907917.541401,27.23582649230957,43.05279541015625,6.56805419921875,289.4314575195312,286.1543273925781,25,10650.98461541667,0.0999755859375,1.01751708984375,-0.067535400390625,10650.97949141667,-0.03505998311867516,-0.02343288811549821,-0.00476013413240763,10650.94448141667,2.75621854787267,0.8773962826902706,-1.471294911386205,-0.006854107137769461,-0.03567438945174217,0.01163091231137514,0.01233178749680519,0.006212662439793348,-0.00579814612865448,XArbitraryCorrectedZVertical,-0.4254267453474995,-0.5359720858674004,0.6041836927453151,0.4082989994288413,0.07639807462692261,0.9950538277626038,-0.06349201500415802,28.34072875976562,42.83920288085938,4.573048114776611,1,10648.56620041667,stationary,1,2016-03-02 02:38:35.155,null,0,0,0,0,null,10650.55405441667,0,-0.05709839,97.39726,192.168.1.101,100.78.239.175,2,1,0.4,0
2016-03-02 02:38:37.629,21,234B9614-18C8-49ED-8B56-CAB6C4F40872,my_iOS_device_1,1456907916.999845,40.79926019538268,-96.68576111094717,372.1939,0,-1,3,10,-9999,1456907917.600595,26.88904190063477,43.33128356933594,6.0394287109375,289.4299011230469,286.1527709960938,25,10651.01491841667,0.0772247314453125,0.990875244140625,-0.0718536376953125,10650.97949141667,-0.03505998311867516,-0.02343288811549821,-0.00476013413240763,10650.97949141667,2.766115497837143,0.8856670113410272,-1.470622462991448,-0.01416697259992361,-0.05588170513510704,0.0008901493274606764,0.02177396044135094,0.02224037982523441,-0.006588623858988285,XArbitraryCorrectedZVertical,-0.4253254482242588,-0.53615070401591,0.6046634454945137,0.4074589591096959,0.07743868976831436,0.9949867725372314,-0.06328137218952179,28.36331558227539,42.82598876953125,4.556777000427246,1,10648.56620041667,stationary,1,2016-03-02 02:38:35.155,null,0,0,0,0,null,10650.55405441667,0,-0.05709839,97.39726,192.168.1.101,100.78.239.175,2,1,0.4,0
2016-03-02 02:38:37.638,22,234B9614-18C8-49ED-8B56-CAB6C4F40872,my_iOS_device_1,1456907916.999845,40.79926019538268,-96.68576111094717,372.1939,0,-1,3,10,-9999,1456907917.600595,26.88904190063477,43.33128356933594,6.0394287109375,289.4299011230469,286.1527709960938,25,10651.04521741667,0.061981201171875,1.001815795898438,-0.0712127685546875,10651.01449241667,-0.03936897776242336,-0.03725149837970136,-0.001618402994441153,10651.01449241667,2.771945385473206,0.8891418793652673,-1.470100139960146,-0.01847502402961254,-0.06970000267028809,0.004035474732518196,0.006426245905458927,0.003280300181359053,-0.005111581180244684,XArbitraryCorrectedZVertical,-0.4248546893774585,-0.5364968029299922,0.60528218027876,0.4065749077314625,0.07806167006492615,0.9949344396591187,-0.06333934515714645,28.43446350097656,42.78304290771484,4.516620635986328,1,10648.56620041667,stationary,1,2016-03-02 02:38:35.155,null,0,0,0,0,null,10650.55405441667,0,-0.05709839,97.39726,192.168.1.101,100.78.239.175,2,1,0.4,0
2016-03-02 02:38:37.668,23,234B9614-18C8-49ED-8B56-CAB6C4F40872,my_iOS_device_1,1456907916.999845,40.79926019538268,-96.68576111094717,372.1939,0,-1,3,10,-9999,1456907917.65895,26.92372512817383,43.29646301269531,6.07244873046875,289.4247741699219,286.1476440429688,25,10651.07551441667,0.0516204833984375,1.019775390625,-0.0479888916015625,10651.04949741667,-0.09039354635168752,-0.01496137268795615,-0.003436543070638249,10651.04949741667,2.777505674879327,0.8925697844086454,-1.471080420559588,-0.06949552893638611,-0.04741014167666435,0.002214675769209862,-0.01553762797266245,0.006783308926969767,-0.00875333696603775,XArbitraryCorrectedZVertical,-0.4243200436366726,-0.5373293075572613,0.6053635751048601,0.4059121305706996,0.07751882821321487,0.9950324892997742,-0.06245943158864975,28.45773124694824,42.77189636230469,4.47545051574707,1,10648.56620041667,stationary,1,2016-03-02 02:38:35.155,null,0,0,0,0,null,10650.55405441667,0,-0.05709839,97.39726,192.168.1.101,100.78.239.175,2,1,0.4,0
2016-03-02 02:38:37.708,24,234B9614-18C8-49ED-8B56-CAB6C4F40872,my_iOS_device_1,1456907916.999845,40.79926019538268,-96.68576111094717,372.1939,0,-1,3,10,-9999,1456907917.65895,26.92372512817383,43.29646301269531,6.07244873046875,289.4247741699219,286.1476440429688,25,10651.10581741667,0.0456085205078125,1.020797729492188,-0.0488128662109375,10651.08450441667,-0.06901821649438453,0.02332236693025992,-0.008474444904741144,10651.08450441667,2.788275266737869,0.9022234722150755,-1.473500866207988,-0.04812140017747879,-0.009126537479460239,-0.002829530974850059,-0.02460755594074726,0.02450486086308956,0.01222621835768223,XArbitraryCorrectedZVertical,-0.4241411791206146,-0.5385134214080588,0.6047107102791121,0.4055027891535017,0.07622803747653961,0.9952705502510071,-0.06021511182188988,28.45189666748047,42.7779655456543,4.454463958740234,1,10648.56620041667,stationary,1,2016-03-02 02:38:35.155,null,0,0,0,0,null,10650.55405441667,0,-0.05709839,97.39726,192.168.1.101,100.78.239.175,2,1,0.4,0
2016-03-02 02:38:37.731,25,234B9614-18C8-49ED-8B56-CAB6C4F40872,my_iOS_device_1,1456907916.999845,40.79926019538268,-96.68576111094717,372.1939,0,-1,3,10,-9999,1456907917.720138,27.02775955200195,43.33128356933594,6.10546875,289.4223022460938,286.1451721191406,25,10651.13609141667,0.05621337890625,1.009445190429688,-0.056427001953125,10651.11954441667,-0.0391482017080558,0.06161542761229127,-0.01232324531212366,10651.11954441667,2.792085981402399,0.9064011586671099,-1.476056251767884,-0.01825558021664619,0.02919142134487629,-0.006677369121462107,-0.02503789402544498,0.01870567724108696,0.008446797728538513,XArbitraryCorrectedZVertical,-0.4241556119970695,-0.5393775367336811,0.6037645205477268,0.4057490522555143,0.07447636872529984,0.9955155253410339,-0.05832777917385101,28.32995223999023,42.84357833862305,4.598776817321777,1,10648.56620041667,stationary,1,2016-03-02 02:38:35.155,null,0,0,0,0,null,10650.55405441667,0,-0.05709839,97.39726,192.168.1.101,100.78.239.175,2,1,0.4,0
2016-03-02 02:38:37.764,26,234B9614-18C8-49ED-8B56-CAB6C4F40872,my_iOS_device_1,1456907916.999845,40.79926019538268,-96.68576111094717,372.1939,0,-1,3,10,-9999,1456907917.720138,27.02775955200195,43.33128356933594,6.10546875,289.4223022460938,286.1451721191406,25,10651.16640041667,0.0726165771484375,1.01031494140625,-0.06024169921875,10651.15455441667,-0.03371055939433201,0.08393032070217421,-0.01971591418207462,10651.11954441667,2.792085981402399,0.9064011586671099,-1.476056251767884,-0.01825558021664619,0.02919142134487629,-0.006677369121462107,-0.02503789402544498,0.01870567724108696,0.008446797728538513,XArbitraryCorrectedZVertical,-0.4241556119970695,-0.5393775367336811,0.6037645205477268,0.4057490522555143,0.07447636872529984,0.9955155253410339,-0.05832777917385101,28.32995223999023,42.84357833862305,4.598776817321777,1,10648.56620041667,stationary,1,2016-03-02 02:38:35.155,null,0,0,0,0,null,10650.55405441667,0,-0.05709839,97.39726,192.168.1.101,100.78.239.175,2,1,0.4,0
2016-03-02 02:38:37.791,27,234B9614-18C8-49ED-8B56-CAB6C4F40872,my_iOS_device_1,1456907916.999845,40.79926019538268,-96.68576111094717,372.1939,0,-1,3,10,-9999,1456907917.777137,27.82535552978516,43.01799011230469,6.07244873046875,289.397216796875,286.1200866699219,25,10651.19670241667,0.0829620361328125,1.013900756835938,-0.055633544921875,10651.18956641667,-0.02302435920428005,0.09137332331672766,-0.02276177152079824,10651.15455441667,2.792006904439658,0.9078702988395292,-1.476813364713747,-0.01281796488910913,0.05150642991065979,-0.01407135184854269,-0.0128106577321887,0.01501800678670406,-0.001983732916414738,XArbitraryCorrectedZVertical,-0.4245540716083718,-0.5393297944034892,0.6031899051599523,0.4062501094923518,0.07396788150072098,0.9955868721008301,-0.05775442719459534,28.3211612701416,42.84584808349609,4.631624221801758,1,10648.56620041667,stationary,1,2016-03-02 02:38:35.155,null,0,0,0,0,null,10650.55405441667,0,-0.05709839,97.39726,192.168.1.101,100.78.239.175,2,1,0.4,0
2016-03-02 02:38:37.822,28,234B9614-18C8-49ED-8B56-CAB6C4F40872,my_iOS_device_1,1456907916.999845,40.79926019538268,-96.68576111094717,372.1939,0,-1,3,10,-9999,1456907917.777137,27.82535552978516,43.01799011230469,6.07244873046875,289.397216796875,286.1200866699219,25,10651.22700441667,0.083770751953125,1.007919311523438,-0.0485382080078125,10651.22458141667,-0.007128749605924104,0.09033362522716074,-0.01826742086518052,10651.18956641667,2.790013849071957,0.9078655757467693,-1.477360242143249,-0.002131585031747818,0.05894967913627625,-0.01711715199053288,0.009545648470520973,0.01475321128964424,-0.0009909566724672914,XArbitraryCorrectedZVertical,-0.4250421974689954,-0.5391004418900263,0.6026073738846918,0.4069080938792904,0.07353845983743668,0.9956380128860474,-0.05741968750953674,28.29714775085449,42.85770034790039,4.668619155883789,1,10648.56620041667,stationary,1,2016-03-02 02:38:35.155,null,0,0,0,0,null,10650.55405441667,0,-0.05709839,97.39726,192.168.1.101,100.78.239.175,2,1,0.4,0
2016-03-02 02:38:37.868,29,234B9614-18C8-49ED-8B56-CAB6C4F40872,my_iOS_device_1,1456907916.999845,40.79926019538268,-96.68576111094717,372.1939,0,-1,3,10,-9999,1456907917.835408,28.102783203125,43.22685241699219,6.3367919921875,289.3731994628906,286.0960693359375,25,10651.25731141667,0.0934600830078125,1.004043579101562,-0.0574188232421875,10651.22458141667,-0.007128749605924104,0.09033362522716074,-0.01826742086518052,10651.22458141667,2.790234294010431,0.9101779091278854,-1.477509110417107,0.01376219373196363,0.05791042372584343,-0.01262042485177517,0.01096443366259336,0.01481562666594982,0.007765840273350477,XArbitraryCorrectedZVertical,-0.4256662049032494,-0.5387290708176551,0.6021119138969195,0.4074806908340267,0.07355400174856186,0.99565190076828,-0.05715854093432426,28.26020812988281,42.87393188476562,4.74275541305542,1,10648.56620041667,stationary,1,2016-03-02 02:38:35.155,null,0,0,0,0,null,10650.55405441667,0,-0.05709839,97.39726,192.168.1.101,100.78.239.175,2,1,0.4,0
2016-03-02 02:38:37.881,30,234B9614-18C8-49ED-8B56-CAB6C4F40872,my_iOS_device_1,1456907916.999845,40.79926019538268,-96.68576111094717,372.1939,0,-1,3,10,-9999,1456907917.835408,28.102783203125,43.22685241699219,6.3367919921875,289.3731994628906,286.0960693359375,25,10651.28761141667,0.09600830078125,1.007949829101562,-0.0527801513671875,10651.25959241667,-0.004060255397934806,0.06377152283081942,-0.01074905079177782,10651.25959241667,2.791134160514614,0.9126784128713031,-1.476676477558584,0.0168286208063364,0.03134898096323013,-0.005097061861306429,0.01910754665732384,0.008469583466649055,6.264494004426524e-05,XArbitraryCorrectedZVertical,-0.4262498955698855,-0.5381173593501818,0.602034221759071,0.4077934893099384,0.07435254007577896,0.9955739974975586,-0.05748146772384644,28.2584171295166,42.86531066894531,4.830513954162598,1,10648.56620041667,stationary,1,2016-03-02 02:38:35.155,null,0,0,0,0,null,10650.55405441667,0,-0.05709839,97.39726,192.168.1.101,100.78.239.175,2,1,0.4,0
2016-03-02 02:38:37.911,31,234B9614-18C8-49ED-8B56-CAB6C4F40872,my_iOS_device_1,1456907916.999845,40.79926019538268,-96.68576111094717,372.1939,0,-1,3,10,-9999,1456907917.89616,27.20114898681641,43.50532531738281,6.73333740234375,289.3810729980469,286.1039428710938,25,10651.31792041667,0.089996337890625,1.0128173828125,-0.0608978271484375,10651.29460241667,-0.01682238965770352,0.04674460240139781,-0.01199141544029979,10651.29460241667,2.797555689332084,0.9199243404837658,-1.476028276974819,0.004064626526087523,0.01434340607374907,-0.006323618814349174,0.02072783187031746,0.01243696082383394,0.004552041180431843,XArbitraryCorrectedZVertical,-0.4267616408319742,-0.5377810015418799,0.6020092333268068,0.4077388616311421,0.07528047263622284,0.995512843132019,-0.05733219161629677,28.28053092956543,42.84958648681641,4.840644359588623,1,10648.56620041667,stationary,1,2016-03-02 02:38:35.155,null,0,0,0,0,null,10650.55405441667,0,-0.05709839,97.39726,192.168.1.101,100.78.239.175,2,1,0.4,0
2016-03-02 02:38:37.949,32,234B9614-18C8-49ED-8B56-CAB6C4F40872,my_iOS_device_1,1456907916.999845,40.79926019538268,-96.68576111094717,372.1939,0,-1,3,10,-9999,1456907917.89616,27.20114898681641,43.50532531738281,6.73333740234375,289.3810729980469,286.1039428710938,25,10651.34819441667,0.096160888671875,1.00396728515625,-0.050262451171875,10651.32959241667,-0.02328295214612675,0.02016652103851602,-0.007808654632221334,10651.32959241667,2.801199912055436,0.9236612436043518,-1.475389084459906,-0.00239540496841073,-0.01223425194621086,-0.002136696362867951,0.0161765031516552,0.01622079312801361,0.001846338855102658,XArbitraryCorrectedZVertical,-0.4269650607369195,-0.5375721190570175,0.6021621124109434,0.4075755685749978,0.0760018453001976,0.9954521656036377,-0.05743410810828209,28.31425857543945,42.82538986206055,4.857572555541992,1,10648.56620041667,stationary,1,2016-03-02 02:38:35.155,null,0,0,0,0,null,10650.55405441667,0,-0.05709839,97.39726,192.168.1.101,100.78.239.175,2,1,0.4,0
2016-03-02 02:38:37.972,33,234B9614-18C8-49ED-8B56-CAB6C4F40872,my_iOS_device_1,1456907916.999845,40.79926019538268,-96.68576111094717,372.1939,0,-1,3,10,-9999,1456907917.954956,26.99307632446289,43.71418762207031,6.93157958984375,289.4126281738281,286.135498046875,25,10651.37849741667,0.085968017578125,1.003570556640625,-0.058990478515625,10651.36462941667,-0.03295182479976843,0.009542905134080935,-0.001549160806099093,10651.32959241667,2.801199912055436,0.9236612436043518,-1.475389084459906,-0.00239540496841073,-0.01223425194621086,-0.002136696362867951,0.0161765031516552,0.01622079312801361,0.001846338855102658,XArbitraryCorrectedZVertical,-0.4269650607369195,-0.5375721190570175,0.6021621124109434,0.4075755685749978,0.0760018453001976,0.9954521656036377,-0.05743410810828209,28.31425857543945,42.82538986206055,4.857572555541992,1,10648.56620041667,stationary,1,2016-03-02 02:38:35.155,null,0,0,0,0,null,10650.55405441667,0,-0.05709839,97.39726,192.168.1.101,100.78.239.175,2,1,0.4,0
2016-03-02 02:38:38.005,34,234B9614-18C8-49ED-8B56-CAB6C4F40872,my_iOS_device_1,1456907916.999845,40.79926019538268,-96.68576111094717,372.1939,0,-1,3,10,-9999,1456907917.954956,26.99307632446289,43.71418762207031,6.93157958984375,289.4126281738281,286.135498046875,25,10651.40880141667,0.0740509033203125,1.014633178710938,-0.051116943359375,10651.39962041667,-0.05421130714965297,0.008460596467072732,-0.002923085612470972,10651.36462941667,2.810822741758023,0.9326411887944412,-1.474837762500785,-0.01206579897552729,-0.02285730466246605,0.004127478692680597,0.01694726757705212,0.006050076335668564,-0.001334407716058195,XArbitraryCorrectedZVertical,-0.4271340310798188,-0.537604316462414,0.6023830669841216,0.4070291869451923,0.07695531845092773,0.995399534702301,-0.05707623809576035,28.33233642578125,42.81327056884766,4.858985900878906,1,10648.56620041667,stationary,1,2016-03-02 02:38:35.155,null,0,0,0,0,null,10650.55405441667,0,-0.05709839,97.39726,192.168.1.101,100.78.239.175,2,1,0.4,0
2016-03-02 02:38:38.031,35,234B9614-18C8-49ED-8B56-CAB6C4F40872,my_iOS_device_1,1456907916.999845,40.79926019538268,-96.68576111094717,372.1939,0,-1,3,10,-9999,1456907918.013582,26.95839881896973,43.47050476074219,6.4359130859375,289.4251098632812,286.1479797363281,25,10651.43904866667,0.0688629150390625,1.012161254882812,-0.0446929931640625,10651.43465541667,-0.05197425183398641,0.01801229003275093,-0.01035570189877312,10651.39962041667,2.82421058524631,0.9451488249348085,-1.475101680280527,-0.03332666680216789,-0.02393913827836514,0.002755511552095413,-0.0003475632111076266,0.01472233422100544,0.006425391882658005,XArbitraryCorrectedZVertical,-0.4272755102084149,-0.5380129438401456,0.6023486630228604,0.4063911893621068,0.0774502232670784,0.995424747467041,-0.055955421179533,28.38861846923828,42.77590560913086,4.859554290771484,1,10648.56620041667,stationary,1,2016-03-02 02:38:35.155,null,0,0,0,0,null,10650.55405441667,0,-0.05709839,97.39726,192.168.1.101,100.78.239.175,2,1,0.4,0
2016-03-02 02:38:38.061,36,234B9614-18C8-49ED-8B56-CAB6C4F40872,my_iOS_device_1,1456907916.999845,40.79926019538268,-96.68576111094717,372.1939,0,-1,3,10,-9999,1456907918.013582,26.95839881896973,43.47050476074219,6.4359130859375,289.4251098632812,286.1479797363281,25,10651.46933466667,0.0670013427734375,1.00604248046875,-0.0534515380859375,10651.43465541667,-0.05197425183398641,0.01801229003275093,-0.01035570189877312,10651.43465541667,2.834875131927727,0.9551214546870931,-1.476349111530838,-0.03109177015721798,-0.01437687780708075,-0.004666688852012157,-0.007532594725489616,0.01965457759797573,0.007023543585091829,XArbitraryCorrectedZVertical,-0.4272816200709174,-0.5387010837884312,0.6019827135639942,0.4060152362225439,0.07699060440063477,0.9955431818962097,-0.05446311831474304,28.39054489135742,42.76652526855469,4.930346488952637,1,10648.56620041667,stationary,1,2016-03-02 02:38:35.155,null,0,0,0,0,null,10650.55405441667,0,-0.05709839,97.39726,192.168.1.101,100.78.239.175,2,1,0.4,0
2016-03-02 02:38:38.109,37,234B9614-18C8-49ED-8B56-CAB6C4F40872,my_iOS_device_1,1456907917.999846,40.79926019538268,-96.68576111094717,372.0993,0,-1,3,10,-9999,1456907918.07401,26.75033187866211,43.1920166015625,6.10540771484375,289.4218444824219,286.1447143554688,25,10651.49962666667,0.0761566162109375,1.005111694335938,-0.052520751953125,10651.46958666667,-0.03392947123593652,0.02654186237205671,-0.006900783016613322,10651.46958666667,2.841437290858545,0.9613658291042324,-1.47768030137916,-0.01304991822689772,-0.00584695627912879,-0.001215104828588665,-0.009241100400686264,0.01037464570254087,-0.0002288614341523498,XArbitraryCorrectedZVertical,-0.427253776433797,-0.5392985000882369,0.6015533191574338,0.4058878447752381,0.07624243944883347,0.9956678152084351,-0.05322267487645149,28.3748950958252,42.77285003662109,4.965471267700195,1,10648.56620041667,stationary,1,2016-03-02 02:38:35.155,null,0,0,0,0,null,10650.55405441667,0,-0.05709839,97.39726,192.168.1.101,100.78.239.175,2,1,0.4,0
2016-03-02 02:38:38.122,38,234B9614-18C8-49ED-8B56-CAB6C4F40872,my_iOS_device_1,1456907917.999846,40.79926019538268,-96.68576111094717,372.0993,0,-1,3,10,-9999,1456907918.07401,26.75033187866211,43.1920166015625,6.10540771484375,289.4218444824219,286.1447143554688,25,10651.52992966667,0.0725555419921875,1.012832641601562,-0.0482025146484375,10651.50461966667,-0.04031732942660058,0.0382374006152487,-0.005933789224805551,10651.50461966667,2.845392320912748,0.9651946429261005,-1.47799494483985,-0.01943741180002689,0.005848750006407499,-0.0002484668220859021,-3.147676397929899e-05,0.009414653293788433,0.0002312775613972917,XArbitraryCorrectedZVertical,-0.4273054082507795,-0.5394757393290353,0.6014370042211896,0.4057703102845767,0.0761880949139595,0.995697021484375,-0.05275202915072441,28.35846328735352,42.78140258789062,4.985597610473633,1,10648.56620041667,stationary,1,2016-03-02 02:38:35.155,null,0,0,0,0,null,10650.55405441667,0,-0.05709839,97.39726,192.168.1.101,100.78.239.175,2,1,0.4,0
2016-03-02 02:38:38.152,39,234B9614-18C8-49ED-8B56-CAB6C4F40872,my_iOS_device_1,1456907917.999846,40.79926019538268,-96.68576111094717,372.0993,0,-1,3,10,-9999,1456907918.129825,26.5075855255127,42.94833374023438,6.138427734375,289.4124450683594,286.1353149414062,25,10651.56023366667,0.0712127685546875,1.0106201171875,-0.051239013671875,10651.53961766667,-0.03604082534815134,0.04780826894077546,-0.006942328329618558,10651.53961766667,2.851096911244345,0.9712767280484526,-1.478652884651366,-0.01516201626509428,0.01541985385119915,-0.001257882569916546,-0.003411103505641222,0.01707484573125839,0.003715505823493004,XArbitraryCorrectedZVertical,-0.4275242288017949,-0.5396888210252868,0.6010840250946353,0.4057795029616127,0.07596664875745773,0.9957578182220459,-0.05191802233457565,28.357666015625,42.77987670898438,5.003233909606934,1,10648.56620041667,stationary,1,2016-03-02 02:38:35.155,null,0,0,0,0,null,10650.55405441667,0,-0.05709839,97.39726,192.168.1.101,100.78.239.175,2,1,0.4,0
2016-03-02 02:38:38.188,40,234B9614-18C8-49ED-8B56-CAB6C4F40872,my_iOS_device_1,1456907917.999846,40.79926019538268,-96.68576111094717,372.0993,0,-1,3,10,-9999,1456907918.129825,26.5075855255127,42.94833374023438,6.138427734375,289.4124450683594,286.1353149414062,25,10651.59053066667,0.06890869140625,1.008575439453125,-0.04522705078125,10651.57464766667,-0.02748675192681682,0.04886927231906303,-0.01001588254367901,10651.53961766667,2.851096911244345,0.9712767280484526,-1.478652884651366,-0.01516201626509428,0.01541985385119915,-0.001257882569916546,-0.003411103505641222,0.01707484573125839,0.003715505823493004,XArbitraryCorrectedZVertical,-0.4275242288017949,-0.5396888210252868,0.6010840250946353,0.4057795029616127,0.07596664875745773,0.9957578182220459,-0.05191802233457565,28.357666015625,42.77987670898438,5.003233909606934,1,10648.56620041667,stationary,1,2016-03-02 02:38:35.155,null,0,0,0,0,null,10650.55405441667,0,-0.05709839,97.39726,192.168.1.101,100.78.239.175,2,1,0.4,0
2016-03-02 02:38:38.213,41,234B9614-18C8-49ED-8B56-CAB6C4F40872,my_iOS_device_1,1456907917.999846,40.79926019538268,-96.68576111094717,372.0993,0,-1,3,10,-9999,1456907918.188686,26.57694053649902,42.94833374023438,6.27069091796875,289.4082641601562,286.1311340332031,25,10651.62082366667,0.0796661376953125,1.010147094726562,-0.046478271484375,10651.60962866667,-0.02640843800144374,0.04886714179019096,-0.01106596696149725,10651.57464766667,2.852256022633297,0.9729804196201634,-1.47940483717971,-0.006609279196709394,0.01648110710084438,-0.004333782475441694,-0.007244535256177187,0.01502229552716017,0.00041797777521424,XArbitraryCorrectedZVertical,-0.427641626873134,-0.5398509995746765,0.6007145936782085,0.4059870862053652,0.0754360631108284,0.9958267211914062,-0.05136707425117493,28.33893394470215,42.78580856323242,5.05832576751709,1,10648.56620041667,stationary,1,2016-03-02 02:38:35.155,null,0,0,0,0,null,10650.55405441667,0,-0.05709839,97.39726,192.168.1.101,100.78.239.175,2,1,0.4,0
2016-03-02 02:38:38.244,42,234B9614-18C8-49ED-8B56-CAB6C4F40872,my_iOS_device_1,1456907917.999846,40.79926019538268,-96.68576111094717,372.0993,0,-1,3,10,-9999,1456907918.188686,26.57694053649902,42.94833374023438,6.27069091796875,289.4082641601562,286.1311340332031,25,10651.65111866667,0.078399658203125,1.01055908203125,-0.0401611328125,10651.64465066667,-0.03492256400642706,0.04248034886396294,-0.01118634184276883,10651.60962866667,2.853767131582647,0.9750118877317034,-1.480093722817891,-0.005528248846530914,0.01651313342154026,-0.005373432766646147,-0.001379284076392651,0.01209100894629955,0.01078968774527311,XArbitraryCorrectedZVertical,-0.4277684549137745,-0.5399997907536472,0.6003667641837932,0.4061700671272528,0.07497242093086243,0.9958893656730652,-0.05082875117659569,28.32657241821289,42.7917366027832,5.0773606300354,1,10648.56620041667,stationary,1,2016-03-02 02:38:35.155,null,0,0,0,0,null,10650.55405441667,0,-0.05709839,97.39726,192.168.1.101,100.78.239.175,2,1,0.4,0
2016-03-02 02:38:38.274,43,234B9614-18C8-49ED-8B56-CAB6C4F40872,my_iOS_device_1,1456907917.999846,40.79926019538268,-96.68576111094717,372.0993,0,-1,3,10,-9999,1456907918.247504,26.88904571533203,42.84390258789062,6.501953125,289.4037780761719,286.1266479492188,25,10651.68140966667,0.07501220703125,1.005035400390625,-0.0474700927734375,10651.64465066667,-0.03492256400642706,0.04248034886396294,-0.01118634184276883,10651.64465066667,2.860758416199968,0.9824628830358315,-1.480627463938807,-0.01404500752687454,0.0101268207654357,-0.005493175704032183,0.001387068536132574,0.0165899246931076,0.008256193250417709,XArbitraryCorrectedZVertical,-0.4280574311346271,-0.5401666173669302,0.6000219905420449,0.4061532617113045,0.07490687817335129,0.9959375262260437,-0.04997372254729271,28.2929515838623,42.80641937255859,5.140643119812012,1,10648.56620041667,stationary,1,2016-03-02 02:38:35.155,null,0,0,0,0,null,10650.55405441667,0,-0.05709839,97.39726,192.168.1.101,100.78.239.175,2,1,0.4,0
2016-03-02 02:38:38.314,44,234B9614-18C8-49ED-8B56-CAB6C4F40872,my_iOS_device_1,1456907917.999846,40.79926019538268,-96.68576111094717,372.0993,0,-1,3,10,-9999,1456907918.247504,26.88904571533203,42.84390258789062,6.501953125,289.4037780761719,286.1266479492188,25,10651.71171166667,0.07489013671875,1.009262084960938,-0.0445709228515625,10651.71469366667,-0.04241376983671095,0.04035674421073375,-0.008096808662167908,10651.67968266667,2.867521958825938,0.9895239718949906,-1.48117704489059,-0.009838205762207508,0.008012373931705952,-0.002233589999377728,-0.00038329535163939,0.01019293069839478,0.005685975775122643,XArbitraryCorrectedZVertical,-0.4282860370094325,-0.5403698427847282,0.5997087349153928,0.4061045884716383,0.07480040937662125,0.9959868788719177,-0.04914300516247749,28.28425788879395,42.80498886108398,5.200063705444336,1,10648.56620041667,stationary,1,2016-03-02 02:38:35.155,null,0,0,0,0,null,10650.55405441667,0,-0.05709839,97.39726,192.168.1.101,100.78.239.175,2,1,0.4,0
2016-03-02 02:38:38.348,45,234B9614-18C8-49ED-8B56-CAB6C4F40872,my_iOS_device_1,1456907917.999846,40.79926019538268,-96.68576111094717,372.0993,0,-1,3,10,-9999,1456907918.31554,27.06243515014648,42.39134216308594,6.6671142578125,289.3981628417969,286.1210327148438,25,10651.74200866667,0.0737152099609375,1.011688232421875,-0.0418701171875,10651.71469366667,-0.04241376983671095,0.04035674421073375,-0.008096808662167908,10651.71469366667,2.872429382964607,0.994719989666015,-1.481543373536494,-0.02153892256319523,0.008003853261470795,-0.002403744496405125,0.0001413678110111505,0.01324248593300581,0.003984002862125635,XArbitraryCorrectedZVertical,-0.4284755311787991,-0.5404916801920414,0.5994758291115233,0.4060864355469875,0.07474876940250397,0.9960196018218994,-0.048554927110672,28.28093338012695,42.80486679077148,5.219108104705811,1,10648.56620041667,stationary,1,2016-03-02 02:38:35.155,null,0,0,0,0,null,10650.55405441667,0,-0.05709839,97.39726,192.168.1.101,100.78.239.175,2,1,0.4,0
2016-03-02 02:38:38.365,46,234B9614-18C8-49ED-8B56-CAB6C4F40872,my_iOS_device_1,1456907917.999846,40.79926019538268,-96.68576111094717,372.0993,0,-1,3,10,-9999,1456907918.31554,27.06243515014648,42.39134216308594,6.6671142578125,289.3981628417969,286.1210327148438,25,10651.77230266667,0.0788421630859375,1.006027221679688,-0.0446624755859375,10651.74970866667,-0.0253551577903174,0.03504373783602567,-0.01104359640834058,10651.74970866667,2.879002870633594,1.001616001641401,-1.482174403426859,-0.004482427146285772,0.002691183239221573,-0.00535086914896965,-0.0008371715084649622,0.01561258547008038,0.00582944555208087,XArbitraryCorrectedZVertical,-0.4286911723424651,-0.5407162818522139,0.5991326325093561,0.4060663368933019,0.07455237954854965,0.9960756301879883,-0.04769956320524216,28.27887344360352,42.80432891845703,5.23469352722168,1,10648.56620041667,stationary,1,2016-03-02 02:38:35.155,null,0,0,0,0,null,10650.55405441667,0,-0.05709839,97.39726,192.168.1.101,100.78.239.175,2,1,0.4,0
2016-03-02 02:38:38.430,47,234B9614-18C8-49ED-8B56-CAB6C4F40872,my_iOS_device_1,1456907917.999846,40.79926019538268,-96.68576111094717,372.0993,0,-1,3,10,-9999,1456907918.423958,27.09711456298828,43.12237548828125,6.832275390625,289.3887023925781,286.111572265625,25,10651.80257466667,0.0780487060546875,1.008819580078125,-0.04296875,10651.78471966667,-0.03180719816325237,0.03930719242513352,-0.00581075118244389,10651.78471966667,2.885026801862865,1.007857043473784,-1.482451917813749,-0.01091571152210236,0.007004126906394958,-0.0001063585514202714,0.003906879108399153,0.009667651727795601,-0.001986436313018203,XArbitraryCorrectedZVertical,-0.4288985464273168,-0.5408355778383065,0.5989297138356302,0.4059878230952079,0.07461485266685486,0.9961001873016357,-0.04708582907915115,28.26448059082031,42.80461502075195,5.309557914733887,1,10651.80121966667,unknown,1,2016-03-02 02:38:38.386,null,0,0,0,0,null,10650.55405441667,0,-0.05709839,97.39726,192.168.1.101,100.78.239.175,2,1,0.4,0
2016-03-02 02:38:38.431,48,234B9614-18C8-49ED-8B56-CAB6C4F40872,my_iOS_device_1,1456907917.999846,40.79926019538268,-96.68576111094717,372.0993,0,-1,3,10,-9999,1456907918.423958,27.09711456298828,43.12237548828125,6.832275390625,289.3887023925781,286.111572265625,25,10651.83288766667,0.077972412109375,1.011398315429688,-0.0431976318359375,10651.81972966667,-0.03287406049593811,0.03505279258373194,-0.005824066987894286,10651.81972966667,2.891189072817187,1.014272145841469,-1.482580845098165,-0.01198360789567232,0.002750019077211618,-0.0001189052491099574,0.003944283351302147,0.01521048415452242,0.006026277784258127,XArbitraryCorrectedZVertical,-0.4291372413311289,-0.540899294486503,0.5987636902568511,0.4058955833175393,0.0748063251376152,0.9961115121841431,-0.04653836414217949,28.27164268493652,42.79596328735352,5.341079711914062,1,10651.80121966667,unknown,1,2016-03-02 02:38:38.386,null,0,0,0,0,null,10650.55405441667,0,-0.05709839,97.39726,192.168.1.101,100.78.239.175,2,1,0.4,0
2016-03-02 02:38:38.467,49,234B9614-18C8-49ED-8B56-CAB6C4F40872,my_iOS_device_1,1456907917.999846,40.79926019538268,-96.68576111094717,372.0993,0,-1,3,10,-9999,1456907918.423958,27.09711456298828,43.12237548828125,6.832275390625,289.3887023925781,286.111572265625,25,10651.86318166667,0.0782318115234375,1.0037841796875,-0.0442352294921875,10651.85474566667,-0.03070678000083163,0.02972860093244553,-0.008987103414581397,10651.85474566667,2.896963490960389,1.020054113769552,-1.482846245670318,-0.00981777161359787,-0.002573792822659016,-0.003281390992924571,0.002192748012021184,0.008168094791471958,0.001304232864640653,XArbitraryCorrectedZVertical,-0.4292733736696161,-0.5410554652214569,0.5986110322036908,0.4057686364620942,0.07484887540340424,0.996134877204895,-0.04596670717000961,28.27509880065918,42.79098892211914,5.362597942352295,1,10651.80121966667,unknown,1,2016-03-02 02:38:38.386,null,0,0,0,0,null,10651.86646566667,0,-0.07785034,97.39751,192.168.1.101,100.78.239.175,2,1,0.4,0
2016-03-02 02:38:38.508,50,234B9614-18C8-49ED-8B56-CAB6C4F40872,my_iOS_device_1,1456907917.999846,40.79926019538268,-96.68576111094717,372.0993,0,-1,3,10,-9999,1456907918.482724,27.40921592712402,43.50527954101562,6.931396484375,289.3877258300781,286.110595703125,25,10651.89348566667,0.0769195556640625,1.012222290039062,-0.0469512939453125,10651.88975566667,-0.04350912799306055,0.03717160354699899,-0.005979595595554913,10651.85474566667,2.896963490960389,1.020054113769552,-1.482846245670318,-0.00981777161359787,-0.002573792822659016,-0.003281390992924571,0.002192748012021184,0.008168094791471958,0.001304232864640653,XArbitraryCorrectedZVertical,-0.4292733736696161,-0.5410554652214569,0.5986110322036908,0.4057686364620942,0.07484887540340424,0.996134877204895,-0.04596670717000961,28.27509880065918,42.79098892211914,5.362597942352295,1,10651.80121966667,unknown,1,2016-03-02 02:38:38.386,null,0,0,0,0,null,10651.86646566667,0,-0.07785034,97.39751,192.168.1.101,100.78.239.175,2,1,0.4,0
2016-03-02 02:38:38.527,51,234B9614-18C8-49ED-8B56-CAB6C4F40872,my_iOS_device_1,1456907917.999846,40.79926019538268,-96.68576111094717,372.0993,0,-1,3,10,-9999,1456907918.516086,27.33985900878906,43.22677612304688,6.6009521484375,289.3811950683594,286.1040649414062,25,10651.92378766667,0.07696533203125,1.011215209960938,-0.0423583984375,10651.92476666667,-0.03284716256892831,0.03185673295952784,-0.007953530595521644,10651.88975566667,2.903012240049417,1.026109445848476,-1.483101645280017,-0.0226200670003891,0.004869409371167421,-0.0002732897992245853,0.003094680840149522,0.01437127962708473,-0.002730153733864427,XArbitraryCorrectedZVertical,-0.4294169292586493,-0.5412122473928437,0.5984578962261644,0.405633517577861,0.07490824908018112,0.9961572885513306,-0.04538080841302872,28.27582740783691,42.78730773925781,5.388043403625488,1,10651.80121966667,unknown,1,2016-03-02 02:38:38.386,null,0,0,0,0,null,10651.86646566667,0,-0.07785034,97.39751,192.168.1.101,100.78.239.175,2,1,0.4,0
2016-03-02 02:38:38.548,52,234B9614-18C8-49ED-8B56-CAB6C4F40872,my_iOS_device_1,1456907917.999846,40.79926019538268,-96.68576111094717,372.0993,0,-1,3,10,-9999,1456907918.516086,27.33985900878906,43.22677612304688,6.6009521484375,289.3811950683594,286.1040649414062,25,10651.95408566667,0.0792694091796875,1.006820678710938,-0.050933837890625,10651.92476666667,-0.03284716256892831,0.03185673295952784,-0.007953530595521644,10651.92476666667,2.909225929346041,1.03231443787686,-1.483379648129854,-0.01192603260278702,-0.0003986153460573405,-0.00223181233741343,0.002014687517657876,0.01503361575305462,0.002414711052551866,XArbitraryCorrectedZVertical,-0.4295562556179328,-0.5413823680955948,0.5982983464189316,0.4054943198702723,0.07495064288377762,0.9961816072463989,-0.04477310925722122,28.27754592895508,42.78420639038086,5.403611660003662,1,10651.80121966667,unknown,1,2016-03-02 02:38:38.386,null,0,0,0,0,null,10651.86646566667,0,-0.07785034,97.39751,192.168.1.101,100.78.239.175,2,1,0.4,0
2016-03-02 02:38:38.589,53,234B9614-18C8-49ED-8B56-CAB6C4F40872,my_iOS_device_1,1456907917.999846,40.79926019538268,-96.68576111094717,372.0993,0,-1,3,10,-9999,1456907918.577798,27.06243324279785,43.64453125,6.3365478515625,289.3618774414062,286.0847473144531,25,10651.98437766667,0.076873779296875,1.011795043945312,-0.035125732421875,10651.95978366667,-0.03394491757025898,0.02548139162598716,-0.005834719632254603,10651.95978366667,2.913713667305825,1.036649336844863,-1.483504621226769,-0.01302384957671165,-0.006773744244128466,-0.0001122975154430605,0.004232537001371384,0.01062818057835102,-0.006549433339387178,XArbitraryCorrectedZVertical,-0.4296218993683371,-0.54150976114431,0.5982378767962077,0.4053438601174516,0.07503686845302582,0.9961925148963928,-0.04438440501689911,28.28117561340332,42.77669143676758,5.443988800048828,1,10651.80121966667,unknown,1,2016-03-02 02:38:38.386,null,0,0,0,0,null,10651.86646566667,0,-0.07785034,97.39751,192.168.1.101,100.78.239.175,2,1,0.4,0
2016-03-02 02:38:38.607,54,234B9614-18C8-49ED-8B56-CAB6C4F40872,my_iOS_device_1,1456907917.999846,40.79926019538268,-96.68576111094717,372.0993,0,-1,3,10,-9999,1456907918.577798,27.06243324279785,43.64453125,6.3365478515625,289.3618774414062,286.0847473144531,25,10652.01467666667,0.07421875,1.010787963867188,-0.0482330322265625,10651.99479366667,-0.02544863474457918,0.02761751313633972,-0.004646683469970255,10651.99479366667,2.919871488602502,1.042668279336987,-1.483807518282314,-0.004529171157628298,-0.004637253936380148,0.001075594569556415,-0.001662506605498493,0.01351624820381403,0.007601315621286631,XArbitraryCorrectedZVertical,-0.4297148550006551,-0.5417150460501555,0.5980980946110928,0.4051772716937619,0.07504202425479889,0.9962188601493835,-0.04377990588545799,28.28663444519043,42.77103805541992,5.460000991821289,1,10651.80121966667,unknown,1,2016-03-02 02:38:38.386,null,0,0,0,0,null,10651.86646566667,0,-0.07785034,97.39751,192.168.1.101,100.78.239.175,2,1,0.4,0
2016-03-02 02:38:38.668,55,234B9614-18C8-49ED-8B56-CAB6C4F40872,my_iOS_device_1,1456907917.999846,40.79926019538268,-96.68576111094717,372.0993,0,-1,3,10,-9999,1456907918.637265,26.68097496032715,43.05271911621094,6.17144775390625,289.3358764648438,286.0587463378906,25,10652.04497066667,0.0783843994140625,1.008331298828125,-0.0394744873046875,10652.02980366667,-0.0222664235580435,0.01592250752536575,-0.004594485512604701,10652.02980366667,2.918962116225631,1.041397240955766,-1.48385486794732,-0.001346616307273507,-0.01633211970329285,0.001127235940657556,0.0003260033263359219,0.0140461940318346,-0.003359264926984906,XArbitraryCorrectedZVertical,-0.4295748211193814,-0.5417930959246443,0.5981721764175221,0.4051120358969133,0.0749456062912941,0.996222972869873,-0.04385142773389816,28.2831859588623,42.77255630493164,5.465990543365479,1,10651.80121966667,unknown,1,2016-03-02 02:38:38.386,null,0,0,0,0,null,10651.86646566667,0,-0.07785034,97.39751,192.168.1.101,100.78.239.175,2,1,0.4,0
2016-03-02 02:38:38.670,56,234B9614-18C8-49ED-8B56-CAB6C4F40872,my_iOS_device_1,1456907917.999846,40.79926019538268,-96.68576111094717,372.0993,0,-1,3,10,-9999,1456907918.637265,26.68097496032715,43.05271911621094,6.17144775390625,289.3358764648438,286.0587463378906,25,10652.07526566667,0.0711669921875,1.013153076171875,-0.0472412109375,10652.06479566667,-0.01700188671517486,0.02231862151540906,-0.0002583266257376861,10652.02980366667,2.918962116225631,1.041397240955766,-1.48385486794732,-0.001346616307273507,-0.01633211970329285,0.001127235940657556,0.0003260033263359219,0.0140461940318346,-0.003359264926984906,XArbitraryCorrectedZVertical,-0.4295748211193814,-0.5417930959246443,0.5981721764175221,0.4051120358969133,0.0749456062912941,0.996222972869873,-0.04385142773389816,28.2831859588623,42.77255630493164,5.465990543365479,1,10651.80121966667,unknown,1,2016-03-02 02:38:38.386,null,0,0,0,0,null,10651.86646566667,0,-0.07785034,97.39751,192.168.1.101,100.78.239.175,2,1,0.4,0
2016-03-02 02:38:38.698,57,234B9614-18C8-49ED-8B56-CAB6C4F40872,my_iOS_device_1,1456907917.999846,40.79926019538268,-96.68576111094717,372.0993,0,-1,3,10,-9999,1456907918.690191,26.71565246582031,43.01791381835938,6.8653564453125,289.3322143554688,286.0550842285156,25,10652.10556166667,0.075531005859375,1.010284423828125,-0.036346435546875,10652.09982466667,-0.009486179802862246,0.01805596587462823,-0.005475725517311921,10652.06479566667,2.921625744557969,1.043565546852368,-1.483773307375334,0.003916881047189236,-0.009935692884027958,0.005463794339448214,0.000496571185067296,0.0125884348526597,0.005506435409188271,XArbitraryCorrectedZVertical,-0.4295125055169897,-0.5418986589789043,0.5982712745035361,0.404890519900471,0.07511072605848312,0.9962158799171448,-0.04372970014810562,28.28356552124023,42.77380752563477,5.454215049743652,1,10651.80121966667,unknown,1,2016-03-02 02:38:38.386,null,0,0,0,0,null,10651.86646566667,0,-0.07785034,97.39751,192.168.1.101,100.78.239.175,2,1,0.4,0
2016-03-02 02:38:38.749,58,234B9614-18C8-49ED-8B56-CAB6C4F40872,my_iOS_device_1,1456907917.999846,40.79926019538268,-96.68576111094717,372.0993,0,-1,3,10,-9999,1456907918.690191,26.71565246582031,43.01791381835938,6.8653564453125,289.3322143554688,286.0550842285156,25,10652.13584666667,0.072021484375,1.010528564453125,-0.035064697265625,10652.13482566667,-0.009508284039909904,0.02763242683844416,-0.003349457702992658,10652.09982466667,2.918319206022991,1.039826973554252,-1.48384830941596,0.01147566922008991,-0.01415474247187376,0.00026189602795057,-0.002570885000750422,0.01429090369492769,0.003582353005185723,XArbitraryCorrectedZVertical,-0.4292801460630294,-0.541970822477326,0.5983811910705946,0.4048779247529646,0.07488228380680084,0.9962223768234253,-0.04397236928343773,28.29306983947754,42.76861190795898,5.445635795593262,1,10651.80121966667,unknown,1,2016-03-02 02:38:38.386,null,0,0,0,0,null,10651.86646566667,0,-0.07785034,97.39751,192.168.1.101,100.78.239.175,2,1,0.4,0
