loggingTime,loggingSample,identifierForVendor,deviceID,locationTimestamp_since1970,locationLatitude,locationLongitude,locationAltitude,locationSpeed,locationCourse,locationVerticalAccuracy,locationHorizontalAccuracy,locationFloor,locationHeadingTimestamp_since1970,locationHeadingX,locationHeadingY,locationHeadingZ,locationTrueHeading,locationMagneticHeading,locationHeadingAccuracy,accelerometerTimestamp_sinceReboot,accelerometerAccelerationX,accelerometerAccelerationY,accelerometerAccelerationZ,gyroTimestamp_sinceReboot,gyroRotationX,gyroRotationY,gyroRotationZ,motionTimestamp_sinceReboot,motionYaw,motionRoll,motionPitch,motionRotationRateX,motionRotationRateY,motionRotationRateZ,motionUserAccelerationX,motionUserAccelerationY,motionUserAccelerationZ,motionAttitudeReferenceFrame,motionQuaternionX,motionQuaternionY,motionQuaternionZ,motionQuaternionW,motionGravityX,motionGravityY,motionGravityZ,motionMagneticFieldX,motionMagneticFieldY,motionMagneticFieldZ,motionMagneticFieldCalibrationAccuracy,activityTimestamp_sinceReboot,activity,activityActivityConfidence,activityActivityStartDate,pedometerStartDate,pedometerNumberofSteps,pedometerDistance,pedometerFloorAscended,pedometerFloorDescended,pedometerEndDate,altimeterTimestamp_sinceReboot,altimeterReset,altimeterRelativeAltitude,altimeterPressure,IP_en0,IP_pdp_ip0,deviceOrientation,batteryState,batteryLevel,state
2016-03-02 02:39:52.612,1,234B9614-18C8-49ED-8B56-CAB6C4F40872,my_iOS_device_1,1456907991.999846,40.79924380876198,-96.68579773986403,370.6313,0,166.2890625,3,10,-9999,1456907992.596992,33.98963165283203,39.608154296875,9.81829833984375,279.6838684082031,276.40673828125,25,10726.02278975,0.2401275634765625,0.98138427734375,0.0197296142578125,10726.01084775,0.03518621695434491,0.01596272125782595,-0.004825914211332587,10725.97583075,-2.235555363292427,1.672363006691995,-1.325693450182861,-0.1918534636497498,0.06223174557089806,-0.0002316750178579241,-0.001003386918455362,0.003810363123193383,-0.02735000848770142,XArbitraryCorrectedZVertical,-0.3454089131744162,-0.6268926507290585,0.6749342667586569,0.1793377336661421,0.2414056062698364,0.9701123833656311,0.02460342645645142,34.30818939208984,40.21922302246094,10.07571792602539,1,10724.51137075,stationary,1,2016-03-02 02:39:51.092,2016-03-02 02:37:10.358,64,111.7567,0,0,2016-03-02 02:39:44.681,10725.40764175,0,-0.1816711,97.39872,192.168.1.101,100.78.239.175,2,1,0.39,0
2016-03-02 02:39:52.644,2,234B9614-18C8-49ED-8B56-CAB6C4F40872,my_iOS_device_1,1456907991.999846,40.79924380876198,-96.68579773986403,370.6313,0,166.2890625,3,10,-9999,1456907992.596992,33.98963165283203,39.608154296875,9.81829833984375,279.6838684082031,276.40673828125,25,10726.05308575,0.2445068359375,0.978851318359375,0.0253753662109375,10726.01084775,0.03518621695434491,0.01596272125782595,-0.004825914211332587,10726.01084775,-2.224748893878853,1.683328903218043,-1.325515716780825,0.05168979614973068,-0.0184080395847559,0.001214826945215464,0.006952611263841391,0.02986974269151688,0.04952900111675262,XArbitraryCorrectedZVertical,-0.34577459039866,-0.6277532752617588,0.6740175547176652,0.1790700811559078,0.2412926256656647,0.9700692296028137,0.02726848423480988,34.29994583129883,40.19989776611328,10.18037223815918,1,10724.51137075,stationary,1,2016-03-02 02:39:51.092,2016-03-02 02:37:10.358,64,111.7567,0,0,2016-03-02 02:39:44.681,10725.40764175,0,-0.1816711,97.39872,192.168.1.101,100.78.239.175,2,1,0.39,0
2016-03-02 02:39:52.672,3,234B9614-18C8-49ED-8B56-CAB6C4F40872,my_iOS_device_1,1456907991.999846,40.79924380876198,-96.68579773986403,370.6313,0,166.2890625,3,10,-9999,1456907992.655351,33.95495986938477,39.29487609863281,9.4549560546875,278.1993713378906,274.9222412109375,25,10726.08337975,0.2494964599609375,0.9824981689453125,0.0304718017578125,10726.04585875,-0.01585539586589575,0.03506557575696432,-0.005576925638734933,10726.04585875,-2.224767127015062,1.683258557272071,-1.325581526947371,0.0006480216979980469,0.0006951046525500715,0.0004635160730686039,0.001093721250072122,0.01119226403534412,0.002891763113439083,XArbitraryCorrectedZVertical,-0.3457354187001729,-0.6277652371115174,0.6740245471214281,0.1790774614748627,0.2412311136722565,0.9700852036476135,0.02724434621632099,34.29164886474609,40.17810821533203,10.29368782043457,1,10724.51137075,stationary,1,2016-03-02 02:39:51.092,2016-03-02 02:37:10.358,64,111.7567,0,0,2016-03-02 02:39:44.681,10725.40764175,0,-0.1816711,97.39872,192.168.1.101,100.78.239.175,2,1,0.39,0
2016-03-02 02:39:52.713,4,234B9614-18C8-49ED-8B56-CAB6C4F40872,my_iOS_device_1,1456907991.999846,40.79924380876198,-96.68579773986403,370.6313,0,166.2890625,3,10,-9999,1456907992.655351,33.95495986938477,39.29487609863281,9.4549560546875,278.1993713378906,274.9222412109375,25,10726.11368075,0.2450408935546875,0.983184814453125,0.03179931640625,10726.08086975,-0.02751018774440952,0.03717479934030708,-0.00894449283714013,10726.08086975,-2.224280619793728,1.683750956252345,-1.325596683253683,-0.01100681908428669,0.002804513555020094,-0.002903866348788142,0.005134836304932833,0.01100547984242439,-0.0003228925343137234,XArbitraryCorrectedZVertical,-0.3457437668062298,-0.6278072802129349,0.6739821735794653,0.1790734383524445,0.2412030547857285,0.9700888991355896,0.02736146748065948,34.28889465332031,40.17916107177734,10.29875564575195,1,10724.51137075,stationary,1,2016-03-02 02:39:51.092,2016-03-02 02:37:10.358,64,111.7567,0,0,2016-03-02 02:39:44.681,10725.40764175,0,-0.1816711,97.39872,192.168.1.101,100.78.239.175,2,1,0.39,0
2016-03-02 02:39:52.748,5,234B9614-18C8-49ED-8B56-CAB6C4F40872,my_iOS_device_1,1456907991.999846,40.79924380876198,-96.68579773986403,370.6313,0,166.2890625,3,10,-9999,1456907992.714836,34.09365081787109,39.22528076171875,9.71923828125,278.5163879394531,275.2392578125,25,10726.14397675,0.2428131103515625,0.9849395751953125,0.0266571044921875,10726.11586975,-0.01690840976091308,0.02974484621509501,-0.006655239564108017,10726.11586975,-2.222409305745126,1.685683845350217,-1.325450527557106,-0.0004921426880173385,-0.004617011174559593,-0.0006244913092814386,0.003750329604372382,0.01313142292201519,0.003955429419875145,XArbitraryCorrectedZVertical,-0.3458546563154583,-0.6279382933916491,0.6738232766791412,0.1789978999951553,0.2412905693054199,0.9700533747673035,0.02784388698637486,34.28946685791016,40.17349243164062,10.31896209716797,1,10724.51137075,stationary,1,2016-03-02 02:39:51.092,2016-03-02 02:37:10.358,64,111.7567,0,0,2016-03-02 02:39:44.681,10725.40764175,0,-0.1816711,97.39872,192.168.1.101,100.78.239.175,2,1,0.39,0
2016-03-02 02:39:52.763,6,234B9614-18C8-49ED-8B56-CAB6C4F40872,my_iOS_device_1,1456907991.999846,40.79924380876198,-96.68579773986403,370.6313,0,166.2890625,3,10,-9999,1456907992.714836,34.09365081787109,39.22528076171875,9.71923828125,278.5163879394531,275.2392578125,25,10726.17427075,0.2451934814453125,0.9829559326171875,0.0315093994140625,10726.15089875,-0.01586018955585789,0.02868517441735248,-0.005573729845426837,10726.11586975,-2.222409305745126,1.685683845350217,-1.325450527557106,-0.0004921426880173385,-0.004617011174559593,-0.0006244913092814386,0.003750329604372382,0.01313142292201519,0.003955429419875145,XArbitraryCorrectedZVertical,-0.3458546563154583,-0.6279382933916491,0.6738232766791412,0.1789978999951553,0.2412905693054199,0.9700533747673035,0.02784388698637486,34.28946685791016,40.17349243164062,10.31896209716797,1,10724.51137075,stationary,1,2016-03-02 02:39:51.092,2016-03-02 02:37:10.358,64,111.7567,0,0,2016-03-02 02:39:44.681,10725.40764175,0,-0.1816711,97.39872,192.168.1.101,100.78.239.175,2,1,0.39,0
2016-03-02 02:39:52.793,7,234B9614-18C8-49ED-8B56-CAB6C4F40872,my_iOS_device_1,1456907991.999846,40.79924380876198,-96.68579773986403,370.6313,0,166.2890625,3,10,-9999,1456907992.774806,33.92029190063477,38.98165893554688,9.75213623046875,278.5442810058594,275.2671508789062,25,10726.20456475,0.2422637939453125,0.9844207763671875,0.0239105224609375,10726.18590875,-0.02011325781671444,0.03080877907058167,-0.005636580447152708,10726.15089875,-2.222701674210336,1.685244166790238,-1.325518017397607,0.000556436600163579,-0.00567659642547369,0.000456743233371526,0.001575368456542492,0.01486979331821203,-0.001073213294148445,XArbitraryCorrectedZVertical,-0.3457765713081008,-0.6279360808334594,0.6738695591161671,0.178982285208627,0.2412377446889877,0.9700697660446167,0.02773031778633595,34.28997039794922,40.17063140869141,10.32841014862061,1,10724.51137075,stationary,1,2016-03-02 02:39:51.092,2016-03-02 02:37:10.358,64,111.7567,0,0,2016-03-02 02:39:44.681,10725.40764175,0,-0.1816711,97.39872,192.168.1.101,100.78.239.175,2,1,0.39,0
2016-03-02 02:39:52.827,8,234B9614-18C8-49ED-8B56-CAB6C4F40872,my_iOS_device_1,1456907991.999846,40.79924380876198,-96.68579773986403,370.6313,0,166.2890625,3,10,-9999,1456907992.774806,33.92029190063477,38.98165893554688,9.75213623046875,278.5442810058594,275.2671508789062,25,10726.23484075,0.2502899169921875,0.9812469482421875,0.0355224609375,10726.22089775,-0.02435727132986471,0.02548565268373128,-0.00676123337549317,10726.18590875,-2.221922574579583,1.685869013935059,-1.325402649973191,-0.003697458654642105,-0.0035525425337255,0.0003943982592318207,0.00294641382060945,0.01280735991895199,0.001158835599198937,XArbitraryCorrectedZVertical,-0.3457796413913092,-0.6279995135165015,0.6738373369967724,0.1788750790116484,0.241331547498703,0.9700417518615723,0.02789389900863171,34.29108428955078,40.17221450805664,10.31854724884033,1,10724.51137075,stationary,1,2016-03-02 02:39:51.092,2016-03-02 02:37:10.358,64,111.7567,0,0,2016-03-02 02:39:44.681,10725.40764175,0,-0.1816711,97.39872,192.168.1.101,100.78.239.175,2,1,0.39,0
2016-03-02 02:39:52.861,9,234B9614-18C8-49ED-8B56-CAB6C4F40872,my_iOS_device_1,1456907991.999846,40.79924380876198,-96.68579773986403,370.6313,0,166.2890625,3,10,-9999,1456907992.832009,33.95496368408203,39.01644897460938,9.71917724609375,278.5617370605469,275.2846069335938,25,10726.26515075,0.23956298828125,0.9842529296875,0.0221099853515625,10726.25592875,-0.02008476199305059,0.02973951989291485,-0.007767109319216098,10726.22089775,-2.221808111693648,1.685835320395564,-1.325525054503064,-0.007940428331494331,-0.008875762112438679,-0.0007308223866857588,0.002407300751656294,0.01550895348191261,-0.007455877959728241,XArbitraryCorrectedZVertical,-0.3456929080447275,-0.628038599346021,0.6738469362039762,0.1788693311542585,0.2412145286798477,0.9700714945793152,0.02787213772535324,34.29290771484375,40.16928482055664,10.32388973236084,1,10724.51137075,stationary,1,2016-03-02 02:39:51.092,2016-03-02 02:37:10.358,64,111.7567,0,0,2016-03-02 02:39:44.681,10725.40764175,0,-0.1816711,97.39872,192.168.1.101,100.78.239.175,2,1,0.39,0
2016-03-02 02:39:52.884,10,234B9614-18C8-49ED-8B56-CAB6C4F40872,my_iOS_device_1,1456907991.999846,40.79924380876198,-96.68579773986403,370.6313,0,166.2890625,3,10,-9999,1456907992.832009,33.95496368408203,39.01644897460938,9.71917724609375,278.5617370605469,275.2846069335938,25,10726.29544675,0.24163818359375,0.985687255859375,0.02716064453125,10726.29094575,-0.02007437566479928,0.04356372279540717,-0.007774033538050304,10726.25592875,-2.219862495470595,1.687503782512435,-1.325425671381931,-0.00374392606317997,-0.004616385791450739,-0.001743103144690394,-0.0004339700972195715,0.01209986303001642,0.004047591704875231,XArbitraryCorrectedZVertical,-0.3456759912626673,-0.6282125437623122,0.6737376958770014,0.1787026191150988,0.2412634342908859,0.9700473546981812,0.02828578278422356,34.29799270629883,40.16608810424805,10.31943321228027,1,10724.51137075,stationary,1,2016-03-02 02:39:51.092,2016-03-02 02:37:10.358,64,111.7567,0,0,2016-03-02 02:39:44.681,10725.40764175,0,-0.1816711,97.39872,192.168.1.101,100.78.239.175,2,1,0.39,0
2016-03-02 02:39:52.914,11,234B9614-18C8-49ED-8B56-CAB6C4F40872,my_iOS_device_1,1456907991.999846,40.79924380876198,-96.68579773986403,370.6313,0,166.2890625,3,10,-9999,1456907992.891498,33.78159713745117,39.12088012695312,10.016357421875,278.5720825195312,275.2949523925781,25,10726.32574075,0.245208740234375,0.985321044921875,0.0318145751953125,10726.29094575,-0.02007437566479928,0.04356372279540717,-0.007774033538050304,10726.29094575,-2.220355072344217,1.687082402476587,-1.325668963752557,-0.003732135053724051,0.009207628667354584,-0.001750964904204011,0.001741675660014153,0.01516884379088879,-0.003681635251268744,XArbitraryCorrectedZVertical,-0.3456103310219411,-0.6281973141839958,0.6737537763147118,0.1788224886432704,0.2410409152507782,0.9701064229011536,0.02815673314034939,34.28857040405273,40.17301177978516,10.32378959655762,1,10724.51137075,stationary,1,2016-03-02 02:39:51.092,2016-03-02 02:37:10.358,64,111.7567,0,0,2016-03-02 02:39:44.681,10725.40764175,0,-0.1816711,97.39872,192.168.1.101,100.78.239.175,2,1,0.39,0
2016-03-02 02:39:52.945,12,234B9614-18C8-49ED-8B56-CAB6C4F40872,my_iOS_device_1,1456907991.999846,40.79924380876198,-96.68579773986403,370.6313,0,166.2890625,3,10,-9999,1456907992.891498,33.78159713745117,39.12088012695312,10.016357421875,278.5720825195312,275.2949523925781,25,10726.35603475,0.2493438720703125,0.981658935546875,0.02569580078125,10726.32596475,-0.01262444883141162,0.02974218305400493,-0.008724515731099584,10726.32596475,-2.219595740316405,1.687969037885938,-1.325874589401431,0.003717139596119523,-0.004613468889147043,-0.002702216850593686,0.004390998743474483,0.01516473945230246,0.003467458533123136,XArbitraryCorrectedZVertical,-0.3456041834502789,-0.628276457212415,0.673657730995464,0.1789181465484001,0.2408177405595779,0.9701563119888306,0.02834711596369743,34.28192901611328,40.17731475830078,10.32910537719727,1,10724.51137075,stationary,1,2016-03-02 02:39:51.092,2016-03-02 02:37:10.358,64,111.7567,0,0,2016-03-02 02:39:44.681,10725.40764175,0,-0.1816711,97.39872,192.168.1.101,100.78.239.175,2,1,0.39,0
2016-03-02 02:39:52.988,13,234B9614-18C8-49ED-8B56-CAB6C4F40872,my_iOS_device_1,1456907991.999846,40.79924380876198,-96.68579773986403,370.6313,0,166.2890625,3,10,-9999,1456907992.949235,34.33636093139648,39.12088012695312,10.016357421875,278.5829467773438,275.3058166503906,25,10726.38633075,0.240631103515625,0.9844818115234375,0.029052734375,10726.36097575,-0.01480877355749461,0.03187910351268451,-0.004494350655617723,10726.36097575,-2.220322871094603,1.687069217236062,-1.325628942817153,0.001532896072603762,-0.002476404653862119,0.00152920326218009,0.008264021016657352,0.01156222447752953,-0.002462258096784353,XArbitraryCorrectedZVertical,-0.3456086755784724,-0.6281987525920035,0.6737610291697667,0.1787933057438972,0.2410798519849777,0.9700967073440552,0.02815805934369564,34.27741241455078,40.1796875,10.33486652374268,1,10724.51137075,stationary,1,2016-03-02 02:39:51.092,2016-03-02 02:37:10.358,64,111.7567,0,0,2016-03-02 02:39:44.681,10725.40764175,0,-0.1816711,97.39872,192.168.1.101,100.78.239.175,2,1,0.39,0
2016-03-02 02:39:53.006,14,234B9614-18C8-49ED-8B56-CAB6C4F40872,my_iOS_device_1,1456907991.999846,40.79924380876198,-96.68579773986403,370.6313,0,166.2890625,3,10,-9999,1456907992.949235,34.33636093139648,39.12088012695312,10.016357421875,278.5829467773438,275.3058166503906,25,10726.41662675,0.23974609375,0.98779296875,0.028167724609375,10726.39597875,-0.01687671814394114,0.03292918793050276,-0.008787898965043471,10726.39597875,-2.22016609361618,1.687143533469631,-1.325588406039452,-0.0005353399901650846,-0.001426061266101897,-0.002764307893812656,-0.0004857123713009059,0.01439493987709284,0.0008721945341676474,XArbitraryCorrectedZVertical,-0.3455975342228454,-0.6282138284460084,0.6737643221915272,0.1787494565868093,0.2411168217658997,0.9700868725776672,0.02818053960800171,34.28278350830078,40.17659378051758,10.32907485961914,1,10724.51137075,stationary,1,2016-03-02 02:39:51.092,2016-03-02 02:37:10.358,64,111.7567,0,0,2016-03-02 02:39:44.681,10725.40764175,0,-0.1816711,97.39872,192.168.1.101,100.78.239.175,2,1,0.39,0
2016-03-02 02:39:53.034,15,234B9614-18C8-49ED-8B56-CAB6C4F40872,my_iOS_device_1,1456907991.999846,40.79924380876198,-96.68579773986403,370.6313,0,166.2890625,3,10,-9999,1456907993.008516,34.23234558105469,39.50372314453125,9.9833984375,278.589111328125,275.3119812011719,25,10726.44691175,0.2478485107421875,0.9850311279296875,0.0323333740234375,10726.43100475,-0.01368971326744332,0.02761458365914063,-0.008738896800986013,10726.39597875,-2.22016609361618,1.687143533469631,-1.325588406039452,-0.0005353399901650846,-0.001426061266101897,-0.002764307893812656,-0.0004857123713009059,0.01439493987709284,0.0008721945341676474,XArbitraryCorrectedZVertical,-0.3455975342228454,-0.6282138284460084,0.6737643221915272,0.1787494565868093,0.2411168217658997,0.9700868725776672,0.02818053960800171,34.28278350830078,40.17659378051758,10.32907485961914,1,10724.51137075,stationary,1,2016-03-02 02:39:51.092,2016-03-02 02:37:10.358,64,111.7567,0,0,2016-03-02 02:39:44.681,10725.40764175,0,-0.1816711,97.39872,192.168.1.101,100.78.239.175,2,1,0.39,0
2016-03-02 02:39:53.070,16,234B9614-18C8-49ED-8B56-CAB6C4F40872,my_iOS_device_1,1456907991.999846,40.79924380876198,-96.68579773986403,370.6313,0,166.2890625,3,10,-9999,1456907993.008516,34.23234558105469,39.50372314453125,9.9833984375,278.589111328125,275.3119812011719,25,10726.477152125,0.247833251953125,0.9836883544921875,0.0282745361328125,10726.465948125,-0.02111833481211034,0.03079626221345829,-0.00991414979003798,10726.43100475,-2.219932966324468,1.687237011612647,-1.32598454431196,0.002584232250228524,-0.00673447921872139,-0.002721818862482905,0.001073554973118007,0.01675551570951939,0.002237076871097088,XArbitraryCorrectedZVertical,-0.345428084338406,-0.6282982205801844,0.6737482912378465,0.178840780081455,0.2407324761152267,0.9701829552650452,0.02815843001008034,34.28143310546875,40.17922210693359,10.32334423065186,1,10724.51137075,stationary,1,2016-03-02 02:39:51.092,2016-03-02 02:37:10.358,64,111.7567,0,0,2016-03-02 02:39:44.681,10725.40764175,0,-0.1816711,97.39872,192.168.1.101,100.78.239.175,2,1,0.39,0
2016-03-02 02:39:53.098,17,234B9614-18C8-49ED-8B56-CAB6C4F40872,my_iOS_device_1,1456907992.999845,40.79924380876198,-96.68579773986403,370.6483,0,166.2890625,3,10,-9999,1456907993.071516,34.23234558105469,39.71257019042969,9.7191162109375,278.5834045410156,275.3062744140625,25,10726.507449125,0.2437591552734375,0.985595703125,0.0316162109375,10726.500944125,-0.02646676122931648,0.02973472620295271,-0.007859787325150856,10726.465948125,-2.219290196329402,1.68778225834006,-1.326061632335793,-0.004844896495342255,-0.003552485257387161,-0.003896911162883043,0.003207900794222951,0.01518043782562017,-0.0004031481803394854,XArbitraryCorrectedZVertical,-0.3453849646151153,-0.6283706741434225,0.6737075734268754,0.1788228945119054,0.2406428009271622,0.9702016711235046,0.0282809566706419,34.27293395996094,40.18617248535156,10.32450866699219,1,10724.51137075,stationary,1,2016-03-02 02:39:51.092,2016-03-02 02:37:10.358,64,111.7567,0,0,2016-03-02 02:39:44.681,10725.40764175,0,-0.1816711,97.39872,192.168.1.101,100.78.239.175,2,1,0.39,0
2016-03-02 02:39:53.149,18,234B9614-18C8-49ED-8B56-CAB6C4F40872,my_iOS_device_1,1456907992.999845,40.79924380876198,-96.68579773986403,370.6483,0,166.2890625,3,10,-9999,1456907993.127968,33.53889465332031,39.50375366210938,10.57781982421875,278.6213073730469,275.3441772460938,25,10726.537746125,0.2398681640625,0.990570068359375,0.0312652587890625,10726.500944125,-0.02646676122931648,0.02973472620295271,-0.007859787325150856,10726.500944125,-2.217860623762594,1.688961862285824,-1.325942190996364,-0.01019380893558264,-0.004613671917468309,-0.001841764431446791,0.005827161949127913,0.01331729535013437,0.004441558849066496,XArbitraryCorrectedZVertical,-0.3453716260299217,-0.6284963565420716,0.6736378326272904,0.1786696398384013,0.2407243549823761,0.9701727032661438,0.02857846021652222,34.27031326293945,40.18862533569336,10.32365608215332,1,10724.51137075,stationary,1,2016-03-02 02:39:51.092,2016-03-02 02:37:10.358,64,111.7567,0,0,2016-03-02 02:39:44.681,10725.40764175,0,-0.1816711,97.39872,192.168.1.101,100.78.239.175,2,1,0.39,0
2016-03-02 02:39:53.158,19,234B9614-18C8-49ED-8B56-CAB6C4F40872,my_iOS_device_1,1456907992.999845,40.79924380876198,-96.68579773986403,370.6483,0,166.2890625,3,10,-9999,1456907993.127968,33.53889465332031,39.50375366210938,10.57781982421875,278.6213073730469,275.3441772460938,25,10726.568026125,0.2424774169921875,0.9867095947265625,0.02984619140625,10726.535977125,-0.01900564911935048,0.03080078958731143,-0.008817726369252358,10726.535977125,-2.216352412910138,1.690417558310987,-1.32615209821319,-0.002733451081439853,-0.003547185100615025,-0.002800501650199294,-0.0004900646745227277,0.01590620167553425,0.002635368378832936,XArbitraryCorrectedZVertical,-0.3453201436064428,-0.6286543348403342,0.6735104222843121,0.1786936954133465,0.2404803037643433,0.9702235460281372,0.02890454791486263,34.27466583251953,40.18128204345703,10.33778476715088,1,10724.51137075,stationary,1,2016-03-02 02:39:51.092,2016-03-02 02:37:10.358,64,111.7567,0,0,2016-03-02 02:39:44.681,10725.40764175,0,-0.1816711,97.39872,192.168.1.101,100.78.239.175,2,1,0.39,0
2016-03-02 02:39:53.187,20,234B9614-18C8-49ED-8B56-CAB6C4F40872,my_iOS_device_1,1456907992.999845,40.79924380876198,-96.68579773986403,370.6483,0,166.2890625,3,10,-9999,1456907993.166613,33.33085632324219,39.43414306640625,10.379638671875,278.6413269042969,275.3641967773438,25,10726.598320125,0.2445526123046875,0.985382080078125,0.0255279541015625,10726.570988125,-0.01584634111818948,0.02761884471688476,-0.006638727965349525,10726.570988125,-2.215985827662969,1.690588337588219,-1.326450590352894,0.0003591103886719793,-0.006699377670884132,-0.0006268605357035995,0.002289597177878022,0.01641378179192543,0.0009351848275400698,XArbitraryCorrectedZVertical,-0.3451660737983714,-0.628741508722541,0.6734984228423202,0.1787298831667914,0.2401878237724304,0.970295786857605,0.02891100570559502,34.26687622070312,40.18617248535156,10.34457683563232,1,10724.51137075,stationary,1,2016-03-02 02:39:51.092,2016-03-02 02:37:10.358,64,111.7567,0,0,2016-03-02 02:39:44.681,10725.40764175,0,-0.1816711,97.39872,192.168.1.101,100.78.239.175,2,1,0.39,0
2016-03-02 02:39:53.228,21,234B9614-18C8-49ED-8B56-CAB6C4F40872,my_iOS_device_1,1456907992.999845,40.79924380876198,-96.68579773986403,370.6483,0,166.2890625,3,10,-9999,1456907993.214478,33.57356262207031,39.60820007324219,10.4127197265625,278.6816101074219,275.4044799804688,25,10726.628635125,0.245361328125,0.9863128662109375,0.0296478271484375,10726.605999125,-0.01584554216986246,0.0286822449401534,-0.006639260597567541,10726.605999125,-2.216777014138583,1.689661735975286,-1.326408186347534,0.0003604007360991091,-0.005635943729430437,-0.0006272156024351716,0.004297252744436264,0.01509652659296989,-0.00316536077298224,XArbitraryCorrectedZVertical,-0.3451164206494804,-0.6286822040167073,0.673589805811325,0.1786899998820184,0.2402553558349609,0.9702855348587036,0.0286933146417141,34.25940322875977,40.1955451965332,10.33291053771973,1,10724.51137075,stationary,1,2016-03-02 02:39:51.092,2016-03-02 02:37:10.358,64,111.7567,0,0,2016-03-02 02:39:44.681,10725.40764175,0,-0.1816711,97.39872,192.168.1.101,100.78.239.175,2,1,0.39,0
2016-03-02 02:39:53.253,22,234B9614-18C8-49ED-8B56-CAB6C4F40872,my_iOS_device_1,1456907992.999845,40.79924380876198,-96.68579773986403,370.6483,0,166.2890625,3,10,-9999,1456907993.214478,33.57356262207031,39.60820007324219,10.4127197265625,278.6816101074219,275.4044799804688,25,10726.658930125,0.2430572509765625,0.981231689453125,0.0269775390625,10726.641006125,-0.01264788464900432,0.01804771007524898,-0.007653126024560706,10726.605999125,-2.216777014138583,1.689661735975286,-1.326408186347534,0.0003604007360991091,-0.005635943729430437,-0.0006272156024351716,0.004297252744436264,0.01509652659296989,-0.00316536077298224,XArbitraryCorrectedZVertical,-0.3451164206494804,-0.6286822040167073,0.673589805811325,0.1786899998820184,0.2402553558349609,0.9702855348587036,0.0286933146417141,34.25940322875977,40.1955451965332,10.33291053771973,1,10724.51137075,stationary,1,2016-03-02 02:39:51.092,2016-03-02 02:37:10.358,64,111.7567,0,0,2016-03-02 02:39:44.681,10725.40764175,0,-0.1816711,97.39872,192.168.1.101,100.78.239.175,2,1,0.39,0
2016-03-02 02:39:53.278,23,234B9614-18C8-49ED-8B56-CAB6C4F40872,my_iOS_device_1,1456907992.999845,40.79924380876198,-96.68579773986403,370.6483,0,166.2890625,3,10,-9999,1456907993.273252,33.95495986938477,39.57337951660156,9.9173583984375,278.6952209472656,275.4180908203125,25,10726.689226125,0.239471435546875,0.9896240234375,0.0292816162109375,10726.676026125,-0.01584394427320841,0.03080904538669068,-0.006640325862003573,10726.641006125,-2.217257926959716,1.688778347244006,-1.326366515075333,0.003558229189366102,-0.01627030409872532,-0.001640725880861282,0.007405675482004881,0.01390116568654776,-0.0004706874315161258,XArbitraryCorrectedZVertical,-0.3449834915638083,-0.6286726514000376,0.6737014090647433,0.178559512080031,0.2403207719326019,0.9702754616737366,0.02848582342267036,34.2615966796875,40.19604110717773,10.32369995117188,1,10724.51137075,stationary,1,2016-03-02 02:39:51.092,2016-03-02 02:37:10.358,64,111.7567,0,0,2016-03-02 02:39:44.681,10725.40764175,0,-0.1816711,97.39872,192.168.1.101,100.78.239.175,2,1,0.39,0
2016-03-02 02:39:53.319,24,234B9614-18C8-49ED-8B56-CAB6C4F40872,my_iOS_device_1,1456907992.999845,40.79924380876198,-96.68579773986403,370.6483,0,166.2890625,3,10,-9999,1456907993.273252,33.95495986938477,39.57337951660156,9.9173583984375,278.6952209472656,275.4180908203125,25,10726.719521125,0.241058349609375,0.98541259765625,0.0270233154296875,10726.711037125,-0.0105802063786668,0.03614175915346534,-0.002303634342918541,10726.676026125,-2.217946606758202,1.687779289477722,-1.326427471044251,0.000362497114110738,-0.003508886322379112,-0.0006278245127759874,0.0006306567811407149,0.01228424347937107,-0.003260174766182899,XArbitraryCorrectedZVertical,-0.3448437386749367,-0.6286510973099694,0.6738090707420303,0.1784991034526896,0.2402903586626053,0.9702902436256409,0.0282388124614954,34.27046585083008,40.19453430175781,10.30011177062988,1,10724.51137075,stationary,1,2016-03-02 02:39:51.092,2016-03-02 02:37:10.358,64,111.7567,0,0,2016-03-02 02:39:44.681,10726.719892125,0,-0.1816711,97.39872,192.168.1.101,100.78.239.175,2,1,0.39,0
2016-03-02 02:39:53.349,25,234B9614-18C8-49ED-8B56-CAB6C4F40872,my_iOS_device_1,1456907992.999845,40.79924380876198,-96.68579773986403,370.6483,0,166.2890625,3,10,-9999,1456907993.332004,33.81626892089844,39.78221130371094,10.1815185546875,278.7190856933594,275.4419555664062,25,10726.749816125,0.239044189453125,0.9866485595703125,0.0283355712890625,10726.711037125,-0.0105802063786668,0.03614175915346534,-0.002303634342918541,10726.711037125,-2.218477181785379,1.687127658136951,-1.326599787936442,0.005626341328024864,0.001824080012738705,0.003707504831254482,0.001327693811617792,0.01509596034884453,-0.0001239761477336287,XArbitraryCorrectedZVertical,-0.3447353786627171,-0.6286405397017372,0.6738650783700061,0.1785341611433388,0.2401426434516907,0.9703319072723389,0.02806281857192516,34.26897811889648,40.19827270507812,10.29046249389648,1,10724.51137075,stationary,1,2016-03-02 02:39:51.092,2016-03-02 02:37:10.358,64,111.7567,0,0,2016-03-02 02:39:44.681,10726.719892125,0,-0.1816711,97.39872,192.168.1.101,100.78.239.175,2,1,0.39,0
2016-03-02 02:39:53.387,26,234B9614-18C8-49ED-8B56-CAB6C4F40872,my_iOS_device_1,1456907992.999845,40.79924380876198,-96.68579773986403,370.6483,0,166.2890625,3,10,-9999,1456907993.332004,33.81626892089844,39.78221130371094,10.1815185546875,278.7190856933594,275.4419555664062,25,10726.780111125,0.247894287109375,0.9826202392578125,0.024017333984375,10726.746040125,-0.009442503960984948,0.03719131093906557,-0.007616374401517613,10726.746040125,-2.218967716694333,1.686736911839714,-1.326897912448068,0.006714915856719017,0.002904219552874565,-0.001608582562766969,-0.002408966422080994,0.01749584823846817,0.001285064499825239,XArbitraryCorrectedZVertical,-0.3446617469302694,-0.6286302875780697,0.67387303018267,0.178682346455669,0.239866241812706,0.9704039096832275,0.02793551608920097,34.26459503173828,40.20492935180664,10.27905654907227,1,10724.51137075,stationary,1,2016-03-02 02:39:51.092,2016-03-02 02:37:10.358,64,111.7567,0,0,2016-03-02 02:39:44.681,10726.719892125,0,-0.1816711,97.39872,192.168.1.101,100.78.239.175,2,1,0.39,0
2016-03-02 02:39:53.401,27,234B9614-18C8-49ED-8B56-CAB6C4F40872,my_iOS_device_1,1456907992.999845,40.79924380876198,-96.68579773986403,370.6483,0,166.2890625,3,10,-9999,1456907993.390971,34.19766998291016,39.81700134277344,10.01629638671875,278.7284851074219,275.4513549804688,25,10726.810406125,0.247100830078125,0.983001708984375,0.028228759765625,10726.781040125,-0.01159833286340409,0.03825897222007833,-0.005516738198099142,10726.781040125,-2.220344153017294,1.685470807702061,-1.326845335439192,0.004559636116027832,0.003971953876316547,0.0004916016478091478,0.007942182943224907,0.01222900487482548,-0.003620302537456155,XArbitraryCorrectedZVertical,-0.3446846636948081,-0.6284992449230858,0.6739710031802786,0.1787295963651954,0.2399521023035049,0.9703912138938904,0.02763763628900051,34.25146484375,40.21855926513672,10.26948833465576,1,10724.51137075,stationary,1,2016-03-02 02:39:51.092,2016-03-02 02:37:10.358,64,111.7567,0,0,2016-03-02 02:39:44.681,10726.719892125,0,-0.1816711,97.39872,192.168.1.101,100.78.239.175,2,1,0.39,0
2016-03-02 02:39:53.429,28,234B9614-18C8-49ED-8B56-CAB6C4F40872,my_iOS_device_1,1456907992.999845,40.79924380876198,-96.68579773986403,370.6483,0,166.2890625,3,10,-9999,1456907993.390971,34.19766998291016,39.81700134277344,10.01629638671875,278.7284851074219,275.4513549804688,25,10726.840697125,0.244476318359375,0.9859161376953125,0.017913818359375,10726.816060125,-0.02223180246387247,0.04250458362988266,-0.005673332070195801,10726.816060125,-2.220686979289068,1.685305183921162,-1.326553786822664,-0.006073582451790571,0.008217633701860905,0.0003362978459335864,0.006863098125904799,0.01268093567341566,0.0005985409370623529,XArbitraryCorrectedZVertical,-0.3448305671312745,-0.628416254877522,0.6739843253225704,0.1786897305306063,0.2402377277612686,0.9703207612037659,0.02763021923601627,34.25869750976562,40.21403503417969,10.26307582855225,1,10724.51137075,stationary,1,2016-03-02 02:39:51.092,2016-03-02 02:37:10.358,64,111.7567,0,0,2016-03-02 02:39:44.681,10726.719892125,0,-0.1816711,97.39872,192.168.1.101,100.78.239.175,2,1,0.39,0
2016-03-02 02:39:53.467,29,234B9614-18C8-49ED-8B56-CAB6C4F40872,my_iOS_device_1,1456907992.999845,40.79924380876198,-96.68579773986403,370.6483,0,166.2890625,3,10,-9999,1456907993.450733,33.85094451904297,39.39933776855469,9.88421630859375,278.7388000488281,275.461669921875,25,10726.870996125,0.2436065673828125,0.98370361328125,0.0308685302734375,10726.851093125,-0.02329280584216004,0.02654985185532695,-0.006746319673388726,10726.816060125,-2.220686979289068,1.685305183921162,-1.326553786822664,-0.006073582451790571,0.008217633701860905,0.0003362978459335864,0.006863098125904799,0.01268093567341566,0.0005985409370623529,XArbitraryCorrectedZVertical,-0.3448305671312745,-0.628416254877522,0.6739843253225704,0.1786897305306063,0.2402377277612686,0.9703207612037659,0.02763021923601627,34.25869750976562,40.21403503417969,10.26307582855225,1,10724.51137075,stationary,1,2016-03-02 02:39:51.092,2016-03-02 02:37:10.358,64,111.7567,0,0,2016-03-02 02:39:44.681,10726.719892125,0,-0.1816711,97.39872,192.168.1.101,100.78.239.175,2,1,0.39,0
2016-03-02 02:39:53.490,30,234B9614-18C8-49ED-8B56-CAB6C4F40872,my_iOS_device_1,1456907992.999845,40.79924380876198,-96.68579773986403,370.6483,0,166.2890625,3,10,-9999,1456907993.450733,33.85094451904297,39.39933776855469,9.88421630859375,278.7388000488281,275.461669921875,25,10726.901277125,0.2408905029296875,0.9871368408203125,0.027862548828125,10726.886104125,-0.02225044459150303,0.03719051199073854,-0.004605138156965019,10726.851093125,-2.220843927601241,1.685060481666922,-1.326546659272423,-0.007133275736123323,-0.007737226784229279,-0.0007366273202933371,0.007276719436049461,0.01361344568431377,-0.003005569335073233,XArbitraryCorrectedZVertical,-0.3447997144036886,-0.6284101104098619,0.6740128693471338,0.1786632084012579,0.240251362323761,0.9703190326690674,0.02757222019135952,34.26229476928711,40.20806503295898,10.27445507049561,1,10724.51137075,stationary,1,2016-03-02 02:39:51.092,2016-03-02 02:37:10.358,64,111.7567,0,0,2016-03-02 02:39:44.681,10726.719892125,0,-0.1816711,97.39872,192.168.1.101,100.78.239.175,2,1,0.39,0
2016-03-02 02:39:53.548,31,234B9614-18C8-49ED-8B56-CAB6C4F40872,my_iOS_device_1,1456907992.999845,40.79924380876198,-96.68579773986403,370.6483,0,166.2890625,3,10,-9999,1456907993.508367,34.16299819946289,39.43412780761719,9.9173583984375,278.7402648925781,275.463134765625,25,10726.931588125,0.244781494140625,0.9888153076171875,0.0232696533203125,10726.921111125,-0.01158288652908163,0.03931944296614789,-0.006582801582457861,10726.886104125,-2.219733861590813,1.686140410069434,-1.326530878285619,-0.006133947521448135,0.00293952482752502,0.001403777860105038,0.001386273419484496,0.01463960018008947,-0.005555588286370039,XArbitraryCorrectedZVertical,-0.3448199075020063,-0.6285029367680343,0.6739266694285647,0.1786228823448272,0.2402366548776627,0.9703152179718018,0.02783342078328133,34.26638793945312,40.20674514770508,10.26595878601074,1,10724.51137075,stationary,1,2016-03-02 02:39:51.092,2016-03-02 02:37:10.358,64,111.7567,0,0,2016-03-02 02:39:44.681,10726.719892125,0,-0.1816711,97.39872,192.168.1.101,100.78.239.175,2,1,0.39,0
2016-03-02 02:39:53.553,32,234B9614-18C8-49ED-8B56-CAB6C4F40872,my_iOS_device_1,1456907992.999845,40.79924380876198,-96.68579773986403,370.6483,0,166.2890625,3,10,-9999,1456907993.508367,34.16299819946289,39.43412780761719,9.9173583984375,278.7402648925781,275.463134765625,25,10726.961869125,0.24578857421875,0.9809722900390625,0.02294921875,10726.956132125,-0.009472597681302842,0.0361337696701951,-0.005484780265018191,10726.921111125,-2.22008558191677,1.686031039120068,-1.326556354526278,0.004533927887678146,0.005068585276603699,-0.000574278412386775,0.00357453478500247,0.01738002151250839,0.001111102406866848,XArbitraryCorrectedZVertical,-0.3448853640284961,-0.6284554376577662,0.6739127671340647,0.1787160620957527,0.2402151376008987,0.9703214168548584,0.0278043020516634,34.26647567749023,40.20445251464844,10.27463722229004,1,10724.51137075,stationary,1,2016-03-02 02:39:51.092,2016-03-02 02:37:10.358,64,111.7567,0,0,2016-03-02 02:39:44.681,10726.719892125,0,-0.1816711,97.39872,192.168.1.101,100.78.239.175,2,1,0.39,0
2016-03-02 02:39:53.583,33,234B9614-18C8-49ED-8B56-CAB6C4F40872,my_iOS_device_1,1456907992.999845,40.79924380876198,-96.68579773986403,370.6483,0,166.2890625,3,10,-9999,1456907993.566822,34.78710174560547,39.71255493164062,9.98333740234375,278.7361450195312,275.4590148925781,25,10726.992161125,0.2500762939453125,0.9855804443359375,0.0265350341796875,10726.956132125,-0.009472597681302842,0.0361337696701951,-0.005484780265018191,10726.956132125,-2.221941657215554,1.684240994246468,-1.326495803034405,0.006645021494477987,0.001882915501482785,0.0005241219769231975,0.005175756756216288,0.01011622324585915,-0.0030889215413481,XArbitraryCorrectedZVertical,-0.3448848015030658,-0.6282872993755955,0.674058778069184,0.1787576763201453,0.2403229027986526,0.9703067541122437,0.02738091349601746,34.26325225830078,40.20571517944336,10.28046035766602,1,10724.51137075,stationary,1,2016-03-02 02:39:51.092,2016-03-02 02:37:10.358,64,111.7567,0,0,2016-03-02 02:39:44.681,10726.719892125,0,-0.1816711,97.39872,192.168.1.101,100.78.239.175,2,1,0.39,0
2016-03-02 02:39:53.627,34,234B9614-18C8-49ED-8B56-CAB6C4F40872,my_iOS_device_1,1456907992.999845,40.79924380876198,-96.68579773986403,370.6483,0,166.2890625,3,10,-9999,1456907993.566822,34.78710174560547,39.71255493164062,9.98333740234375,278.7361450195312,275.4590148925781,25,10727.022449125,0.2406768798828125,0.9830780029296875,0.0302581787109375,10727.026155125,-0.01583994953157329,0.03612604650303387,-0.006642989023093652,10726.991144125,-2.223459472343298,1.682584647254052,-1.326232323527585,0.003405048279091716,-0.006618120707571507,0.003679696936160326,0.009530613198876381,0.01529168151319027,-0.005267562810331583,XArbitraryCorrectedZVertical,-0.3448881335023764,-0.628138395539274,0.6742228752065574,0.1786556631254191,0.2406219691038132,0.970242977142334,0.0270113367587328,34.27410888671875,40.20388031005859,10.25142478942871,1,10724.51137075,stationary,1,2016-03-02 02:39:51.092,2016-03-02 02:37:10.358,64,111.7567,0,0,2016-03-02 02:39:44.681,10726.719892125,0,-0.1816711,97.39872,192.168.1.101,100.78.239.175,2,1,0.39,0
2016-03-02 02:39:53.644,35,234B9614-18C8-49ED-8B56-CAB6C4F40872,my_iOS_device_1,1456907992.999845,40.79924380876198,-96.68579773986403,370.6483,0,166.2890625,3,10,-9999,1456907993.626702,34.40570449829102,39.88658142089844,10.34661865234375,278.7453308105469,275.4682006835938,25,10727.052742125,0.2461395263671875,0.986968994140625,0.0283355712890625,10727.026155125,-0.01583994953157329,0.03612604650303387,-0.006642989023093652,10727.026155125,-2.223949137868918,1.682102184158206,-1.326121592610516,0.0002785075339488685,0.001875344663858414,-0.0006326351431198418,-6.486848724307492e-05,0.01286183390766382,0.003351002465933561,XArbitraryCorrectedZVertical,-0.3449149266528878,-0.6280822250899381,0.6742682968131722,0.1786299969511148,0.2407417446374893,0.9702161550521851,0.02690717577934265,34.28914642333984,40.19500732421875,10.23590755462646,1,10724.51137075,stationary,1,2016-03-02 02:39:51.092,2016-03-02 02:37:10.358,64,111.7567,0,0,2016-03-02 02:39:44.681,10726.719892125,0,-0.1816711,97.39872,192.168.1.101,100.78.239.175,2,1,0.39,0
2016-03-02 02:39:53.674,36,234B9614-18C8-49ED-8B56-CAB6C4F40872,my_iOS_device_1,1456907992.999845,40.79924380876198,-96.68579773986403,370.6483,0,166.2890625,3,10,-9999,1456907993.626702,34.40570449829102,39.88658142089844,10.34661865234375,278.7453308105469,275.4682006835938,25,10727.083036125,0.2483062744140625,0.9840240478515625,0.028350830078125,10727.061171125,-0.01586178745251194,0.0265583739708152,-0.005572664580990806,10727.061171125,-2.223220571732485,1.682662833434693,-1.326180280334625,0.0002201091265305877,-0.00765280844643712,0.0004376239376142621,0.005469485651701689,0.01673861034214497,0.001299784053117037,XArbitraryCorrectedZVertical,-0.3448562203211805,-0.6281656476768612,0.6742335239521872,0.1785812463936223,0.2406700402498245,0.9702304005622864,0.02703578770160675,34.28312683105469,40.19881439208984,10.24110221862793,1,10724.51137075,stationary,1,2016-03-02 02:39:51.092,2016-03-02 02:37:10.358,64,111.7567,0,0,2016-03-02 02:39:44.681,10726.719892125,0,-0.1816711,97.39872,192.168.1.101,100.78.239.175,2,1,0.39,0
2016-03-02 02:39:53.708,37,234B9614-18C8-49ED-8B56-CAB6C4F40872,my_iOS_device_1,1456907992.999845,40.79924380876198,-96.68579773986403,370.6483,0,166.2890625,3,10,-9999,1456907993.686497,33.9202880859375,39.74736022949219,10.9410400390625,278.7948608398438,275.5177307128906,25,10727.113329125,0.2467041015625,0.9838714599609375,0.0294647216796875,10727.096183125,-0.01374910175975208,0.02656290134466834,-0.004476241160205184,10727.096183125,-2.223409306481306,1.682256238764033,-1.325980367440969,0.002332535339519382,-0.00764798978343606,0.0015348547603935,0.004945325199514627,0.01349114719778299,0.000689422246068716,XArbitraryCorrectedZVertical,-0.3448428065539823,-0.6281426514112621,0.674297520983432,0.1784463545203043,0.2408737689256668,0.970181941986084,0.02695950306952,34.28928375244141,40.19453811645508,10.2372875213623,1,10724.51137075,stationary,1,2016-03-02 02:39:51.092,2016-03-02 02:37:10.358,64,111.7567,0,0,2016-03-02 02:39:44.681,10726.719892125,0,-0.1816711,97.39872,192.168.1.101,100.78.239.175,2,1,0.39,0
2016-03-02 02:39:53.734,38,234B9614-18C8-49ED-8B56-CAB6C4F40872,my_iOS_device_1,1456907992.999845,40.79924380876198,-96.68579773986403,370.6483,0,166.2890625,3,10,-9999,1456907993.686497,33.9202880859375,39.74736022949219,10.9410400390625,278.7948608398438,275.5177307128906,25,10727.143611125,0.246917724609375,0.9819183349609375,0.0285491943359375,10727.131185125,-0.01907142919827544,0.02124190548669002,-0.004550809670727402,10727.131185125,-2.223224098364302,1.682044406839279,-1.325880843799131,-0.002990330802276731,-0.01296866685152054,0.001460681669414043,0.002646396169438958,0.01282862853258848,0.001401114976033568,XArbitraryCorrectedZVertical,-0.3447452654599166,-0.6281801498908087,0.6743559046210575,0.1782821222917,0.2409754246473312,0.97015780210495,0.02691919729113579,34.29518127441406,40.19083786010742,10.2320442199707,1,10724.51137075,stationary,1,2016-03-02 02:39:51.092,2016-03-02 02:37:10.358,64,111.7567,0,0,2016-03-02 02:39:44.681,10726.719892125,0,-0.1816711,97.39872,192.168.1.101,100.78.239.175,2,1,0.39,0
2016-03-02 02:39:53.787,39,234B9614-18C8-49ED-8B56-CAB6C4F40872,my_iOS_device_1,1456907992.999845,40.79924380876198,-96.68579773986403,370.6483,0,166.2890625,3,10,-9999,1456907993.743689,34.05897903442383,39.677734375,10.742919921875,278.8406677246094,275.5635375976562,25,10727.173909125,0.2468109130859375,0.986541748046875,0.0271759033203125,10727.166211125,-0.01906823340496734,0.02549550637976458,-0.004552940199599466,10727.131185125,-2.223224098364302,1.682044406839279,-1.325880843799131,-0.002990330802276731,-0.01296866685152054,0.001460681669414043,0.002646396169438958,0.01282862853258848,0.001401114976033568,XArbitraryCorrectedZVertical,-0.3447452654599166,-0.6281801498908087,0.6743559046210575,0.1782821222917,0.2409754246473312,0.97015780210495,0.02691919729113579,34.29518127441406,40.19083786010742,10.2320442199707,1,10724.51137075,stationary,1,2016-03-02 02:39:51.092,2016-03-02 02:37:10.358,64,111.7567,0,0,2016-03-02 02:39:44.681,10726.719892125,0,-0.1816711,97.39872,192.168.1.101,100.78.239.175,2,1,0.39,0
2016-03-02 02:39:53.794,40,234B9614-18C8-49ED-8B56-CAB6C4F40872,my_iOS_device_1,1456907992.999845,40.79924380876198,-96.68579773986403,370.6483,0,166.2890625,3,10,-9999,1456907993.743689,34.05897903442383,39.677734375,10.742919921875,278.8406677246094,275.5635375976562,25,10727.204219125,0.2398223876953125,0.9885711669921875,0.02764892578125,10727.201222125,-0.009465939778577645,0.02549683796030962,-0.006544984694978736,10727.166211125,-2.222554883642903,1.682288866382634,-1.325708966619957,-0.00298713892698288,-0.008714839816093445,0.001459036371670663,0.005676361732184887,0.01531172450631857,0.001537277828902006,XArbitraryCorrectedZVertical,-0.3446728432444801,-0.6282507142899362,0.6743826075353778,0.1780723723032875,0.2411345541477203,0.970116138458252,0.02699665725231171,34.310302734375,40.18234634399414,10.21468830108643,1,10724.51137075,stationary,1,2016-03-02 02:39:51.092,2016-03-02 02:37:10.358,64,111.7567,0,0,2016-03-02 02:39:44.681,10726.719892125,0,-0.1816711,97.39872,192.168.1.101,100.78.239.175,2,1,0.39,0
2016-03-02 02:39:53.824,41,234B9614-18C8-49ED-8B56-CAB6C4F40872,my_iOS_device_1,1456907992.999845,40.79924380876198,-96.68579773986403,370.6483,0,166.2890625,3,10,-9999,1456907993.804421,34.16299819946289,39.22529602050781,10.6439208984375,278.8810424804688,275.6039123535156,25,10727.234523125,0.245880126953125,0.98309326171875,0.030548095703125,10727.236233125,-0.007354851982471832,0.02337456488762547,-0.005447496009757082,10727.201222125,-2.222387734345607,1.682110332165219,-1.325822559152135,0.006614852696657181,-0.008713235147297382,-0.0005334136076271534,0.001340755610726774,0.01803075149655342,0.001745158340781927,XArbitraryCorrectedZVertical,-0.3445235460065125,-0.6283105989936273,0.6744221661218199,0.1780001665249383,0.2410298436880112,0.9701436758041382,0.02694136463105679,34.3150634765625,40.17906188964844,10.21162223815918,1,10724.51137075,stationary,1,2016-03-02 02:39:51.092,2016-03-02 02:37:10.358,64,111.7567,0,0,2016-03-02 02:39:44.681,10726.719892125,0,-0.1816711,97.39872,192.168.1.101,100.78.239.175,2,1,0.39,0
2016-03-02 02:39:53.868,42,234B9614-18C8-49ED-8B56-CAB6C4F40872,my_iOS_device_1,1456907992.999845,40.79924380876198,-96.68579773986403,370.6483,0,166.2890625,3,10,-9999,1456907993.86134,33.81626892089844,39.5733642578125,10.379638671875,278.9070434570312,275.6299133300781,25,10727.264797125,0.2426605224609375,0.9854888916015625,0.028289794921875,10727.236233125,-0.007354851982471832,0.02337456488762547,-0.005447496009757082,10727.236233125,-2.222884970651697,1.681297902645472,-1.325911330493455,0.008697253651916981,-0.01079386007040739,0.0005655159475281835,0.004914065357297659,0.01292804814875126,0.003812056500464678,XArbitraryCorrectedZVertical,-0.344377185617269,-0.6283091385964125,0.6745130756234955,0.1779440676040697,0.2409660667181015,0.9701651930809021,0.02673603966832161,34.3091926574707,40.18835830688477,10.19473934173584,1,10724.51137075,stationary,1,2016-03-02 02:39:51.092,2016-03-02 02:37:10.358,64,111.7567,0,0,2016-03-02 02:39:44.681,10726.719892125,0,-0.1816711,97.39872,192.168.1.101,100.78.239.175,2,1,0.39,0
2016-03-02 02:39:53.884,43,234B9614-18C8-49ED-8B56-CAB6C4F40872,my_iOS_device_1,1456907992.999845,40.79924380876198,-96.68579773986403,370.6483,0,166.2890625,3,10,-9999,1456907993.86134,33.81626892089844,39.5733642578125,10.379638671875,278.9070434570312,275.6299133300781,25,10727.295102125,0.247833251953125,0.98834228515625,0.0258331298828125,10727.271243125,-0.009444101857638994,0.03506451049252829,-0.007615309137081582,10727.271243125,-2.223753235015404,1.680315699847396,-1.325976094233561,0.006607630290091038,0.0008963707950897515,-0.001602446311153471,0.001730772433802485,0.01530797872692347,0.001797313685528934,XArbitraryCorrectedZVertical,-0.3442978126183548,-0.6282557256849514,0.674601433641395,0.1779512997964671,0.2409297525882721,0.9701809287071228,0.02649248205125332,34.31235122680664,40.18759918212891,10.18710422515869,1,10724.51137075,stationary,1,2016-03-02 02:39:51.092,2016-03-02 02:37:10.358,64,111.7567,0,0,2016-03-02 02:39:44.681,10726.719892125,0,-0.1816711,97.39872,192.168.1.101,100.78.239.175,2,1,0.39,0
2016-03-02 02:39:53.914,44,234B9614-18C8-49ED-8B56-CAB6C4F40872,my_iOS_device_1,1456907992.999845,40.79924380876198,-96.68579773986403,370.6483,0,166.2890625,3,10,-9999,1456907993.86134,33.81626892089844,39.5733642578125,10.379638671875,278.9070434570312,275.6299133300781,25,10727.325405125,0.2476348876953125,0.9806365966796875,0.025604248046875,10727.306247125,-0.008419317470176504,0.02231036571602981,-0.005462409711861525,10727.306247125,-2.22482790898666,1.679022380612979,-1.325889642659737,0.007632772903889418,-0.01185764838010073,0.0005508287576958537,0.007686326745897532,0.01543574780225754,0.00152004137635231,XArbitraryCorrectedZVertical,-0.3442269255897857,-0.6281741665398536,0.6747331487134037,0.1778769749524846,0.2410471886396408,0.9701599478721619,0.02618991956114769,34.31141662597656,40.19259262084961,10.17055416107178,1,10724.51137075,stationary,1,2016-03-02 02:39:51.092,2016-03-02 02:37:10.358,64,111.7567,0,0,2016-03-02 02:39:44.681,10726.719892125,0,-0.1816711,97.39872,192.168.1.101,100.78.239.175,2,1,0.39,0
2016-03-02 02:39:53.948,45,234B9614-18C8-49ED-8B56-CAB6C4F40872,my_iOS_device_1,1456907992.999845,40.79924380876198,-96.68579773986403,370.6483,0,166.2890625,3,10,-9999,1456907993.919986,34.09365081787109,39.85179138183594,10.18157958984375,278.9261169433594,275.6489868164062,25,10727.355678125,0.2414703369140625,0.9873504638671875,0.0249786376953125,10727.341245125,-0.01904799338068274,0.03293637846544597,-0.005622199377266279,10727.341245125,-2.225211914069102,1.678393466103655,-1.325754014734337,-0.002996280556544662,-0.001231372123584151,0.0003917614812962711,0.003327659796923399,0.009288832545280457,0.002115278039127588,XArbitraryCorrectedZVertical,-0.3441789953196104,-0.6281457175317281,0.6748146446993097,0.1777609969218935,0.2411944419145584,0.9701270461082458,0.0260524470359087,34.31512451171875,40.19180679321289,10.16112327575684,1,10724.51137075,stationary,1,2016-03-02 02:39:51.092,2016-03-02 02:37:10.358,64,111.7567,0,0,2016-03-02 02:39:44.681,10726.719892125,0,-0.1816711,97.39872,192.168.1.101,100.78.239.175,2,1,0.39,0
2016-03-02 02:39:53.979,46,234B9614-18C8-49ED-8B56-CAB6C4F40872,my_iOS_device_1,1456907992.999845,40.79924380876198,-96.68579773986403,370.6483,0,166.2890625,3,10,-9999,1456907993.919986,34.09365081787109,39.85179138183594,10.18157958984375,278.9261169433594,275.6489868164062,25,10727.385997125,0.2467803955078125,0.9912109375,0.028961181640625,10727.376289125,-0.01689136552993658,0.03293211740770184,-0.007722368212902767,10727.341245125,-2.225211914069102,1.678393466103655,-1.325754014734337,-0.002996280556544662,-0.001231372123584151,0.0003917614812962711,0.003327659796923399,0.009288832545280457,0.002115278039127588,XArbitraryCorrectedZVertical,-0.3441789953196104,-0.6281457175317281,0.6748146446993097,0.1777609969218935,0.2411944419145584,0.9701270461082458,0.0260524470359087,34.31512451171875,40.19180679321289,10.16112327575684,1,10724.51137075,stationary,1,2016-03-02 02:39:51.092,2016-03-02 02:37:10.358,64,111.7567,0,0,2016-03-02 02:39:44.681,10726.719892125,0,-0.1816711,97.39872,192.168.1.101,100.78.239.175,2,1,0.39,0
2016-03-02 02:39:54.027,47,234B9614-18C8-49ED-8B56-CAB6C4F40872,my_iOS_device_1,1456907992.999845,40.79924380876198,-96.68579773986403,370.6483,0,166.2890625,3,10,-9999,1456907993.984748,33.92029190063477,40.02581787109375,10.3466796875,278.9501342773438,275.6730041503906,25,10727.416291125,0.24359130859375,0.9835662841796875,0.0285186767578125,10727.376289125,-0.01689136552993658,0.03293211740770184,-0.007722368212902767,10727.376289125,-2.224550312577293,1.679009497856594,-1.325974714397076,-0.0008604665054008365,-0.00119554647244513,-0.001706333830952644,0.004182225093245506,0.02078621834516525,0.00348518555983901,XArbitraryCorrectedZVertical,-0.3441080037189183,-0.6282345358081377,0.6747554155988699,0.1778093892754221,0.2409654855728149,0.9701805710792542,0.0261778999119997,34.32263946533203,40.18972015380859,10.14398765563965,1,10724.51137075,stationary,1,2016-03-02 02:39:51.092,2016-03-02 02:37:10.358,64,111.7567,0,0,2016-03-02 02:39:44.681,10726.719892125,0,-0.1816711,97.39872,192.168.1.101,100.78.239.175,2,1,0.39,0
2016-03-02 02:39:54.035,48,234B9614-18C8-49ED-8B56-CAB6C4F40872,my_iOS_device_1,1456907992.999845,40.79924380876198,-96.68579773986403,370.6483,0,166.2890625,3,10,-9999,1456907993.984748,33.92029190063477,40.02581787109375,10.3466796875,278.9501342773438,275.6730041503906,25,10727.446583125,0.24444580078125,0.9886932373046875,0.018798828125,10727.446311125,-0.009445699754293041,0.03293771004599101,-0.00761424387264555,10727.411269125,-2.224971443696672,1.678567715412429,-1.325962397008291,0.005549607332795858,-0.002259731059893966,-0.003743730718269944,0.006035634316504002,0.01212221197783947,0.0004928228445351124,XArbitraryCorrectedZVertical,-0.3440951972131515,-0.6281996973237257,0.6747946558797142,0.1778083460734817,0.2409888952970505,0.9701775908470154,0.02607272937893867,34.31842803955078,40.19240188598633,10.14761352539062,1,10724.51137075,stationary,1,2016-03-02 02:39:51.092,2016-03-02 02:37:10.358,64,111.7567,0,0,2016-03-02 02:39:44.681,10726.719892125,0,-0.1816711,97.39872,192.168.1.101,100.78.239.175,2,1,0.39,0
2016-03-02 02:39:54.076,49,234B9614-18C8-49ED-8B56-CAB6C4F40872,my_iOS_device_1,1456907992.999845,40.79924380876198,-96.68579773986403,370.6483,0,166.2890625,3,10,-9999,1456907994.037227,33.78159713745117,39.60816955566406,10.74298095703125,278.988525390625,275.7113952636719,25,10727.476882125,0.2493133544921875,0.9806060791015625,0.0249786376953125,10727.446311125,-0.009445699754293041,0.03293771004599101,-0.00761424387264555,10727.446311125,-2.225357537303185,1.678263880491006,-1.326198269176337,0.006584508344531059,-0.001189373782835901,-0.00159839924890548,0.0003043200995307416,0.01591027900576591,-0.001148910960182548,XArbitraryCorrectedZVertical,-0.3440380434288136,-0.6281920925025701,0.6747996910349929,0.1779266606497768,0.2407692819833755,0.970234751701355,0.02597496099770069,34.31867980957031,40.19362640380859,10.1419153213501,1,10724.51137075,stationary,1,2016-03-02 02:39:51.092,2016-03-02 02:37:10.358,64,111.7567,0,0,2016-03-02 02:39:44.681,10726.719892125,0,-0.1816711,97.39872,192.168.1.101,100.78.239.175,2,1,0.39,0
2016-03-02 02:39:54.107,50,234B9614-18C8-49ED-8B56-CAB6C4F40872,my_iOS_device_1,1456907993.999846,40.79924380876198,-96.68579773986403,370.6969,0,166.2890625,3,10,-9999,1456907994.078255,33.78159713745117,40.02581787109375,10.61090087890625,279.0088195800781,275.731689453125,25,10727.507177125,0.2420501708984375,0.9820098876953125,0.0203704833984375,10727.481327125,-0.01153308541669715,0.0276103226013965,-0.0108390656366225,10727.481327125,-2.227497512604219,1.675825966759748,-1.32596488353334,0.004498078487813473,-0.006516834255307913,-0.004821524024009705,0.008256272412836552,0.01042788382619619,-0.000433010165579617,XArbitraryCorrectedZVertical,-0.3439624869045532,-0.6280092607036764,0.6750415662499887,0.1778006184117636,0.2410570830106735,0.9701781868934631,0.02541164867579937,34.31051254272461,40.20409774780273,10.12803268432617,1,10724.51137075,stationary,1,2016-03-02 02:39:51.092,2016-03-02 02:37:10.358,64,111.7567,0,0,2016-03-02 02:39:44.681,10726.719892125,0,-0.1816711,97.39872,192.168.1.101,100.78.239.175,2,1,0.39,0
2016-03-02 02:39:54.126,51,234B9614-18C8-49ED-8B56-CAB6C4F40872,my_iOS_device_1,1456907993.999846,40.79924380876198,-96.68579773986403,370.6969,0,166.2890625,3,10,-9999,1456907994.078255,33.78159713745117,40.02581787109375,10.61090087890625,279.0088195800781,275.731689453125,25,10727.537468125,0.2391815185546875,0.9875030517578125,0.02410888671875,10727.516339125,-0.02326697317958627,0.04143452550388882,-0.007819307276581651,10727.481327125,-2.227497512604219,1.675825966759748,-1.32596488353334,0.004498078487813473,-0.006516834255307913,-0.004821524024009705,0.008256272412836552,0.01042788382619619,-0.000433010165579617,XArbitraryCorrectedZVertical,-0.3439624869045532,-0.6280092607036764,0.6750415662499887,0.1778006184117636,0.2410570830106735,0.9701781868934631,0.02541164867579937,34.31051254272461,40.20409774780273,10.12803268432617,1,10724.51137075,stationary,1,2016-03-02 02:39:51.092,2016-03-02 02:37:10.358,64,111.7567,0,0,2016-03-02 02:39:44.681,10726.719892125,0,-0.1816711,97.39872,192.168.1.101,100.78.239.175,2,1,0.39,0
2016-03-02 02:39:54.157,52,234B9614-18C8-49ED-8B56-CAB6C4F40872,my_iOS_device_1,1456907993.999846,40.79924380876198,-96.68579773986403,370.6969,0,166.2890625,3,10,-9999,1456907994.127508,34.44038009643555,40.26942443847656,10.90814208984375,279.0491333007812,275.7720031738281,25,10727.567744125,0.23468017578125,0.982940673828125,0.0282440185546875,10727.551350125,-0.02429335546370281,0.05206186983385002,-0.009971141437365676,10727.516339125,-2.228243959183331,1.675099487617932,-1.32611639869284,-0.007234350312501192,0.007307145744562149,-0.001802016049623489,0.001120892120525241,0.01179497689008713,-0.004850730299949646,XArbitraryCorrectedZVertical,-0.3439029335752504,-0.6279660651871344,0.6750916938933225,0.1778780427370283,0.2409292757511139,0.9702149033546448,0.02522121369838715,34.32386779785156,40.19927978515625,10.10186100006104,1,10724.51137075,stationary,1,2016-03-02 02:39:51.092,2016-03-02 02:37:10.358,64,111.7567,0,0,2016-03-02 02:39:44.681,10726.719892125,0,-0.1816711,97.39872,192.168.1.101,100.78.239.175,2,1,0.39,0
2016-03-02 02:39:54.199,53,234B9614-18C8-49ED-8B56-CAB6C4F40872,my_iOS_device_1,1456907993.999846,40.79924380876198,-96.68579773986403,370.6969,0,166.2890625,3,10,-9999,1456907994.187405,34.40570831298828,40.30424499511719,10.54486083984375,279.0790100097656,275.8018798828125,25,10727.598027125,0.240509033203125,0.9900360107421875,0.0281829833984375,10727.586367125,-0.02323474893039632,0.06482640093859982,-0.008896555937518704,10727.586367125,-2.225154561783327,1.679508059782649,-1.327020242144164,-0.007221201900392771,0.03074312396347523,-0.002878857078030705,-0.003386897500604391,0.01475024875253439,0.003795556258410215,XArbitraryCorrectedZVertical,-0.3441294176370138,-0.6282268109915482,0.6745587575075098,0.17853991301138,0.2399439066648483,0.9704334735870361,0.026187963783741,34.29443359375,40.21706008911133,10.13101768493652,1,10724.51137075,stationary,1,2016-03-02 02:39:51.092,2016-03-02 02:37:10.358,64,111.7567,0,0,2016-03-02 02:39:44.681,10726.719892125,0,-0.1816711,97.39872,192.168.1.101,100.78.239.175,2,1,0.39,0
2016-03-02 02:39:54.217,54,234B9614-18C8-49ED-8B56-CAB6C4F40872,my_iOS_device_1,1456907993.999846,40.79924380876198,-96.68579773986403,370.6969,0,166.2890625,3,10,-9999,1456907994.187405,34.40570831298828,40.30424499511719,10.54486083984375,279.0790100097656,275.8018798828125,25,10727.628322125,0.2445220947265625,0.9842376708984375,0.0192413330078125,10727.621378125,-0.01259169195000365,0.07334159220801917,-0.008746353652038234,10727.586367125,-2.225154561783327,1.679508059782649,-1.327020242144164,-0.007221201900392771,0.03074312396347523,-0.002878857078030705,-0.003386897500604391,0.01475024875253439,0.003795556258410215,XArbitraryCorrectedZVertical,-0.3441294176370138,-0.6282268109915482,0.6745587575075098,0.17853991301138,0.2399439066648483,0.9704334735870361,0.026187963783741,34.29443359375,40.21706008911133,10.13101768493652,1,10724.51137075,stationary,1,2016-03-02 02:39:51.092,2016-03-02 02:37:10.358,64,111.7567,0,0,2016-03-02 02:39:44.681,10726.719892125,0,-0.1816711,97.39872,192.168.1.101,100.78.239.175,2,1,0.39,0
2016-03-02 02:39:54.267,55,234B9614-18C8-49ED-8B56-CAB6C4F40872,my_iOS_device_1,1456907993.999846,40.79924380876198,-96.68579773986403,370.6969,0,166.2890625,3,10,-9999,1456907994.24387,34.05897903442383,39.39930725097656,10.4127197265625,279.1071472167969,275.8300170898438,25,10727.658637125,0.24951171875,0.9857025146484375,0.0271453857421875,10727.656371125,-0.01891829743559588,0.06907147971618612,-0.01309902413766374,10727.621378125,-2.224805732093338,1.681171669107065,-1.327376014801751,0.00342191569507122,0.03925858065485954,-0.002730187959969044,0.0009979716269299388,0.01753308996558189,-0.005125728901475668,XArbitraryCorrectedZVertical,-0.3444662792285777,-0.628185893608766,0.6742841558142059,0.1790707758493452,0.2395568341016769,0.9705193042755127,0.02654906921088696,34.25721740722656,40.23295593261719,10.19362926483154,1,10724.51137075,stationary,1,2016-03-02 02:39:51.092,2016-03-02 02:37:10.358,64,111.7567,0,0,2016-03-02 02:39:44.681,10726.719892125,0,-0.1816711,97.39872,192.168.1.101,100.78.239.175,2,1,0.39,0
2016-03-02 02:39:54.278,56,234B9614-18C8-49ED-8B56-CAB6C4F40872,my_iOS_device_1,1456907993.999846,40.79924380876198,-96.68579773986403,370.6969,0,166.2890625,3,10,-9999,1456907994.24387,34.05897903442383,39.39930725097656,10.4127197265625,279.1071472167969,275.8300170898438,25,10727.688932125,0.24871826171875,0.98309326171875,0.022491455078125,10727.656371125,-0.01891829743559588,0.06907147971618612,-0.01309902413766374,10727.656371125,-2.225912525749188,1.681265253577718,-1.327435344828888,-0.002903284970670938,0.03498826175928116,-0.007082354743033648,0.006260934751480818,0.0151231624186039,-0.003921096678823233,XArbitraryCorrectedZVertical,-0.34482630600604,-0.6279947360225044,0.6741655818689115,0.1794942852505126,0.2394971251487732,0.970533549785614,0.02656514011323452,34.24267578125,40.23865509033203,10.21995449066162,1,10724.51137075,stationary,1,2016-03-02 02:39:51.092,2016-03-02 02:37:10.358,64,111.7567,0,0,2016-03-02 02:39:44.681,10726.719892125,0,-0.1816711,97.39872,192.168.1.101,100.78.239.175,2,1,0.39,0
