loggingTime,loggingSample,identifierForVendor,deviceID,locationTimestamp_since1970,locationLatitude,locationLongitude,locationAltitude,locationSpeed,locationCourse,locationVerticalAccuracy,locationHorizontalAccuracy,locationFloor,locationHeadingTimestamp_since1970,locationHeadingX,locationHeadingY,locationHeadingZ,locationTrueHeading,locationMagneticHeading,locationHeadingAccuracy,accelerometerTimestamp_sinceReboot,accelerometerAccelerationX,accelerometerAccelerationY,accelerometerAccelerationZ,gyroTimestamp_sinceReboot,gyroRotationX,gyroRotationY,gyroRotationZ,motionTimestamp_sinceReboot,motionYaw,motionRoll,motionPitch,motionRotationRateX,motionRotationRateY,motionRotationRateZ,motionUserAccelerationX,motionUserAccelerationY,motionUserAccelerationZ,motionAttitudeReferenceFrame,motionQuaternionX,motionQuaternionY,motionQuaternionZ,motionQuaternionW,motionGravityX,motionGravityY,motionGravityZ,motionMagneticFieldX,motionMagneticFieldY,motionMagneticFieldZ,motionMagneticFieldCalibrationAccuracy,activityTimestamp_sinceReboot,activity,activityActivityConfidence,activityActivityStartDate,pedometerStartDate,pedometerNumberofSteps,pedometerDistance,pedometerFloorAscended,pedometerFloorDescended,pedometerEndDate,altimeterTimestamp_sinceReboot,altimeterReset,altimeterRelativeAltitude,altimeterPressure,IP_en0,IP_pdp_ip0,deviceOrientation,batteryState,batteryLevel,state
2016-03-02 02:39:34.071,1,234B9614-18C8-49ED-8B56-CAB6C4F40872,my_iOS_device_1,1456907972.999844,40.7992187468715,-96.68579950006369,370.3259,0.36,350.5078125,4,15.11521251296018,-9999,1456907974.03548,33.07842254638672,40.98606872558594,9.1033935546875,281.4000244140625,278.1228942871094,25,10707.48253975,0.207672119140625,0.9998931884765625,0.0073699951171875,10707.45418275,-0.1400963880919454,0.05832882051102448,-0.02124776444108819,10707.45418275,-2.341631345998189,1.58529453157493,-1.362431022854367,-0.1229013055562973,0.022751459851861,-0.01408152747899294,0.00946949515491724,0.01877623051404953,-0.0009543279884383082,XArbitraryCorrectedZVertical,-0.3374490003251115,-0.6225975225190052,0.6768985966106986,0.2007704834860528,0.2068390995264053,0.9783703684806824,0.00299900583922863,33.49341583251953,41.30703735351562,9.093317985534668,1,10706.41092554167,stationary,1,2016-03-02 02:39:32.996,2016-03-02 02:37:10.358,48,78.74673,0,0,2016-03-02 02:39:29.165,10707.02015975,0,-0.1650696,97.39852,192.168.1.101,100.78.239.175,2,1,0.39,0
2016-03-02 02:39:34.111,2,234B9614-18C8-49ED-8B56-CAB6C4F40872,my_iOS_device_1,1456907973.999846,40.7992187468715,-96.68579950006369,370.32,0,27.421875,4,15.11521251296018,-9999,1456907974.093877,33.07842254638672,40.84683227539062,8.57489013671875,281.0708618164062,277.7937316894531,25,10707.51283575,0.2108306884765625,0.9884796142578125,-0.001861572265625,10707.48919575,-0.002080195127460893,0.00424321456482325,-0.003229615453939092,10707.48919575,-2.335997442261932,1.590305599321651,-1.36268476322614,0.01511227618902922,-0.03133338317275047,0.003935875371098518,0.001098857494071126,0.02147035486996174,0.003339389571920037,XArbitraryCorrectedZVertical,-0.3373106541124583,-0.6230865311823641,0.6765943666556342,0.2005112472934934,0.2065732628107071,0.9784228205680847,0.004030605312436819,33.48760223388672,41.28873443603516,9.197268486022949,1,10706.41092554167,stationary,1,2016-03-02 02:39:32.996,2016-03-02 02:37:10.358,48,78.74673,0,0,2016-03-02 02:39:29.165,10707.02015975,0,-0.1650696,97.39852,192.168.1.101,100.78.239.175,2,1,0.39,0
2016-03-02 02:39:34.132,3,234B9614-18C8-49ED-8B56-CAB6C4F40872,my_iOS_device_1,1456907973.999846,40.7992187468715,-96.68579950006369,370.32,0,27.421875,4,15.11521251296018,-9999,1456907974.093877,33.07842254638672,40.84683227539062,8.57489013671875,281.0708618164062,277.7937316894531,25,10707.54313375,0.213531494140625,0.9888763427734375,-0.0088043212890625,10707.52421175,-0.02440094717174201,0.006350307619293944,-0.004620584491287478,10707.48919575,-2.335997442261932,1.590305599321651,-1.36268476322614,0.01511227618902922,-0.03133338317275047,0.003935875371098518,0.001098857494071126,0.02147035486996174,0.003339389571920037,XArbitraryCorrectedZVertical,-0.3373106541124583,-0.6230865311823641,0.6765943666556342,0.2005112472934934,0.2065732628107071,0.9784228205680847,0.004030605312436819,33.48760223388672,41.28873443603516,9.197268486022949,1,10706.41092554167,stationary,1,2016-03-02 02:39:32.996,2016-03-02 02:37:10.358,48,78.74673,0,0,2016-03-02 02:39:29.165,10707.02015975,0,-0.1650696,97.39852,192.168.1.101,100.78.239.175,2,1,0.39,0
2016-03-02 02:39:34.165,4,234B9614-18C8-49ED-8B56-CAB6C4F40872,my_iOS_device_1,1456907973.999846,40.7992187468715,-96.68579950006369,370.32,0,27.421875,4,15.11521251296018,-9999,1456907974.152821,33.00907135009766,40.63798522949219,8.31060791015625,280.3776550292969,277.1005249023438,25,10707.57342575,0.211883544921875,0.9937591552734375,0.005462646484375,10707.55922275,-0.04456587031360399,0.00738973939275187,-0.008111189732054335,10707.52421175,-2.334511356735006,1.59089341527362,-1.362543376401777,-0.00720808282494545,-0.02922612242400646,0.002545023569837213,0.003831608686596155,0.01126092951744795,-0.0138441426679492,XArbitraryCorrectedZVertical,-0.3370908030846022,-0.6232553219460386,0.6766573991071031,0.2001433445690985,0.206709161400795,0.9783936142921448,0.0041548116132617,33.48427581787109,41.27913665771484,9.252309799194336,1,10706.41092554167,stationary,1,2016-03-02 02:39:32.996,2016-03-02 02:37:10.358,48,78.74673,0,0,2016-03-02 02:39:29.165,10707.02015975,0,-0.1650696,97.39852,192.168.1.101,100.78.239.175,2,1,0.39,0
2016-03-02 02:39:34.193,5,234B9614-18C8-49ED-8B56-CAB6C4F40872,my_iOS_device_1,1456907973.999846,40.7992187468715,-96.68579950006369,370.32,0,27.421875,4,15.11521251296018,-9999,1456907974.152821,33.00907135009766,40.63798522949219,8.31060791015625,280.3776550292969,277.1005249023438,25,10707.60372275,0.2067718505859375,0.9957427978515625,-0.00128173828125,10707.59423375,-0.03928562082030388,-0.004297809367169875,-0.005897037601762458,10707.55922275,-2.332124788091851,1.592173474734289,-1.362355746621872,-0.02737253718078136,-0.0281866081058979,-0.0009449500357732177,0.009543458931148052,0.00960601307451725,-0.006345939822494984,XArbitraryCorrectedZVertical,-0.3368388889748003,-0.6234991812176601,0.6766978150612705,0.1996707314215284,0.2068872004747391,0.978354811668396,0.004423332400619984,33.49263381958008,41.27557754516602,9.237914085388184,1,10706.41092554167,stationary,1,2016-03-02 02:39:32.996,2016-03-02 02:37:10.358,48,78.74673,0,0,2016-03-02 02:39:29.165,10707.02015975,0,-0.1650696,97.39852,192.168.1.101,100.78.239.175,2,1,0.39,0
2016-03-02 02:39:34.222,6,234B9614-18C8-49ED-8B56-CAB6C4F40872,my_iOS_device_1,1456907973.999846,40.7992187468715,-96.68579950006369,370.32,0,27.421875,4,15.11521251296018,-9999,1456907974.214311,33.04374694824219,40.5335693359375,8.34368896484375,280.3343811035156,277.0572509765625,25,10707.63399975,0.202880859375,0.99591064453125,-0.0001220703125,10707.59423375,-0.03928562082030388,-0.004297809367169875,-0.005897037601762458,10707.59423375,-2.327879097410468,1.595131564430364,-1.362362856849231,-0.02209200710058212,-0.03987395763397217,0.001268878811970353,0.0009889632929116488,0.01837834529578686,-0.004256935324519873,XArbitraryCorrectedZVertical,-0.3365134277212209,-0.6239200908506224,0.6766225247245636,0.1991592132731972,0.2068662643432617,0.9783563017845154,0.005035133566707373,33.5098876953125,41.26349258422852,9.229321479797363,1,10706.41092554167,stationary,1,2016-03-02 02:39:32.996,2016-03-02 02:37:10.358,48,78.74673,0,0,2016-03-02 02:39:29.165,10707.02015975,0,-0.1650696,97.39852,192.168.1.101,100.78.239.175,2,1,0.39,0
2016-03-02 02:39:34.268,7,234B9614-18C8-49ED-8B56-CAB6C4F40872,my_iOS_device_1,1456907973.999846,40.7992187468715,-96.68579950006369,370.32,0,27.421875,4,15.11521251296018,-9999,1456907974.214311,33.04374694824219,40.5335693359375,8.34368896484375,280.3343811035156,277.0572509765625,25,10707.66430075,0.2105865478515625,0.9937286376953125,-0.0024566650390625,10707.62922275,-0.03720462674451597,-0.007477623708724485,-0.002667954780041381,10707.62922275,-2.32668850554201,1.594764024399241,-1.362579596884376,-0.02010763995349407,-0.04318519681692123,0.004524683579802513,-0.003302223049104214,0.01634987629950047,-0.00826517678797245,XArbitraryCorrectedZVertical,-0.3359494423206347,-0.6241914626500326,0.6767828213039671,0.1987158849893123,0.2066560983657837,0.9784011244773865,0.00495401956140995,33.52177429199219,41.25863265991211,9.207868576049805,1,10706.41092554167,stationary,1,2016-03-02 02:39:32.996,2016-03-02 02:37:10.358,48,78.74673,0,0,2016-03-02 02:39:29.165,10707.02015975,0,-0.1650696,97.39852,192.168.1.101,100.78.239.175,2,1,0.39,0
2016-03-02 02:39:34.286,8,234B9614-18C8-49ED-8B56-CAB6C4F40872,my_iOS_device_1,1456907973.999846,40.7992187468715,-96.68579950006369,370.32,0,27.421875,4,15.11521251296018,-9999,1456907974.273172,32.93972396850586,40.2899169921875,8.57489013671875,280.5449523925781,277.267822265625,25,10707.69460275,0.203399658203125,0.995880126953125,0.0020751953125,10707.66425475,-0.03296940166296295,-0.01385189977782914,-0.001537442897302744,10707.66425475,-2.325445816831246,1.594240271958995,-1.362655274874676,-0.01587092690169811,-0.0495595820248127,0.00565393315628171,0.001056953915394843,0.01633423566818237,-0.006446219515055418,XArbitraryCorrectedZVertical,-0.3353604643940289,-0.6244640760226102,0.6769870723875741,0.1981577162230271,0.2065846472978592,0.9784167408943176,0.004844046663492918,33.52682876586914,41.26641082763672,9.154448509216309,1,10706.41092554167,stationary,1,2016-03-02 02:39:32.996,2016-03-02 02:37:10.358,48,78.74673,0,0,2016-03-02 02:39:29.165,10707.02015975,0,-0.1650696,97.39852,192.168.1.101,100.78.239.175,2,1,0.39,0
2016-03-02 02:39:34.313,9,234B9614-18C8-49ED-8B56-CAB6C4F40872,my_iOS_device_1,1456907973.999846,40.7992187468715,-96.68579950006369,370.32,0,27.421875,4,15.11521251296018,-9999,1456907974.273172,32.93972396850586,40.2899169921875,8.57489013671875,280.5449523925781,277.267822265625,25,10707.72487275,0.2020721435546875,0.9911956787109375,-0.0025482177734375,10707.69924775,-0.04141135600240513,-0.002172606817286643,-0.005928995534843408,10707.69924775,-2.323519270701818,1.594607335688354,-1.362838306710588,-0.02431083098053932,-0.03788042441010475,0.001261151279322803,-0.003004163270816207,0.01742557995021343,-0.002840416971594095,XArbitraryCorrectedZVertical,-0.3348254671013223,-0.6247797313525988,0.677099466111633,0.1976828441283481,0.2064038217067719,0.9784545302391052,0.004915612284094095,33.54216766357422,41.26522445678711,9.103458404541016,1,10706.41092554167,stationary,1,2016-03-02 02:39:32.996,2016-03-02 02:37:10.358,48,78.74673,0,0,2016-03-02 02:39:29.165,10707.02015975,0,-0.1650696,97.39852,192.168.1.101,100.78.239.175,2,1,0.39,0
2016-03-02 02:39:34.348,10,234B9614-18C8-49ED-8B56-CAB6C4F40872,my_iOS_device_1,1456907973.999846,40.7992187468715,-96.68579950006369,370.32,0,27.421875,4,15.11521251296018,-9999,1456907974.330188,32.66232681274414,40.42915344238281,9.16949462890625,280.5710144042969,277.2938842773438,25,10707.75518075,0.1985015869140625,0.9982452392578125,0.00128173828125,10707.73428975,-0.0435714459625684,0.01272218684341753,-0.002770752798118439,10707.73428975,-2.320882608700134,1.596069298249774,-1.36302833957945,-0.026469636708498,-0.02298570610582829,0.004417566582560539,-0.004138388205319643,0.01270191557705402,-0.007760880514979362,XArbitraryCorrectedZVertical,-0.334436709017794,-0.6251067261140255,0.6770979213499758,0.1973121221108053,0.2062105387449265,0.9784937500953674,0.005212662741541862,33.5406494140625,41.26839447021484,9.094690322875977,1,10706.41092554167,stationary,1,2016-03-02 02:39:32.996,2016-03-02 02:37:10.358,48,78.74673,0,0,2016-03-02 02:39:29.165,10707.02015975,0,-0.1650696,97.39852,192.168.1.101,100.78.239.175,2,1,0.39,0
2016-03-02 02:39:34.377,11,234B9614-18C8-49ED-8B56-CAB6C4F40872,my_iOS_device_1,1456907973.999846,40.7992187468715,-96.68579950006369,370.32,0,27.421875,4,15.11521251296018,-9999,1456907974.330188,32.66232681274414,40.42915344238281,9.16949462890625,280.5710144042969,277.2938842773438,25,10707.78547575,0.20037841796875,0.996826171875,0.0007171630859375,10707.76929975,-0.04248354465727103,0.02548085899376914,-0.003827228802552873,10707.73428975,-2.320882608700134,1.596069298249774,-1.36302833957945,-0.026469636708498,-0.02298570610582829,0.004417566582560539,-0.004138388205319643,0.01270191557705402,-0.007760880514979362,XArbitraryCorrectedZVertical,-0.334436709017794,-0.6251067261140255,0.6770979213499758,0.1973121221108053,0.2062105387449265,0.9784937500953674,0.005212662741541862,33.5406494140625,41.26839447021484,9.094690322875977,1,10706.41092554167,stationary,1,2016-03-02 02:39:32.996,2016-03-02 02:37:10.358,48,78.74673,0,0,2016-03-02 02:39:29.165,10707.02015975,0,-0.1650696,97.39852,192.168.1.101,100.78.239.175,2,1,0.39,0
2016-03-02 02:39:34.427,12,234B9614-18C8-49ED-8B56-CAB6C4F40872,my_iOS_device_1,1456907973.999846,40.7992187468715,-96.68579950006369,370.32,0,27.421875,4,15.11521251296018,-9999,1456907974.424741,32.66232681274414,40.70762634277344,9.3016357421875,280.6241149902344,277.3469848632812,25,10707.81576975,0.2006683349609375,0.989837646484375,-0.0010223388671875,10707.80431075,-0.03716041827042065,0.0318652550750161,-0.00375319292424867,10707.76929975,-2.317796354344196,1.598567834104734,-1.363689788819884,-0.02537995204329491,-0.01022715400904417,0.003357594599947333,-0.006834634579718113,0.02165992558002472,-0.004824887029826641,XArbitraryCorrectedZVertical,-0.3341091121839879,-0.6254806549082217,0.6769250312794811,0.1972753241499261,0.2055498510599136,0.978630006313324,0.005709896795451641,33.54074096679688,41.27112197875977,9.081966400146484,1,10706.41092554167,stationary,1,2016-03-02 02:39:32.996,2016-03-02 02:37:10.358,48,78.74673,0,0,2016-03-02 02:39:29.165,10707.02015975,0,-0.1650696,97.39852,192.168.1.101,100.78.239.175,2,1,0.39,0
2016-03-02 02:39:34.437,13,234B9614-18C8-49ED-8B56-CAB6C4F40872,my_iOS_device_1,1456907973.999846,40.7992187468715,-96.68579950006369,370.32,0,27.421875,4,15.11521251296018,-9999,1456907974.424741,32.66232681274414,40.70762634277344,9.3016357421875,280.6241149902344,277.3469848632812,25,10707.84606975,0.210845947265625,0.99560546875,0.0005340576171875,10707.83932775,-0.03933755246156043,0.04357277754311344,0.0004721784612710489,10707.80431075,-2.315543702795624,1.600364663727124,-1.363959303303127,-0.02023343369364738,-0.003963336814194918,0.003456377191469073,-0.002669404726475477,0.01543999090790749,-0.007109025493264198,XArbitraryCorrectedZVertical,-0.3339275633026719,-0.6257220599853535,0.6768229303154569,0.197167459570791,0.2052756100893021,0.9786853790283203,0.006071427837014198,33.51944732666016,41.28630065917969,9.091588973999023,1,10706.41092554167,stationary,1,2016-03-02 02:39:32.996,2016-03-02 02:37:10.358,48,78.74673,0,0,2016-03-02 02:39:29.165,10707.02015975,0,-0.1650696,97.39852,192.168.1.101,100.78.239.175,2,1,0.39,0
2016-03-02 02:39:34.466,14,234B9614-18C8-49ED-8B56-CAB6C4F40872,my_iOS_device_1,1456907973.999846,40.7992187468715,-96.68579950006369,370.32,0,27.421875,4,15.11521251296018,-9999,1456907974.424741,32.66232681274414,40.70762634277344,9.3016357421875,280.6241149902344,277.3469848632812,25,10707.87634575,0.2059783935546875,0.99005126953125,-6.103515625e-05,10707.87433675,-0.03292945424661176,0.03931811138560285,-0.001564074508203537,10707.83932775,-2.312713132476089,1.603169377698126,-1.364075583420969,-0.02240891754627228,0.007744117639958858,0.007680230308324099,0.001749894465319812,0.01770493574440479,-0.002065822249278426,XArbitraryCorrectedZVertical,-0.3339541206566803,-0.6259363983587357,0.6766233156921265,0.1971272664242202,0.2051440328359604,0.9787092208862305,0.00664345920085907,33.50481033325195,41.29403686523438,9.110373497009277,1,10706.41092554167,stationary,1,2016-03-02 02:39:32.996,2016-03-02 02:37:10.358,48,78.74673,0,0,2016-03-02 02:39:29.165,10707.02015975,0,-0.1650696,97.39852,192.168.1.101,100.78.239.175,2,1,0.39,0
2016-03-02 02:39:34.507,15,234B9614-18C8-49ED-8B56-CAB6C4F40872,my_iOS_device_1,1456907973.999846,40.7992187468715,-96.68579950006369,370.32,0,27.421875,4,15.11521251296018,-9999,1456907974.476433,33.18244171142578,40.67280578613281,8.8721923828125,280.6390380859375,277.3619079589844,25,10707.90664775,0.2095184326171875,0.9936370849609375,0.0106353759765625,10707.87433675,-0.03292945424661176,0.03931811138560285,-0.001564074508203537,10707.87433675,-2.312539493170055,1.603390593849269,-1.363792968978323,-0.01599859446287155,0.003489237278699875,0.005644149146974087,0.002543041948229074,0.01425346080213785,-0.01055832765996456,XArbitraryCorrectedZVertical,-0.3340639235219933,-0.6258995301260493,0.6766284444857653,0.1970406590067951,0.2054189890623093,0.978651225566864,0.006697853561490774,33.51027679443359,41.28643035888672,9.124740600585938,1,10706.41092554167,stationary,1,2016-03-02 02:39:32.996,2016-03-02 02:37:10.358,48,78.74673,0,0,2016-03-02 02:39:29.165,10707.02015975,0,-0.1650696,97.39852,192.168.1.101,100.78.239.175,2,1,0.39,0
2016-03-02 02:39:34.527,16,234B9614-18C8-49ED-8B56-CAB6C4F40872,my_iOS_device_1,1456907973.999846,40.7992187468715,-96.68579950006369,370.32,0,27.421875,4,15.11521251296018,-9999,1456907974.512842,33.14776611328125,40.498779296875,8.97137451171875,280.6445007324219,277.3673706054688,25,10707.93695275,0.20697021484375,0.9956817626953125,0.012298583984375,10707.90934975,-0.04669453497290432,0.04461300826489839,-0.006029663024048403,10707.90934975,-2.309084104075183,1.606828544727671,-1.363591939900694,-0.02976329438388348,0.008784325793385506,0.001178578590042889,0.003927073907107115,0.01502721942961216,0.003224255749955773,XArbitraryCorrectedZVertical,-0.3342088674588842,-0.6261070140488758,0.6764119852972603,0.1968788104820989,0.2055913656949997,0.9786098599433899,0.00741112045943737,33.51941299438477,41.27801132202148,9.129283905029297,1,10706.41092554167,stationary,1,2016-03-02 02:39:32.996,2016-03-02 02:37:10.358,48,78.74673,0,0,2016-03-02 02:39:29.165,10707.02015975,0,-0.1650696,97.39852,192.168.1.101,100.78.239.175,2,1,0.39,0
2016-03-02 02:39:34.556,17,234B9614-18C8-49ED-8B56-CAB6C4F40872,my_iOS_device_1,1456907973.999846,40.7992187468715,-96.68579950006369,370.32,0,27.421875,4,15.11521251296018,-9999,1456907974.512842,33.14776611328125,40.498779296875,8.97137451171875,280.6445007324219,277.3673706054688,25,10707.96724275,0.2130889892578125,0.9959716796875,0.0170135498046875,10707.94436775,-0.04250405099766464,0.03718412040412235,-0.001702026252669641,10707.94436775,-2.303423664291936,1.6125564038194,-1.363475200137103,-0.02574001997709274,0.001260394346900284,0.005528893321752548,0.001310536521486938,0.01709591969847679,0.003705224022269249,XArbitraryCorrectedZVertical,-0.334409944237568,-0.6264716028313851,0.6760215859247405,0.1967184165366256,0.2056596726179123,0.9785858392715454,0.008593359962105751,33.52354431152344,41.26856994628906,9.15675163269043,1,10706.41092554167,stationary,1,2016-03-02 02:39:32.996,2016-03-02 02:37:10.358,48,78.74673,0,0,2016-03-02 02:39:29.165,10707.02015975,0,-0.1650696,97.39852,192.168.1.101,100.78.239.175,2,1,0.39,0
2016-03-02 02:39:34.588,18,234B9614-18C8-49ED-8B56-CAB6C4F40872,my_iOS_device_1,1456907973.999846,40.7992187468715,-96.68579950006369,370.32,0,27.421875,4,15.11521251296018,-9999,1456907974.575824,33.4598388671875,40.0462646484375,8.74005126953125,280.6487121582031,277.37158203125,25,10707.99752875,0.2121429443359375,0.9896240234375,0.012176513671875,10707.97937775,-0.03614948232062657,0.02017743999898535,-0.0005352953791059269,10707.94436775,-2.303423664291936,1.6125564038194,-1.363475200137103,-0.02574001997709274,0.001260394346900284,0.005528893321752548,0.001310536521486938,0.01709591969847679,0.003705224022269249,XArbitraryCorrectedZVertical,-0.334409944237568,-0.6264716028313851,0.6760215859247405,0.1967184165366256,0.2056596726179123,0.9785858392715454,0.008593359962105751,33.52354431152344,41.26856994628906,9.15675163269043,1,10706.41092554167,stationary,1,2016-03-02 02:39:32.996,2016-03-02 02:37:10.358,48,78.74673,0,0,2016-03-02 02:39:29.165,10707.02015975,0,-0.1650696,97.39852,192.168.1.101,100.78.239.175,2,1,0.39,0
2016-03-02 02:39:34.629,19,234B9614-18C8-49ED-8B56-CAB6C4F40872,my_iOS_device_1,1456907973.999846,40.7992187468715,-96.68579950006369,370.32,0,27.421875,4,15.11521251296018,-9999,1456907974.575824,33.4598388671875,40.0462646484375,8.74005126953125,280.6487121582031,277.37158203125,25,10708.02784275,0.21484375,0.9947357177734375,0.0162200927734375,10708.01438775,-0.04683008987238935,0.02017823894731237,0.002506833534091587,10708.01438775,-2.293050094899334,1.621896747243442,-1.362377691237152,-0.0300688948482275,-0.01574446074664593,0.009739610366523266,0.005988301243633032,0.012927888892591,0.001973983366042376,XArbitraryCorrectedZVertical,-0.3346635493261421,-0.6271241338980288,0.6755686992342834,0.195761492765946,0.2066429257392883,0.9783593416213989,0.01056874077767134,33.54198455810547,41.23566436767578,9.23709774017334,1,10708.03016975,unknown,1,2016-03-02 02:39:34.612,2016-03-02 02:37:10.358,48,78.74673,0,0,2016-03-02 02:39:29.165,10707.02015975,0,-0.1650696,97.39852,192.168.1.101,100.78.239.175,2,1,0.39,0
2016-03-02 02:39:34.668,20,234B9614-18C8-49ED-8B56-CAB6C4F40872,my_iOS_device_1,1456907973.999846,40.7992187468715,-96.68579950006369,370.32,0,27.421875,4,15.11521251296018,-9999,1456907974.629147,33.18244171142578,39.90704345703125,8.87213134765625,280.6513366699219,277.3742065429688,25,10708.05813675,0.2095489501953125,0.992156982421875,0.015289306640625,10708.04940575,-0.05207598458762744,0.01909619659641318,-0.002897519266006211,10708.01438775,-2.293050094899334,1.621896747243442,-1.362377691237152,-0.0300688948482275,-0.01574446074664593,0.009739610366523266,0.005988301243633032,0.012927888892591,0.001973983366042376,XArbitraryCorrectedZVertical,-0.3346635493261421,-0.6271241338980288,0.6755686992342834,0.195761492765946,0.2066429257392883,0.9783593416213989,0.01056874077767134,33.54198455810547,41.23566436767578,9.23709774017334,1,10708.03016975,unknown,1,2016-03-02 02:39:34.612,2016-03-02 02:37:10.358,48,78.74673,0,0,2016-03-02 02:39:29.165,10707.02015975,0,-0.1650696,97.39852,192.168.1.101,100.78.239.175,2,1,0.39,0
2016-03-02 02:39:34.677,21,234B9614-18C8-49ED-8B56-CAB6C4F40872,my_iOS_device_1,1456907973.999846,40.7992187468715,-96.68579950006369,370.32,0,27.421875,4,15.11521251296018,-9999,1456907974.629147,33.18244171142578,39.90704345703125,8.87213134765625,280.6513366699219,277.3742065429688,25,10708.08842975,0.2115020751953125,0.994964599609375,0.0144195556640625,10708.04940575,-0.05207598458762744,0.01909619659641318,-0.002897519266006211,10708.04940575,-2.285017971785844,1.62924814362735,-1.361914432548996,-0.0353170819580555,-0.01682578399777412,0.004336054902523756,0.002109620720148087,0.01392411626875401,0.008576885797083378,XArbitraryCorrectedZVertical,-0.3347738864830614,-0.6276810183951048,0.6751606785698451,0.1951948825881293,0.2070120871067047,0.9782633781433105,0.01211403217166662,33.58576583862305,41.18666839599609,9.296412467956543,1,10708.03016975,unknown,1,2016-03-02 02:39:34.612,2016-03-02 02:37:10.358,48,78.74673,0,0,2016-03-02 02:39:29.165,10707.02015975,0,-0.1650696,97.39852,192.168.1.101,100.78.239.175,2,1,0.39,0
2016-03-02 02:39:34.707,22,234B9614-18C8-49ED-8B56-CAB6C4F40872,my_iOS_device_1,1456907973.999846,40.7992187468715,-96.68579950006369,370.32,0,27.421875,4,15.11521251296018,-9999,1456907974.682354,33.07842254638672,40.63798522949219,8.97125244140625,280.6536865234375,277.3765563964844,25,10708.11870075,0.2060699462890625,0.993408203125,0.0255279541015625,10708.11942675,-0.05106052126398022,0.03293291635602887,0.001373125858044855,10708.08440075,-2.278835555273406,1.634834218058391,-1.361659502917309,-0.04172592610120773,-0.01363433245569468,0.00637254910543561,0.002831918187439442,0.01823421381413937,-0.002727098762989044,XArbitraryCorrectedZVertical,-0.3347996142112405,-0.6281339894252802,0.6748482507866136,0.1947735815322774,0.2071900516748428,0.9782105088233948,0.01328618079423904,33.59335708618164,41.1735954284668,9.32684326171875,1,10708.03016975,unknown,1,2016-03-02 02:39:34.612,2016-03-02 02:37:10.358,48,78.74673,0,0,2016-03-02 02:39:29.165,10707.02015975,0,-0.1650696,97.39852,192.168.1.101,100.78.239.175,2,1,0.39,0
2016-03-02 02:39:34.748,23,234B9614-18C8-49ED-8B56-CAB6C4F40872,my_iOS_device_1,1456907973.999846,40.7992187468715,-96.68579950006369,370.32,0,27.421875,4,15.11521251296018,-9999,1456907974.741228,33.49451446533203,40.98605346679688,9.4337158203125,280.6717224121094,277.3945922851562,25,10708.14900375,0.2176666259765625,0.99505615234375,0.0200347900390625,10708.11942675,-0.05106052126398022,0.03293291635602887,0.001373125858044855,10708.11942675,-2.270673761188837,1.642595508796011,-1.361351043562908,-0.03447740525007248,-0.0030611427500844,0.008626134134829044,-0.001311701838858426,0.01526180282235146,0.0106124822050333,XArbitraryCorrectedZVertical,-0.3349517534667413,-0.628701088584213,0.6743660653627261,0.1943519332287509,0.2073816508054733,0.9781463742256165,0.0149154718965292,33.60736083984375,41.1519775390625,9.371694564819336,1,10708.03016975,unknown,1,2016-03-02 02:39:34.612,2016-03-02 02:37:10.358,48,78.74673,0,0,2016-03-02 02:39:29.165,10707.02015975,0,-0.1650696,97.39852,192.168.1.101,100.78.239.175,2,1,0.39,0
2016-03-02 02:39:34.769,24,234B9614-18C8-49ED-8B56-CAB6C4F40872,my_iOS_device_1,1456907973.999846,40.7992187468715,-96.68579950006369,370.32,0,27.421875,4,15.11521251296018,-9999,1456907974.741228,33.49451446533203,40.98605346679688,9.4337158203125,280.6717224121094,277.3945922851562,25,10708.17930675,0.21405029296875,0.99755859375,0.0139312744140625,10708.15443175,-0.04782557948786097,0.03292652476941268,-0.001777127395409876,10708.15443175,-2.263794764405229,1.64922553569983,-1.360741700403036,-0.03124403208494186,-0.003067031037062407,0.005476856604218483,0.009794268757104874,0.01703662611544132,0.003698015119880438,XArbitraryCorrectedZVertical,-0.3352189938877779,-0.629123687019389,0.6739675562466518,0.1939055071288317,0.2078723609447479,0.9780195355415344,0.01633677445352077,33.62031555175781,41.1240119934082,9.447684288024902,1,10708.03016975,unknown,1,2016-03-02 02:39:34.612,2016-03-02 02:37:10.358,48,78.74673,0,0,2016-03-02 02:39:29.165,10707.02015975,0,-0.1650696,97.39852,192.168.1.101,100.78.239.175,2,1,0.39,0
2016-03-02 02:39:34.798,25,234B9614-18C8-49ED-8B56-CAB6C4F40872,my_iOS_device_1,1456907973.999846,40.7992187468715,-96.68579950006369,370.32,0,27.421875,4,15.11521251296018,-9999,1456907974.741228,33.49451446533203,40.98605346679688,9.4337158203125,280.6717224121094,277.3945922851562,25,10708.20960675,0.21148681640625,0.9911346435546875,0.024017333984375,10708.18942875,-0.03507702734965167,0.03187564140326741,-0.0005257079991816417,10708.18942875,-2.259467375973491,1.653337313699813,-1.360394411163723,-0.01849606819450855,-0.004117541015148163,0.00672861747443676,0.006320366635918617,0.01361483708024025,0.0043565658852458,XArbitraryCorrectedZVertical,-0.3353544314819362,-0.6294021657743799,0.6737222388081611,0.1936198955150106,0.2081419080495834,0.9779470562934875,0.01721936278045177,33.63515090942383,41.10465240478516,9.479070663452148,1,10708.03016975,unknown,1,2016-03-02 02:39:34.612,2016-03-02 02:37:10.358,48,78.74673,0,0,2016-03-02 02:39:29.165,10707.02015975,0,-0.1650696,97.39852,192.168.1.101,100.78.239.175,2,1,0.39,0
2016-03-02 02:39:34.829,26,234B9614-18C8-49ED-8B56-CAB6C4F40872,my_iOS_device_1,1456907973.999846,40.7992187468715,-96.68579950006369,370.32,0,27.421875,4,15.11521251296018,-9999,1456907974.799759,33.52919006347656,40.88162231445312,9.2685546875,280.6740112304688,277.3968811035156,25,10708.23990375,0.2130126953125,0.9893646240234375,0.0206146240234375,10708.22446375,-0.03610820332373035,0.03612258439361677,-0.002674346366657571,10708.18942875,-2.259467375973491,1.653337313699813,-1.360394411163723,-0.01849606819450855,-0.004117541015148163,0.00672861747443676,0.006320366635918617,0.01361483708024025,0.0043565658852458,XArbitraryCorrectedZVertical,-0.3353544314819362,-0.6294021657743799,0.6737222388081611,0.1936198955150106,0.2081419080495834,0.9779470562934875,0.01721936278045177,33.63515090942383,41.10465240478516,9.479070663452148,1,10708.03016975,unknown,1,2016-03-02 02:39:34.612,2016-03-02 02:37:10.358,48,78.74673,0,0,2016-03-02 02:39:29.165,10707.02015975,0,-0.1650696,97.39852,192.168.1.101,100.78.239.175,2,1,0.39,0
2016-03-02 02:39:34.859,27,234B9614-18C8-49ED-8B56-CAB6C4F40872,my_iOS_device_1,1456907973.999846,40.7992187468715,-96.68579950006369,370.32,0,27.421875,4,15.11521251296018,-9999,1456907974.799759,33.52919006347656,40.88162231445312,9.2685546875,280.6740112304688,277.3968811035156,25,10708.27019975,0.216888427734375,0.989105224609375,0.0248565673828125,10708.25948275,-0.04892013869588354,0.03080478432894655,0.0003395530389851029,10708.22446375,-2.255226417488415,1.657488434888772,-1.360082442355709,-0.01952855847775936,0.000129893101984635,0.004580258391797543,0.005021591205149889,0.01450401544570923,-0.003598539857193828,XArbitraryCorrectedZVertical,-0.3355179897336973,-0.6296685657540783,0.6734581189510733,0.1933890841932914,0.2083725780248642,0.9778818488121033,0.0181096475571394,33.65402221679688,41.07437515258789,9.543127059936523,1,10708.03016975,unknown,1,2016-03-02 02:39:34.612,2016-03-02 02:37:10.358,48,78.74673,0,0,2016-03-02 02:39:29.165,10707.02015975,0,-0.1650696,97.39852,192.168.1.101,100.78.239.175,2,1,0.39,0
2016-03-02 02:39:34.908,28,234B9614-18C8-49ED-8B56-CAB6C4F40872,my_iOS_device_1,1456907973.999846,40.7992187468715,-96.68579950006369,370.32,0,27.421875,4,15.11521251296018,-9999,1456907974.85986,33.11309432983398,40.95126342773438,9.07037353515625,280.6657104492188,277.3885803222656,25,10708.30047775,0.2165374755859375,0.9932861328125,0.0294342041015625,10708.25948275,-0.04892013869588354,0.03080478432894655,0.0003395530389851029,10708.25948275,-2.251518850914668,1.66108506970559,-1.359672355634137,-0.0323406420648098,-0.00518769072368741,0.007594892755150795,0.005436387844383717,0.01126345433294773,0.0008344881935045123,XArbitraryCorrectedZVertical,-0.3356935432868999,-0.6298868216070013,0.6732409136257037,0.1931297729034074,0.2087054550647736,0.9777960181236267,0.01889512687921524,33.6591796875,41.06608963012695,9.560583114624023,1,10708.03016975,unknown,1,2016-03-02 02:39:34.612,2016-03-02 02:37:10.358,48,78.74673,0,0,2016-03-02 02:39:29.165,10707.02015975,0,-0.1650696,97.39852,192.168.1.101,100.78.239.175,2,1,0.39,0
2016-03-02 02:39:34.920,29,234B9614-18C8-49ED-8B56-CAB6C4F40872,my_iOS_device_1,1456907973.999846,40.7992187468715,-96.68579950006369,370.32,0,27.421875,4,15.11521251296018,-9999,1456907974.85986,33.11309432983398,40.95126342773438,9.07037353515625,280.6657104492188,277.3885803222656,25,10708.33078075,0.2120361328125,0.9961395263671875,0.0257415771484375,10708.29449375,-0.04466946728000807,0.02549097900591145,0.0004040015373650205,10708.29449375,-2.245070721636385,1.667128873168124,-1.358924030745101,-0.02826282568275928,-0.01052290387451649,0.007678304798901081,0.008442471735179424,0.01535731367766857,0.007101970259100199,XArbitraryCorrectedZVertical,-0.3359375091411073,-0.6302850548582878,0.6728978046371634,0.1926013605580641,0.2093157023191452,0.9776389002799988,0.02022652141749859,33.67922592163086,41.03994369506836,9.602161407470703,1,10708.03016975,unknown,1,2016-03-02 02:39:34.612,2016-03-02 02:37:10.358,48,78.74673,0,0,2016-03-02 02:39:29.165,10708.33201875,0,-0.1650696,97.39852,192.168.1.101,100.78.239.175,2,1,0.39,0
2016-03-02 02:39:34.949,30,234B9614-18C8-49ED-8B56-CAB6C4F40872,my_iOS_device_1,1456907973.999846,40.7992187468715,-96.68579950006369,370.32,0,27.421875,4,15.11521251296018,-9999,1456907974.918228,33.35581207275391,40.98606872558594,9.2354736328125,280.6561279296875,277.3789978027344,25,10708.36107675,0.2106781005859375,0.9926300048828125,0.0291748046875,10708.32950475,-0.03617558129930935,0.02443689984645808,0.001593635596303416,10708.32950475,-2.239544801655113,1.672134534220405,-1.358444729349864,-0.01977111399173737,-0.01157632283866405,0.008868139237165451,0.004311264492571354,0.01817428320646286,0.007288801018148661,XArbitraryCorrectedZVertical,-0.3360342356148037,-0.6306676673550845,0.6726193865507688,0.1921521446242965,0.2096779942512512,0.977537989616394,0.02132142893970013,33.69514083862305,41.02067565917969,9.62861442565918,1,10708.03016975,unknown,1,2016-03-02 02:39:34.612,2016-03-02 02:37:10.358,48,78.74673,0,0,2016-03-02 02:39:29.165,10708.33201875,0,-0.1650696,97.39852,192.168.1.101,100.78.239.175,2,1,0.39,0
2016-03-02 02:39:34.988,31,234B9614-18C8-49ED-8B56-CAB6C4F40872,my_iOS_device_1,1456907973.999846,40.7992187468715,-96.68579950006369,370.32,0,27.421875,4,15.11521251296018,-9999,1456907974.976932,33.25178909301758,40.88165283203125,9.598876953125,280.6561889648438,277.3790588378906,25,10708.39137575,0.2082977294921875,0.9943389892578125,0.0278472900390625,10708.36451475,-0.03609515383438895,0.0339928544698804,-0.003738811854362243,10708.36451475,-2.234986956443322,1.676408602362095,-1.35819754451429,-0.01969186216592789,-0.002019849373027682,0.003535396186634898,0.0008528716862201691,0.01514413394033909,0.006931924726814032,XArbitraryCorrectedZVertical,-0.3361137525773031,-0.6309904796390611,0.6723543268244846,0.1918807419561526,0.2098252326250076,0.9774858951568604,0.02224287949502468,33.71927261352539,40.9901008605957,9.67424201965332,1,10708.03016975,unknown,1,2016-03-02 02:39:34.612,2016-03-02 02:37:10.358,48,78.74673,0,0,2016-03-02 02:39:29.165,10708.33201875,0,-0.1650696,97.39852,192.168.1.101,100.78.239.175,2,1,0.39,0
2016-03-02 02:39:35.010,32,234B9614-18C8-49ED-8B56-CAB6C4F40872,my_iOS_device_1,1456907973.999846,40.7992187468715,-96.68579950006369,370.32,0,27.421875,4,15.11521251296018,-9999,1456907974.976932,33.25178909301758,40.88165283203125,9.598876953125,280.6561889648438,277.3790588378906,25,10708.42167175,0.2159881591796875,0.9919891357421875,0.0273284912109375,10708.39953175,-0.03502988939835726,0.03612045386474471,-0.003724430784475815,10708.36451475,-2.234986956443322,1.676408602362095,-1.35819754451429,-0.01969186216592789,-0.002019849373027682,0.003535396186634898,0.0008528716862201691,0.01514413394033909,0.006931924726814032,XArbitraryCorrectedZVertical,-0.3361137525773031,-0.6309904796390611,0.6723543268244846,0.1918807419561526,0.2098252326250076,0.9774858951568604,0.02224287949502468,33.71927261352539,40.9901008605957,9.67424201965332,1,10708.03016975,unknown,1,2016-03-02 02:39:34.612,2016-03-02 02:37:10.358,48,78.74673,0,0,2016-03-02 02:39:29.165,10708.33201875,0,-0.1650696,97.39852,192.168.1.101,100.78.239.175,2,1,0.39,0
2016-03-02 02:39:35.044,33,234B9614-18C8-49ED-8B56-CAB6C4F40872,my_iOS_device_1,1456907973.999846,40.7992187468715,-96.68579950006369,370.32,0,27.421875,4,15.11521251296018,-9999,1456907975.035284,33.14776611328125,40.91647338867188,9.6319580078125,280.6633911132812,277.3862609863281,25,10708.45196575,0.215789794921875,0.994140625,0.0324859619140625,10708.43454275,-0.04354667856443066,0.04568759376474536,-0.002787264396876931,10708.39953175,-2.231089460137626,1.680237967123591,-1.358114080280325,-0.01862777024507523,0.0001082214366761036,0.003548913868144155,-0.001521881320513785,0.01687073335051537,0.004792166873812675,XArbitraryCorrectedZVertical,-0.3361979782924745,-0.6312673609972842,0.6720896263929662,0.1917497651276745,0.2098196148872375,0.9774682521820068,0.02305512316524982,33.72841262817383,40.96897888183594,9.731687545776367,1,10708.03016975,unknown,1,2016-03-02 02:39:34.612,2016-03-02 02:37:10.358,48,78.74673,0,0,2016-03-02 02:39:29.165,10708.33201875,0,-0.1650696,97.39852,192.168.1.101,100.78.239.175,2,1,0.39,0
2016-03-02 02:39:35.073,34,234B9614-18C8-49ED-8B56-CAB6C4F40872,my_iOS_device_1,1456907973.999846,40.7992187468715,-96.68579950006369,370.32,0,27.421875,4,15.11521251296018,-9999,1456907975.035284,33.14776611328125,40.91647338867188,9.6319580078125,280.6633911132812,277.3862609863281,25,10708.48226075,0.2080230712890625,0.99627685546875,0.038330078125,10708.46956075,-0.03712073717017847,0.04568359902311024,-0.005891178647364283,10708.43454275,-2.225427858834699,1.686066311253746,-1.357854483380387,-0.02727674692869186,0.009664305485785007,0.004497759975492954,0.003506209934130311,0.01610158756375313,0.01031538285315037,XArbitraryCorrectedZVertical,-0.3364526809257405,-0.6316272621841131,0.6716676363133166,0.1915964026096092,0.20993372797966,0.9774134159088135,0.02430680952966213,33.72518157958984,40.96602630615234,9.755279541015625,1,10708.03016975,unknown,1,2016-03-02 02:39:34.612,2016-03-02 02:37:10.358,48,78.74673,0,0,2016-03-02 02:39:29.165,10708.33201875,0,-0.1650696,97.39852,192.168.1.101,100.78.239.175,2,1,0.39,0
2016-03-02 02:39:35.101,35,234B9614-18C8-49ED-8B56-CAB6C4F40872,my_iOS_device_1,1456907974.999845,40.7992187468715,-96.68579950006369,370.4934,0,27.421875,4,15.11521251296018,-9999,1456907975.073161,32.835693359375,40.74241638183594,9.6649169921875,280.6700134277344,277.3928833007812,25,10708.51255475,0.210052490234375,0.991729736328125,0.03106689453125,10708.46956075,-0.03712073717017847,0.04568359902311024,-0.005891178647364283,10708.46956075,-2.220264184336842,1.691538966590796,-1.35758705301411,-0.0208528321236372,0.009660934098064899,0.001393967773765326,0.004100059624761343,0.01669219695031643,0.006281980779021978,XArbitraryCorrectedZVertical,-0.3367457687373757,-0.6319380478955979,0.671256620887133,0.1914971012170694,0.2100570499897003,0.9773568511009216,0.02548681758344173,33.72944641113281,40.94464874267578,9.830015182495117,1,10708.03016975,unknown,1,2016-03-02 02:39:34.612,2016-03-02 02:37:10.358,48,78.74673,0,0,2016-03-02 02:39:29.165,10708.33201875,0,-0.1650696,97.39852,192.168.1.101,100.78.239.175,2,1,0.39,0
2016-03-02 02:39:35.147,36,234B9614-18C8-49ED-8B56-CAB6C4F40872,my_iOS_device_1,1456907974.999845,40.7992187468715,-96.68579950006369,370.4934,0,27.421875,4,15.11521251296018,-9999,1456907975.124706,33.07841491699219,40.63798522949219,9.830078125,280.6853637695312,277.4082336425781,25,10708.54284875,0.21368408203125,0.9971466064453125,0.0333404541015625,10708.53958475,-0.02648566967305604,0.0435647880598432,-0.005735650039703655,10708.50455475,-2.215030235686428,1.697034903219099,-1.357645771211109,-0.007074613124132156,0.006490881089121103,0.004791670013219118,0.0006381280836649239,0.01538277789950371,0.007683354429900646,XArbitraryCorrectedZVertical,-0.3369164233166967,-0.6323006838837363,0.6708288705796582,0.1914988126763232,0.2098568677902222,0.9773693084716797,0.02663366310298443,33.73025131225586,40.93611526489258,9.862730979919434,1,10708.03016975,unknown,1,2016-03-02 02:39:34.612,2016-03-02 02:37:10.358,48,78.74673,0,0,2016-03-02 02:39:29.165,10708.33201875,0,-0.1650696,97.39852,192.168.1.101,100.78.239.175,2,1,0.39,0
2016-03-02 02:39:35.162,37,234B9614-18C8-49ED-8B56-CAB6C4F40872,my_iOS_device_1,1456907974.999845,40.7992187468715,-96.68579950006369,370.4934,0,27.421875,4,15.11521251296018,-9999,1456907975.124706,33.07841491699219,40.63798522949219,9.830078125,280.6853637695312,277.4082336425781,25,10708.57314175,0.2121429443359375,0.99127197265625,0.035186767578125,10708.53958475,-0.02648566967305604,0.0435647880598432,-0.005735650039703655,10708.53958475,-2.213266209276747,1.699065411901187,-1.357522192160248,-0.01022149994969368,0.007543440908193588,0.001547813066281378,0.003121069865301251,0.01749938167631626,0.002954123541712761,XArbitraryCorrectedZVertical,-0.3370799227061178,-0.6323881026235149,0.6706624175504778,0.1915054439278288,0.2099221497774124,0.9773431420326233,0.02707517333328724,33.71917724609375,40.93072509765625,9.922792434692383,1,10708.03016975,unknown,1,2016-03-02 02:39:34.612,2016-03-02 02:37:10.358,48,78.74673,0,0,2016-03-02 02:39:29.165,10708.33201875,0,-0.1650696,97.39852,192.168.1.101,100.78.239.175,2,1,0.39,0
2016-03-02 02:39:35.192,38,234B9614-18C8-49ED-8B56-CAB6C4F40872,my_iOS_device_1,1456907974.999845,40.7992187468715,-96.68579950006369,370.4934,0,27.421875,4,15.11521251296018,-9999,1456907975.184032,33.21711730957031,40.22030639648438,9.7640380859375,280.6902465820312,277.4131164550781,25,10708.60343375,0.210968017578125,0.987884521484375,0.0291595458984375,10708.57459775,-0.02117213066612994,0.03718838146186648,-0.005655222574783262,10708.57459775,-2.21064076090478,1.7017853934144,-1.357451303735824,-0.00502285547554493,0.001178166596218944,0.00163565156981349,0.002226533368229866,0.01394383143633604,0.007531661540269852,XArbitraryCorrectedZVertical,-0.3371847210612606,-0.6325614728008602,0.6704591169256243,0.1914602296617693,0.2099164128303528,0.9773281216621399,0.02765510603785515,33.71744918823242,40.9212646484375,9.96756649017334,1,10708.03016975,unknown,1,2016-03-02 02:39:34.612,2016-03-02 02:37:10.358,48,78.74673,0,0,2016-03-02 02:39:29.165,10708.33201875,0,-0.1650696,97.39852,192.168.1.101,100.78.239.175,2,1,0.39,0
2016-03-02 02:39:35.227,39,234B9614-18C8-49ED-8B56-CAB6C4F40872,my_iOS_device_1,1456907974.999845,40.7992187468715,-96.68579950006369,370.4934,0,27.421875,4,15.11521251296018,-9999,1456907975.184032,33.21711730957031,40.22030639648438,9.7640380859375,280.6902465820312,277.4131164550781,25,10708.63370975,0.2111358642578125,0.9952545166015625,0.0298614501953125,10708.60960975,-0.02438922926294566,0.04144544446435815,-0.003572630602341298,10708.60960975,-2.2090098941276,1.703520820690331,-1.357334344148254,-0.008240696974098682,0.005435592960566282,0.003717996645718813,0.0009866150794550776,0.01058115065097809,0.001125060371123254,XArbitraryCorrectedZVertical,-0.3372887264186656,-0.6326559553344162,0.6703288334087253,0.1914210341411005,0.2099813967943192,0.9773033857345581,0.02803448587656021,33.71807861328125,40.91739654541016,9.981296539306641,1,10708.03016975,unknown,1,2016-03-02 02:39:34.612,2016-03-02 02:37:10.358,48,78.74673,0,0,2016-03-02 02:39:29.165,10708.33201875,0,-0.1650696,97.39852,192.168.1.101,100.78.239.175,2,1,0.39,0
2016-03-02 02:39:35.253,40,234B9614-18C8-49ED-8B56-CAB6C4F40872,my_iOS_device_1,1456907974.999845,40.7992187468715,-96.68579950006369,370.4934,0,27.421875,4,15.11521251296018,-9999,1456907975.244462,33.28646850585938,40.49874877929688,9.830078125,280.6985168457031,277.42138671875,25,10708.66399275,0.20794677734375,0.9975433349609375,0.0334014892578125,10708.64462075,-0.02757623413944349,0.04676004873572027,-0.003621632766398756,10708.64462075,-2.206831370535175,1.70585714469097,-1.357292123967014,-0.0114282239228487,0.0107506001368165,0.00366826169192791,-0.002528239274397492,0.0172276683151722,0.002795744920149446,XArbitraryCorrectedZVertical,-0.3373962453037156,-0.6327946335254782,0.6701454887032365,0.1914151232452405,0.2099562138319016,0.9772944450378418,0.0285305492579937,33.72154235839844,40.90879440307617,10.00484085083008,1,10708.03016975,unknown,1,2016-03-02 02:39:34.612,2016-03-02 02:37:10.358,48,78.74673,0,0,2016-03-02 02:39:29.165,10708.33201875,0,-0.1650696,97.39852,192.168.1.101,100.78.239.175,2,1,0.39,0
2016-03-02 02:39:35.284,41,234B9614-18C8-49ED-8B56-CAB6C4F40872,my_iOS_device_1,1456907974.999845,40.7992187468715,-96.68579950006369,370.4934,0,27.421875,4,15.11521251296018,-9999,1456907975.244462,33.28646850585938,40.49874877929688,9.830078125,280.6985168457031,277.42138671875,25,10708.69430575,0.2123260498046875,0.9932861328125,0.031524658203125,10708.67963875,-0.01800163738839061,0.04889403971720076,-0.003483681021932652,10708.64462075,-2.206831370535175,1.70585714469097,-1.357292123967014,-0.0114282239228487,0.0107506001368165,0.00366826169192791,-0.002528239274397492,0.0172276683151722,0.002795744920149446,XArbitraryCorrectedZVertical,-0.3373962453037156,-0.6327946335254782,0.6701454887032365,0.1914151232452405,0.2099562138319016,0.9772944450378418,0.0285305492579937,33.72154235839844,40.90879440307617,10.00484085083008,1,10708.03016975,unknown,1,2016-03-02 02:39:34.612,2016-03-02 02:37:10.358,48,78.74673,0,0,2016-03-02 02:39:29.165,10708.33201875,0,-0.1650696,97.39852,192.168.1.101,100.78.239.175,2,1,0.39,0
2016-03-02 02:39:35.313,42,234B9614-18C8-49ED-8B56-CAB6C4F40872,my_iOS_device_1,1456907974.999845,40.7992187468715,-96.68579950006369,370.4934,0,27.421875,4,15.11521251296018,-9999,1456907975.300396,33.91061019897461,40.2899169921875,9.5657958984375,280.6852416992188,277.4081115722656,25,10708.72459575,0.2144775390625,0.99005126953125,0.0189056396484375,10708.67963875,-0.01800163738839061,0.04889403971720076,-0.003483681021932652,10708.67963875,-2.20482196427986,1.708367175287113,-1.357466191527046,-0.001854793634265661,0.01288510393351316,0.003804710926488042,-0.001371926977299154,0.02048669941723347,0.004260552115738392,XArbitraryCorrectedZVertical,-0.3375444726614713,-0.632914521713144,0.6699053374711008,0.1915979540809914,0.2097154259681702,0.977331280708313,0.02903412654995918,33.71538543701172,40.90916061401367,10.024094581604,1,10708.03016975,unknown,1,2016-03-02 02:39:34.612,2016-03-02 02:37:10.358,48,78.74673,0,0,2016-03-02 02:39:29.165,10708.33201875,0,-0.1650696,97.39852,192.168.1.101,100.78.239.175,2,1,0.39,0
2016-03-02 02:39:35.344,43,234B9614-18C8-49ED-8B56-CAB6C4F40872,my_iOS_device_1,1456907974.999845,40.7992187468715,-96.68579950006369,370.4934,0,27.421875,4,15.11521251296018,-9999,1456907975.300396,33.91061019897461,40.2899169921875,9.5657958984375,280.6852416992188,277.4081115722656,25,10708.75488875,0.2232513427734375,0.996917724609375,0.0192413330078125,10708.71463875,-0.009476059790719945,0.05102430227315515,-0.00442670636392971,10708.71463875,-2.205796107101269,1.707899148224013,-1.357364378338184,0.006670987233519554,0.01501558441668749,0.002861648099496961,0.002422186778858304,0.01176497433334589,-0.006748031359165907,XArbitraryCorrectedZVertical,-0.3377291978837374,-0.6327825642961988,0.6698962473508944,0.1917400140938331,0.2098275721073151,0.9773097038269043,0.02894956991076469,33.69905853271484,40.91366577148438,10.06052017211914,1,10708.03016975,unknown,1,2016-03-02 02:39:34.612,2016-03-02 02:37:10.358,48,78.74673,0,0,2016-03-02 02:39:29.165,10708.33201875,0,-0.1650696,97.39852,192.168.1.101,100.78.239.175,2,1,0.39,0
2016-03-02 02:39:35.389,44,234B9614-18C8-49ED-8B56-CAB6C4F40872,my_iOS_device_1,1456907974.999845,40.7992187468715,-96.68579950006369,370.4934,0,27.421875,4,15.11521251296018,-9999,1456907975.359089,33.73723602294922,39.69818115234375,9.20245361328125,280.6562805175781,277.379150390625,25,10708.78518175,0.2202301025390625,0.98834228515625,0.027496337890625,10708.74966075,-0.01903840600075846,0.04569718114466965,-0.00562859096388247,10708.74966075,-2.208731107936631,1.705346513228822,-1.357149522991168,-0.002971500158309937,0.009719047695398331,0.001662329537793994,0.007206813432276249,0.01608296670019627,-0.01043665874749422,XArbitraryCorrectedZVertical,-0.3378726276817421,-0.6325054168182995,0.670057148015851,0.1918395255201254,0.2101088613271713,0.9772642254829407,0.02844202890992165,33.70306396484375,40.91062164306641,10.05950260162354,1,10708.03016975,unknown,1,2016-03-02 02:39:34.612,2016-03-02 02:37:10.358,48,78.74673,0,0,2016-03-02 02:39:29.165,10708.33201875,0,-0.1650696,97.39852,192.168.1.101,100.78.239.175,2,1,0.39,0
2016-03-02 02:39:35.415,45,234B9614-18C8-49ED-8B56-CAB6C4F40872,my_iOS_device_1,1456907974.999845,40.7992187468715,-96.68579950006369,370.4934,0,27.421875,4,15.11521251296018,-9999,1456907975.359089,33.73723602294922,39.69818115234375,9.20245361328125,280.6562805175781,277.379150390625,25,10708.81547375,0.20843505859375,0.9888153076171875,0.02490234375,10708.78467675,-0.01371181750449097,0.03719104462295656,-0.006612628986666748,10708.78467675,-2.210395651758179,1.703711895473972,-1.35662856159392,0.002356518059968948,0.00121270667295903,0.0006807674071751535,0.01549084298312664,0.01527802925556898,-0.002958491211757064,XArbitraryCorrectedZVertical,-0.3380211835722365,-0.6323169180692759,0.6702012936852236,0.1916956455489489,0.2106596678495407,0.9771535992622375,0.02816601097583771,33.72478485107422,40.89716339111328,10.04140377044678,1,10708.03016975,unknown,1,2016-03-02 02:39:34.612,2016-03-02 02:37:10.358,48,78.74673,0,0,2016-03-02 02:39:29.165,10708.33201875,0,-0.1650696,97.39852,192.168.1.101,100.78.239.175,2,1,0.39,0
2016-03-02 02:39:35.468,46,234B9614-18C8-49ED-8B56-CAB6C4F40872,my_iOS_device_1,1456907974.999845,40.7992187468715,-96.68579950006369,370.4934,0,27.421875,4,15.11521251296018,-9999,1456907975.41755,33.97995758056641,39.45451354980469,9.3675537109375,280.624755859375,277.3476257324219,25,10708.84576975,0.2155303955078125,0.9982452392578125,0.0224151611328125,10708.81967175,-0.03075258637158099,0.04675472241354011,-0.004733502521506838,10708.81967175,-2.210005855222595,1.704304430180344,-1.356434685651664,-0.0146838491782546,0.01077653933316469,0.002560297958552837,-0.002395641291514039,0.01170292031019926,-0.003413702361285686,XArbitraryCorrectedZVertical,-0.338159718307513,-0.6323021650812346,0.6701487648089524,0.1916836194691146,0.2108307033777237,0.9771124124526978,0.02831604517996311,33.74165344238281,40.88272476196289,10.04354095458984,1,10708.03016975,unknown,1,2016-03-02 02:39:34.612,2016-03-02 02:37:10.358,48,78.74673,0,0,2016-03-02 02:39:29.165,10708.33201875,0,-0.1650696,97.39852,192.168.1.101,100.78.239.175,2,1,0.39,0
2016-03-02 02:39:35.471,47,234B9614-18C8-49ED-8B56-CAB6C4F40872,my_iOS_device_1,1456907974.999845,40.7992187468715,-96.68579950006369,370.4934,0,27.421875,4,15.11521251296018,-9999,1456907975.41755,33.97995758056641,39.45451354980469,9.3675537109375,280.624755859375,277.3476257324219,25,10708.87606275,0.21466064453125,0.9936676025390625,0.0249176025390625,10708.85467975,-0.01798192999632402,0.03612737808357892,-0.005608350939597868,10708.85467975,-2.209580131661288,1.704801346027197,-1.356516272692141,-0.001912034698762,0.0001491680450271815,0.001684564165771008,0.004792797844856977,0.0211155004799366,-0.005994995590299368,XArbitraryCorrectedZVertical,-0.33816501251167,-0.6323365422598249,0.67010124185065,0.1917270124579891,0.2107376009225845,0.9771297574043274,0.02841015718877316,33.7363395690918,40.88430786132812,10.05494117736816,1,10708.03016975,unknown,1,2016-03-02 02:39:34.612,2016-03-02 02:37:10.358,48,78.74673,0,0,2016-03-02 02:39:29.165,10708.33201875,0,-0.1650696,97.39852,192.168.1.101,100.78.239.175,2,1,0.39,0
2016-03-02 02:39:35.495,48,234B9614-18C8-49ED-8B56-CAB6C4F40872,my_iOS_device_1,1456907974.999845,40.7992187468715,-96.68579950006369,370.4934,0,27.421875,4,15.11521251296018,-9999,1456907975.485895,33.77190399169922,40.01141357421875,9.43353271484375,280.5975646972656,277.3204345703125,25,10708.90635475,0.2195892333984375,0.99041748046875,0.0231475830078125,10708.88971475,-0.01368012588751903,0.04037538633836431,-0.008745288387602202,10708.85467975,-2.209580131661288,1.704801346027197,-1.356516272692141,-0.001912034698762,0.0001491680450271815,0.001684564165771008,0.004792797844856977,0.0211155004799366,-0.005994995590299368,XArbitraryCorrectedZVertical,-0.33816501251167,-0.6323365422598249,0.67010124185065,0.1917270124579891,0.2107376009225845,0.9771297574043274,0.02841015718877316,33.7363395690918,40.88430786132812,10.05494117736816,1,10708.03016975,unknown,1,2016-03-02 02:39:34.612,2016-03-02 02:37:10.358,48,78.74673,0,0,2016-03-02 02:39:29.165,10708.33201875,0,-0.1650696,97.39852,192.168.1.101,100.78.239.175,2,1,0.39,0
2016-03-02 02:39:35.547,49,234B9614-18C8-49ED-8B56-CAB6C4F40872,my_iOS_device_1,1456907974.999845,40.7992187468715,-96.68579950006369,370.4934,0,27.421875,4,15.11521251296018,-9999,1456907975.536651,33.52919006347656,40.95120239257812,9.13629150390625,280.5663146972656,277.2891845703125,25,10708.93664675,0.21685791015625,0.993133544921875,0.0347137451171875,10708.92472475,-0.02752483513040496,0.03717772881750617,-0.007878962084999426,10708.88971475,-2.210416580947617,1.704049204530717,-1.356454347054577,0.002390225417912006,0.004397317301481962,-0.001451803254894912,0.005276091862469912,0.01206494867801666,-0.01049845293164253,XArbitraryCorrectedZVertical,-0.3381976343738726,-0.6322595999973772,0.6701515081333481,0.1917475279153575,0.2108188718557358,0.977116584777832,0.02825968340039253,33.73628997802734,40.88270568847656,10.06159496307373,1,10708.03016975,unknown,1,2016-03-02 02:39:34.612,2016-03-02 02:37:10.358,48,78.74673,0,0,2016-03-02 02:39:29.165,10708.33201875,0,-0.1650696,97.39852,192.168.1.101,100.78.239.175,2,1,0.39,0
2016-03-02 02:39:35.556,50,234B9614-18C8-49ED-8B56-CAB6C4F40872,my_iOS_device_1,1456907974.999845,40.7992187468715,-96.68579950006369,370.4934,0,27.421875,4,15.11521251296018,-9999,1456907975.536651,33.52919006347656,40.95120239257812,9.13629150390625,280.5663146972656,277.2891845703125,25,10708.96692275,0.216644287109375,0.9893798828125,0.022613525390625,10708.95973675,-0.01698244563921729,0.02869609337782181,-0.001327053171186484,10708.92472475,-2.210859342877161,1.703735175829455,-1.356300818557463,-0.01149777229875326,0.001242867903783917,-0.0005892048357054591,0.007636238820850849,0.01557662058621645,-0.00154099939391017,XArbitraryCorrectedZVertical,-0.3382824292235037,-0.6321959185205061,0.670170316562913,0.1917421849322767,0.2109764367341995,0.9770839214324951,0.02821336314082146,33.74084091186523,40.88295364379883,10.04532337188721,1,10708.03016975,unknown,1,2016-03-02 02:39:34.612,2016-03-02 02:37:10.358,48,78.74673,0,0,2016-03-02 02:39:29.165,10708.33201875,0,-0.1650696,97.39852,192.168.1.101,100.78.239.175,2,1,0.39,0
2016-03-02 02:39:35.586,51,234B9614-18C8-49ED-8B56-CAB6C4F40872,my_iOS_device_1,1456907974.999845,40.7992187468715,-96.68579950006369,370.4934,0,27.421875,4,15.11521251296018,-9999,1456907975.536651,33.52919006347656,40.95120239257812,9.13629150390625,280.5663146972656,277.2891845703125,25,10708.99722575,0.2079010009765625,0.9956512451171875,0.0275726318359375,10708.95973675,-0.01698244563921729,0.02869609337782181,-0.001327053171186484,10708.95973675,-2.209722087881573,1.704735270629348,-1.355954685500277,-0.0009562731720507145,-0.007238333113491535,0.005963332485407591,0.005284723360091448,0.01191195193678141,-0.002422753255814314,XArbitraryCorrectedZVertical,-0.3383708930673586,-0.6322498650204211,0.6701284296340148,0.1915545214884951,0.211283266544342,0.977010190486908,0.0284695066511631,33.75136947631836,40.86993408203125,10.06291961669922,1,10708.03016975,unknown,1,2016-03-02 02:39:34.612,2016-03-02 02:37:10.358,48,78.74673,0,0,2016-03-02 02:39:29.165,10708.33201875,0,-0.1650696,97.39852,192.168.1.101,100.78.239.175,2,1,0.39,0
2016-03-02 02:39:35.628,52,234B9614-18C8-49ED-8B56-CAB6C4F40872,my_iOS_device_1,1456907974.999845,40.7992187468715,-96.68579950006369,370.4934,0,27.421875,4,15.11521251296018,-9999,1456907975.59431,33.25179290771484,40.95120239257812,9.40057373046875,280.5504150390625,277.2732849121094,25,10709.02752275,0.2135162353515625,0.9922637939453125,0.030792236328125,10708.99475375,-0.020098610430719,0.03080584959338258,-0.006702111199293411,10708.99475375,-2.210311420843657,1.704019503523273,-1.355948905649257,-0.004071048460900784,-0.005128687247633934,0.000588045921176672,-0.001653428305871785,0.01845920458436012,-0.004774707835167646,XArbitraryCorrectedZVertical,-0.3383192362031351,-0.6322180036215302,0.6701933828774002,0.1915236796301202,0.2113091945648193,0.9770089387893677,0.02831901982426643,33.75990676879883,40.86452484130859,10.05624580383301,1,10708.03016975,unknown,1,2016-03-02 02:39:34.612,2016-03-02 02:37:10.358,48,78.74673,0,0,2016-03-02 02:39:29.165,10708.33201875,0,-0.1650696,97.39852,192.168.1.101,100.78.239.175,2,1,0.39,0
2016-03-02 02:39:35.646,53,234B9614-18C8-49ED-8B56-CAB6C4F40872,my_iOS_device_1,1456907974.999845,40.7992187468715,-96.68579950006369,370.4934,0,27.421875,4,15.11521251296018,-9999,1456907975.59431,33.25179290771484,40.95120239257812,9.40057373046875,280.5504150390625,277.2732849121094,25,10709.05781575,0.2153778076171875,0.9928436279296875,0.0267486572265625,10709.02976275,-0.01902189440199997,0.02867691861797324,-0.007751130352675622,10709.02976275,-2.209883116377075,1.704219105876696,-1.356220465655823,-0.002994575072079897,-0.007257272489368916,-0.0004624076827894896,0.002475668443366885,0.01519699860364199,0.002466335194185376,XArbitraryCorrectedZVertical,-0.3381621781902528,-0.6323047460378312,0.6701862792982973,0.1915395531474944,0.2110405713319778,0.9770668148994446,0.02832590043544769,33.75795745849609,40.86767578125,10.04998016357422,1,10708.03016975,unknown,1,2016-03-02 02:39:34.612,2016-03-02 02:37:10.358,48,78.74673,0,0,2016-03-02 02:39:29.165,10708.33201875,0,-0.1650696,97.39852,192.168.1.101,100.78.239.175,2,1,0.39,0
2016-03-02 02:39:35.684,54,234B9614-18C8-49ED-8B56-CAB6C4F40872,my_iOS_device_1,1456907974.999845,40.7992187468715,-96.68579950006369,370.4934,0,27.421875,4,15.11521251296018,-9999,1456907975.653136,33.25179290771484,40.95120239257812,9.33447265625,280.5296325683594,277.2525024414062,25,10709.08810675,0.2127532958984375,0.993560791015625,0.0291748046875,10709.06476975,-0.01794118363164581,0.03186498875890709,-0.008802812667147913,10709.06476975,-2.209626141889053,1.704295200779818,-1.356248069094208,-0.001927082077600062,-0.004044305998831987,-0.001525328727439046,0.00436612730845809,0.01577095501124859,-0.001589713152498007,XArbitraryCorrectedZVertical,-0.3380974303537142,-0.632344299255767,0.6701965629235376,0.1914872889577914,0.211011677980423,0.9770726561546326,0.02833837084472179,33.7490348815918,40.87631988525391,10.04478073120117,1,10708.03016975,unknown,1,2016-03-02 02:39:34.612,2016-03-02 02:37:10.358,48,78.74673,0,0,2016-03-02 02:39:29.165,10708.33201875,0,-0.1650696,97.39852,192.168.1.101,100.78.239.175,2,1,0.39,0
2016-03-02 02:39:35.708,55,234B9614-18C8-49ED-8B56-CAB6C4F40872,my_iOS_device_1,1456907974.999845,40.7992187468715,-96.68579950006369,370.4934,0,27.421875,4,15.11521251296018,-9999,1456907975.686848,33.39048767089844,40.81198120117188,9.46661376953125,280.5232543945312,277.2461242675781,25,10709.11839575,0.2134246826171875,0.992919921875,0.028472900390625,10709.09979175,-0.02117532645943804,0.03293478056879192,-0.005653092045911199,10709.06476975,-2.209626141889053,1.704295200779818,-1.356248069094208,-0.001927082077600062,-0.004044305998831987,-0.001525328727439046,0.00436612730845809,0.01577095501124859,-0.001589713152498007,XArbitraryCorrectedZVertical,-0.3380974303537142,-0.632344299255767,0.6701965629235376,0.1914872889577914,0.211011677980423,0.9770726561546326,0.02833837084472179,33.7490348815918,40.87631988525391,10.04478073120117,1,10708.03016975,unknown,1,2016-03-02 02:39:34.612,2016-03-02 02:37:10.358,48,78.74673,0,0,2016-03-02 02:39:29.165,10708.33201875,0,-0.1650696,97.39852,192.168.1.101,100.78.239.175,2,1,0.39,0
2016-03-02 02:39:35.741,56,234B9614-18C8-49ED-8B56-CAB6C4F40872,my_iOS_device_1,1456907974.999845,40.7992187468715,-96.68579950006369,370.4934,0,27.421875,4,15.11521251296018,-9999,1456907975.686848,33.39048767089844,40.81198120117188,9.46661376953125,280.5232543945312,277.2461242675781,25,10709.14868975,0.2139434814453125,0.9936981201171875,0.02740478515625,10709.13480375,-0.01902269335032699,0.0276135183947046,-0.007750597720457607,10709.09979175,-2.209350990501437,1.704481866490858,-1.356208271919832,-0.005161351524293423,-0.002974224975332618,0.001624235883355141,0.004958493635058403,0.01539795938879251,-0.0008560859714634717,XArbitraryCorrectedZVertical,-0.3380859630601989,-0.632368051286032,0.6701934485183131,0.1914399928371151,0.2110449224710464,0.9770641922950745,0.02838294208049774,33.74911499023438,40.87660598754883,10.0433521270752,1,10708.03016975,unknown,1,2016-03-02 02:39:34.612,2016-03-02 02:37:10.358,48,78.74673,0,0,2016-03-02 02:39:29.165,10708.33201875,0,-0.1650696,97.39852,192.168.1.101,100.78.239.175,2,1,0.39,0
