loggingTime,loggingSample,identifierForVendor,deviceID,locationTimestamp_since1970,locationLatitude,locationLongitude,locationAltitude,locationSpeed,locationCourse,locationVerticalAccuracy,locationHorizontalAccuracy,locationFloor,locationHeadingTimestamp_since1970,locationHeadingX,locationHeadingY,locationHeadingZ,locationTrueHeading,locationMagneticHeading,locationHeadingAccuracy,accelerometerTimestamp_sinceReboot,accelerometerAccelerationX,accelerometerAccelerationY,accelerometerAccelerationZ,gyroTimestamp_sinceReboot,gyroRotationX,gyroRotationY,gyroRotationZ,motionTimestamp_sinceReboot,motionYaw,motionRoll,motionPitch,motionRotationRateX,motionRotationRateY,motionRotationRateZ,motionUserAccelerationX,motionUserAccelerationY,motionUserAccelerationZ,motionAttitudeReferenceFrame,motionQuaternionX,motionQuaternionY,motionQuaternionZ,motionQuaternionW,motionGravityX,motionGravityY,motionGravityZ,motionMagneticFieldX,motionMagneticFieldY,motionMagneticFieldZ,motionMagneticFieldCalibrationAccuracy,activityTimestamp_sinceReboot,activity,activityActivityConfidence,activityActivityStartDate,pedometerStartDate,pedometerNumberofSteps,pedometerDistance,pedometerFloorAscended,pedometerFloorDescended,pedometerEndDate,altimeterTimestamp_sinceReboot,altimeterReset,altimeterRelativeAltitude,altimeterPressure,IP_en0,IP_pdp_ip0,deviceOrientation,batteryState,batteryLevel,state
2016-03-02 02:39:18.204,1,234B9614-18C8-49ED-8B56-CAB6C4F40872,my_iOS_device_1,1456907957.999846,40.79921262808218,-96.68578835213248,370.2036,0,125.15625,4,14.300327897896,-9999,1456907958.173804,35.19356536865234,37.8883056640625,10.65679931640625,280.8479614257812,277.5708312988281,25,10691.60937491667,0.2092742919921875,1.003768920898438,0.0316162109375,10691.59353791667,-0.03291533949283434,0.01910764818910052,-0.003685016000342642,10691.55850391667,-2.351186614338081,1.702613980041734,-1.361422966596465,-0.0593140535056591,0.0175012368708849,0.005378055851906538,-0.001545544480904937,0.01848171465098858,-0.00542226480320096,XArbitraryCorrectedZVertical,-0.3797810138178243,-0.6078039939255897,0.6548911851673649,0.2397044473964983,0.2060438394546509,0.9781613349914551,0.02731862664222717,33.52554321289062,41.56220626831055,10.7883472442627,1,10690.258175125,stationary,1,2016-03-02 02:39:16.840,2016-03-02 02:37:10.358,31,44.91673,0,0,2016-03-02 02:39:08.486,10691.261532125,0,-0.2543335,97.39956,192.168.1.101,100.78.239.175,2,1,0.39,0
2016-03-02 02:39:18.230,2,234B9614-18C8-49ED-8B56-CAB6C4F40872,my_iOS_device_1,1456907957.999846,40.79921262808218,-96.68578835213248,370.2036,0,125.15625,4,14.300327897896,-9999,1456907958.173804,35.19356536865234,37.8883056640625,10.65679931640625,280.8479614257812,277.5708312988281,25,10691.63966491667,0.204620361328125,0.9935760498046875,0.0358734130859375,10691.62854791667,-0.03489593239552628,0.05842842273579345,-0.01225986207817977,10691.59353791667,-2.330727347531846,1.723641628202482,-1.361067421046536,-0.01462265383452177,-0.01441592164337635,0.003933860454708338,0.0003786461020354182,0.02369788661599159,0.0548652783036232,XArbitraryCorrectedZVertical,-0.3805472029609059,-0.6091245710667065,0.653370902846908,0.2392854917340733,0.2057675868272781,0.9780873656272888,0.0316978320479393,33.50464630126953,41.53545761108398,10.95498561859131,1,10690.258175125,stationary,1,2016-03-02 02:39:16.840,2016-03-02 02:37:10.358,31,44.91673,0,0,2016-03-02 02:39:08.486,10691.261532125,0,-0.2543335,97.39956,192.168.1.101,100.78.239.175,2,1,0.39,0
2016-03-02 02:39:18.269,3,234B9614-18C8-49ED-8B56-CAB6C4F40872,my_iOS_device_1,1456907957.999846,40.79921262808218,-96.68578835213248,370.2036,0,125.15625,4,14.300327897896,-9999,1456907958.234789,35.64433288574219,37.92311096191406,10.49163818359375,280.8421630859375,277.5650329589844,25,10691.66996291667,0.2118072509765625,0.9865570068359375,0.028076171875,10691.62854791667,-0.03489593239552628,0.05842842273579345,-0.01225986207817977,10691.62854791667,-2.329191816560435,1.725481031373838,-1.361154680599528,-0.01660546846687794,0.02490550465881824,-0.004641850013285875,-0.003582985838875175,0.02425955794751644,0.000254995480645448,XArbitraryCorrectedZVertical,-0.3806524692430502,-0.609208714267492,0.6531983659295865,0.2393748835333506,0.2056246101856232,0.9781055450439453,0.03206311911344528,33.50411224365234,41.51800537109375,11.02256774902344,1,10690.258175125,stationary,1,2016-03-02 02:39:16.840,2016-03-02 02:37:10.358,31,44.91673,0,0,2016-03-02 02:39:08.486,10691.261532125,0,-0.2543335,97.39956,192.168.1.101,100.78.239.175,2,1,0.39,0
2016-03-02 02:39:18.288,4,234B9614-18C8-49ED-8B56-CAB6C4F40872,my_iOS_device_1,1456907957.999846,40.79921262808218,-96.68578835213248,370.2036,0,125.15625,4,14.300327897896,-9999,1456907958.234789,35.64433288574219,37.92311096191406,10.49163818359375,280.8421630859375,277.5650329589844,25,10691.70025391667,0.20611572265625,0.992279052734375,0.030120849609375,10691.66356591667,-0.0231703004320164,0.05311435109664933,-0.01421835074382405,10691.66356591667,-2.328539797818641,1.726772995239191,-1.361578725220374,-0.00488007627427578,0.01959175430238247,-0.006601356901228428,0.003963690716773272,0.007310436107218266,-0.004874792415648699,XArbitraryCorrectedZVertical,-0.3807402764850301,-0.6092364082878585,0.6530003421398768,0.2397048056334832,0.2051732689142227,0.9781937003135681,0.03226431831717491,33.47694396972656,41.53046417236328,11.05812644958496,1,10690.258175125,stationary,1,2016-03-02 02:39:16.840,2016-03-02 02:37:10.358,31,44.91673,0,0,2016-03-02 02:39:08.486,10691.261532125,0,-0.2543335,97.39956,192.168.1.101,100.78.239.175,2,1,0.39,0
2016-03-02 02:39:18.316,5,234B9614-18C8-49ED-8B56-CAB6C4F40872,my_iOS_device_1,1456907957.999846,40.79921262808218,-96.68578835213248,370.2036,0,125.15625,4,14.300327897896,-9999,1456907958.295408,35.29758453369141,38.27117919921875,10.88800048828125,280.844482421875,277.5673522949219,25,10691.73054491667,0.20721435546875,0.9983367919921875,0.0369720458984375,10691.69855291667,-0.03178376234565967,0.05100166540388947,-0.006882140888982768,10691.69855291667,-2.327313303231696,1.728674924699394,-1.361539244421341,-0.01349312625825405,0.01747914776206017,0.0007353780674748123,0.002537701977416873,0.01215567346662283,-0.0009985697688534856,XArbitraryCorrectedZVertical,-0.3810001617681169,-0.6092365347445474,0.6527879926788815,0.2398698773905777,0.2051496803760529,0.9781855344772339,0.03266055881977081,33.46659088134766,41.53708648681641,11.06460952758789,1,10690.258175125,stationary,1,2016-03-02 02:39:16.840,2016-03-02 02:37:10.358,31,44.91673,0,0,2016-03-02 02:39:08.486,10691.261532125,0,-0.2543335,97.39956,192.168.1.101,100.78.239.175,2,1,0.39,0
2016-03-02 02:39:18.348,6,234B9614-18C8-49ED-8B56-CAB6C4F40872,my_iOS_device_1,1456907957.999846,40.79921262808218,-96.68578835213248,370.2036,0,125.15625,4,14.300327897896,-9999,1456907958.295408,35.29758453369141,38.27117919921875,10.88800048828125,280.844482421875,277.5673522949219,25,10691.76083691667,0.2150726318359375,0.99383544921875,0.033355712890625,10691.73358291667,-0.03288631103695248,0.03824592273073694,-0.00476013413240763,10691.73358291667,-2.32510271455078,1.731259021885253,-1.361524632419983,-0.01459536701440811,0.004723604768514633,0.00285667460411787,0.002135652815923095,0.0201543141156435,0.003779188031330705,XArbitraryCorrectedZVertical,-0.3811746764141761,-0.6093457926146491,0.6525617944890518,0.2399305638233098,0.2050787061452866,0.9781824946403503,0.03319285809993744,33.45671463012695,41.53500747680664,11.10220432281494,1,10690.258175125,stationary,1,2016-03-02 02:39:16.840,2016-03-02 02:37:10.358,31,44.91673,0,0,2016-03-02 02:39:08.486,10691.261532125,0,-0.2543335,97.39956,192.168.1.101,100.78.239.175,2,1,0.39,0
2016-03-02 02:39:18.376,7,234B9614-18C8-49ED-8B56-CAB6C4F40872,my_iOS_device_1,1456907957.999846,40.79921262808218,-96.68578835213248,370.2036,0,125.15625,4,14.300327897896,-9999,1456907958.349978,35.05486297607422,38.44522094726562,11.515625,280.8716125488281,277.594482421875,25,10691.79112191667,0.203643798828125,0.9860687255859375,0.023529052734375,10691.76860291667,-0.0211638748667507,0.02867825019851828,-0.006716492269179839,10691.73358291667,-2.32510271455078,1.731259021885253,-1.361524632419983,-0.01459536701440811,0.004723604768514633,0.00285667460411787,0.002135652815923095,0.0201543141156435,0.003779188031330705,XArbitraryCorrectedZVertical,-0.3811746764141761,-0.6093457926146491,0.6525617944890518,0.2399305638233098,0.2050787061452866,0.9781824946403503,0.03319285809993744,33.45671463012695,41.53500747680664,11.10220432281494,1,10690.258175125,stationary,1,2016-03-02 02:39:16.840,2016-03-02 02:37:10.358,31,44.91673,0,0,2016-03-02 02:39:08.486,10691.261532125,0,-0.2543335,97.39956,192.168.1.101,100.78.239.175,2,1,0.39,0
2016-03-02 02:39:18.429,8,234B9614-18C8-49ED-8B56-CAB6C4F40872,my_iOS_device_1,1456907957.999846,40.79921262808218,-96.68578835213248,370.2036,0,125.15625,4,14.300327897896,-9999,1456907958.408239,34.7774658203125,38.37562561035156,11.44964599609375,280.9092407226562,277.6321105957031,25,10691.82141791667,0.20867919921875,0.9923095703125,0.0357666015625,10691.80361491667,-0.03926831027321837,0.03824112904077481,-0.004852812138342388,10691.76860291667,-2.323642221145445,1.732638874902956,-1.361200839729366,-0.002863301197066903,-0.004887939430773258,0.0009236858459189534,0.009727347642183304,0.01572028920054436,-0.0001711266086203977,XArbitraryCorrectedZVertical,-0.3812834843064221,-0.609414739189522,0.6524964177311088,0.2397603076027408,0.2053452879190445,0.9781151413917542,0.03352683782577515,33.46298980712891,41.51847457885742,11.14504909515381,1,10690.258175125,stationary,1,2016-03-02 02:39:16.840,2016-03-02 02:37:10.358,31,44.91673,0,0,2016-03-02 02:39:08.486,10691.261532125,0,-0.2543335,97.39956,192.168.1.101,100.78.239.175,2,1,0.39,0
2016-03-02 02:39:18.437,9,234B9614-18C8-49ED-8B56-CAB6C4F40872,my_iOS_device_1,1456907957.999846,40.79921262808218,-96.68578835213248,370.2036,0,125.15625,4,14.300327897896,-9999,1456907958.408239,34.7774658203125,38.37562561035156,11.44964599609375,280.9092407226562,277.6321105957031,25,10691.85169291667,0.2035064697265625,0.993743896484375,0.02239990234375,10691.83862491667,-0.04451021024682133,0.04247608780621881,-0.01025982809953026,10691.80361491667,-2.324369546507253,1.731857972437312,-1.361181611625734,-0.02096492610871792,0.004674617666751146,0.002787180244922638,0.001183519256301224,0.01186381746083498,-0.01081700064241886,XArbitraryCorrectedZVertical,-0.3812564697680464,-0.6093670893707464,0.6525594277962804,0.2397528891296047,0.2053899616003036,0.9781111478805542,0.03336948901414871,33.46713638305664,41.51759338378906,11.13587665557861,1,10690.258175125,stationary,1,2016-03-02 02:39:16.840,2016-03-02 02:37:10.358,31,44.91673,0,0,2016-03-02 02:39:08.486,10691.261532125,0,-0.2543335,97.39956,192.168.1.101,100.78.239.175,2,1,0.39,0
2016-03-02 02:39:18.467,10,234B9614-18C8-49ED-8B56-CAB6C4F40872,my_iOS_device_1,1456907957.999846,40.79921262808218,-96.68578835213248,370.2036,0,125.15625,4,14.300327897896,-9999,1456907958.46523,34.88149261474609,38.27119445800781,11.48260498046875,280.9414367675781,277.664306640625,25,10691.88197791667,0.20550537109375,0.9926910400390625,0.0217132568359375,10691.83862491667,-0.04451021024682133,0.04247608780621881,-0.01025982809953026,10691.83862491667,-2.320224953812763,1.736161363911116,-1.36110496429762,-0.02620666660368443,0.008909732103347778,-0.002620178973302245,0.0007973126485012472,0.01725086197257042,0.003927355632185936,XArbitraryCorrectedZVertical,-0.3814217144168789,-0.609631177345322,0.6522409400546052,0.2396853343375446,0.2053184062242508,0.9780952334403992,0.03426539152860641,33.46525192260742,41.51385879516602,11.15544128417969,1,10690.258175125,stationary,1,2016-03-02 02:39:16.840,2016-03-02 02:37:10.358,31,44.91673,0,0,2016-03-02 02:39:08.486,10691.261532125,0,-0.2543335,97.39956,192.168.1.101,100.78.239.175,2,1,0.39,0
2016-03-02 02:39:18.509,11,234B9614-18C8-49ED-8B56-CAB6C4F40872,my_iOS_device_1,1456907957.999846,40.79921262808218,-96.68578835213248,370.2036,0,125.15625,4,14.300327897896,-9999,1456907958.46523,34.88149261474609,38.27119445800781,11.48260498046875,280.9414367675781,277.664306640625,25,10691.91229391667,0.20672607421875,0.989105224609375,0.0401153564453125,10691.87363791667,-0.0562725938333743,0.05736954988637794,-0.005109540867426026,10691.87363791667,-2.318740070792036,1.738063111115984,-1.36123148587041,-0.03796561434864998,0.02380277402698994,0.002529024379327893,0.001000131480395794,0.01431010570377111,-0.01269305311143398,XArbitraryCorrectedZVertical,-0.3815486321259219,-0.6097034009338692,0.6520476273500215,0.2398255530165421,0.2051308453083038,0.9781215190887451,0.03463518992066383,33.45727157592773,41.51314926147461,11.18198299407959,1,10690.258175125,stationary,1,2016-03-02 02:39:16.840,2016-03-02 02:37:10.358,31,44.91673,0,0,2016-03-02 02:39:08.486,10691.261532125,0,-0.2543335,97.39956,192.168.1.101,100.78.239.175,2,1,0.39,0
2016-03-02 02:39:18.528,12,234B9614-18C8-49ED-8B56-CAB6C4F40872,my_iOS_device_1,1456907957.999846,40.79921262808218,-96.68578835213248,370.2036,0,125.15625,4,14.300327897896,-9999,1456907958.524195,34.91616821289062,38.16677856445312,11.44970703125,280.9717102050781,277.694580078125,25,10691.94256691667,0.2098846435546875,0.9914703369140625,0.04656982421875,10691.90863591667,-0.07534295776721371,0.060530722100302,-0.01071682654258786,10691.90863591667,-2.312217106152712,1.745262353538034,-1.361149402101147,-0.05702769011259079,0.02693465910851955,-0.003061183961108327,0.001007877173833549,0.01391519792377949,-0.001228153822012246,XArbitraryCorrectedZVertical,-0.3819319005966442,-0.6100741967310702,0.6514612024244953,0.2398662117205682,0.2049552649259567,0.9781044721603394,0.03612500429153442,33.44427490234375,41.51253890991211,11.22305774688721,1,10690.258175125,stationary,1,2016-03-02 02:39:16.840,2016-03-02 02:37:10.358,31,44.91673,0,0,2016-03-02 02:39:08.486,10691.261532125,0,-0.2543335,97.39956,192.168.1.101,100.78.239.175,2,1,0.39,0
2016-03-02 02:39:18.558,13,234B9614-18C8-49ED-8B56-CAB6C4F40872,my_iOS_device_1,1456907957.999846,40.79921262808218,-96.68578835213248,370.2036,0,125.15625,4,14.300327897896,-9999,1456907958.524195,34.91616821289062,38.16677856445312,11.44970703125,280.9717102050781,277.694580078125,25,10691.97287891667,0.2154083251953125,0.993499755859375,0.0539703369140625,10691.94366591667,-0.09021218508145312,0.05094307585990773,-0.01305934303742156,10691.94366591667,-2.300232387336626,1.757813921091593,-1.360828675247717,-0.07189853489398956,0.01734757423400879,-0.005403619725257158,0.005090720020234585,0.01343267969787121,0.007816898636519909,XArbitraryCorrectedZVertical,-0.3824625783746897,-0.6108181718843168,0.650519646388156,0.2396825540206982,0.2047939300537109,0.9780376553535461,0.03875292465090752,33.4349479675293,41.50608825683594,11.27459144592285,1,10690.258175125,stationary,1,2016-03-02 02:39:16.840,2016-03-02 02:37:10.358,31,44.91673,0,0,2016-03-02 02:39:08.486,10691.261532125,0,-0.2543335,97.39956,192.168.1.101,100.78.239.175,2,1,0.39,0
2016-03-02 02:39:18.589,14,234B9614-18C8-49ED-8B56-CAB6C4F40872,my_iOS_device_1,1456907957.999846,40.79921262808218,-96.68578835213248,370.2036,0,125.15625,4,14.300327897896,-9999,1456907958.582962,35.33226013183594,37.81869506835938,11.77996826171875,280.9975891113281,277.720458984375,25,10692.00317191667,0.2194061279296875,0.9965362548828125,0.0565643310546875,10691.97867991667,-0.08715008246008002,0.0158737716774173,-0.005536711906274736,10691.94366591667,-2.300232387336626,1.757813921091593,-1.360828675247717,-0.07189853489398956,0.01734757423400879,-0.005403619725257158,0.005090720020234585,0.01343267969787121,0.007816898636519909,XArbitraryCorrectedZVertical,-0.3824625783746897,-0.6108181718843168,0.650519646388156,0.2396825540206982,0.2047939300537109,0.9780376553535461,0.03875292465090752,33.4349479675293,41.50608825683594,11.27459144592285,1,10690.258175125,stationary,1,2016-03-02 02:39:16.840,2016-03-02 02:37:10.358,31,44.91673,0,0,2016-03-02 02:39:08.486,10691.261532125,0,-0.2543335,97.39956,192.168.1.101,100.78.239.175,2,1,0.39,0
2016-03-02 02:39:18.620,15,234B9614-18C8-49ED-8B56-CAB6C4F40872,my_iOS_device_1,1456907957.999846,40.79921262808218,-96.68578835213248,370.2036,0,125.15625,4,14.300327897896,-9999,1456907958.582962,35.33226013183594,37.81869506835938,11.77996826171875,280.9975891113281,277.720458984375,25,10692.03345091667,0.2088470458984375,0.997161865234375,0.0474700927734375,10692.01367891667,-0.05955227671580689,-0.002174471030049698,-0.001929460209762408,10691.97867991667,-2.28593162733642,1.77181748181794,-1.360006453887289,-0.06883903592824936,-0.01772106066346169,0.002120190998539329,0.01038924138993025,0.01563380286097527,0.01219290681183338,XArbitraryCorrectedZVertical,-0.3829087260294122,-0.6117757943046462,0.6495997097873196,0.2390219698639701,0.20501908659935,0.9778659343719482,0.04177742823958397,33.42030715942383,41.45481872558594,11.50429534912109,1,10690.258175125,stationary,1,2016-03-02 02:39:16.840,2016-03-02 02:37:10.358,31,44.91673,0,0,2016-03-02 02:39:08.486,10691.261532125,0,-0.2543335,97.39956,192.168.1.101,100.78.239.175,2,1,0.39,0
2016-03-02 02:39:18.668,16,234B9614-18C8-49ED-8B56-CAB6C4F40872,my_iOS_device_1,1456907957.999846,40.79921262808218,-96.68578835213248,370.2036,0,125.15625,4,14.300327897896,-9999,1456907958.641645,35.36693572998047,38.13197326660156,11.28448486328125,281.0011596679688,277.7240295410156,25,10692.06374091667,0.189910888671875,1.001007080078125,0.0316925048828125,10692.04867991667,-0.02120036017368478,0.01911350714349869,-0.00458063707493629,10692.01367891667,-2.27405583123182,1.782450382321554,-1.35868787444655,-0.04124479740858078,-0.03576841950416565,0.00573026156052947,0.01202600169926882,0.01743642054498196,0.008401754312217236,XArbitraryCorrectedZVertical,-0.3831529303185082,-0.6126228337539993,0.6490506493879779,0.2379503101081721,0.2058237344026566,0.9775891900062561,0.04422580823302269,33.45886993408203,41.39175796508789,11.61868762969971,1,10690.258175125,stationary,1,2016-03-02 02:39:16.840,2016-03-02 02:37:10.358,31,44.91673,0,0,2016-03-02 02:39:08.486,10691.261532125,0,-0.2543335,97.39956,192.168.1.101,100.78.239.175,2,1,0.39,0
2016-03-02 02:39:18.681,17,234B9614-18C8-49ED-8B56-CAB6C4F40872,my_iOS_device_1,1456907957.999846,40.79921262808218,-96.68578835213248,370.2036,0,125.15625,4,14.300327897896,-9999,1456907958.641645,35.36693572998047,38.13197326660156,11.28448486328125,281.0011596679688,277.7240295410156,25,10692.09403191667,0.1963043212890625,0.9945068359375,0.036712646484375,10692.08371991667,-0.006232862215221449,0.04250777942319076,-0.008638229311781017,10692.04867991667,-2.271303625248946,1.784165586443119,-1.358548241746841,-0.002892828546464443,-0.01448024995625019,0.003078345907852054,-0.007272578310221434,0.02262329682707787,-0.004156628157943487,XArbitraryCorrectedZVertical,-0.3829116371776251,-0.6129294552846509,0.6490565183717406,0.2375327280977015,0.2058809697628021,0.9775598049163818,0.04460767656564713,33.48031616210938,41.37053680419922,11.63247680664062,1,10690.258175125,stationary,1,2016-03-02 02:39:16.840,2016-03-02 02:37:10.358,31,44.91673,0,0,2016-03-02 02:39:08.486,10691.261532125,0,-0.2543335,97.39956,192.168.1.101,100.78.239.175,2,1,0.39,0
2016-03-02 02:39:18.710,18,234B9614-18C8-49ED-8B56-CAB6C4F40872,my_iOS_device_1,1456907957.999846,40.79921262808218,-96.68578835213248,370.2036,0,125.15625,4,14.300327897896,-9999,1456907958.700144,35.33226013183594,38.37562561035156,11.383544921875,280.9981384277344,277.7210083007812,25,10692.12431591667,0.2081756591796875,0.9950103759765625,0.03753662109375,10692.08371991667,-0.006232862215221449,0.04250777942319076,-0.008638229311781017,10692.08371991667,-2.274700618751709,1.780652166769645,-1.35959715275802,0.01207972411066294,0.008889105170965195,-0.0009669389692135155,-0.01538195181638002,0.02058707736432552,-0.01190163008868694,XArbitraryCorrectedZVertical,-0.3824717683943182,-0.6128218019967703,0.6492706196121002,0.23793370481553,0.2050334364175797,0.9777802228927612,0.04367043077945709,33.47429656982422,41.38264846801758,11.60669898986816,1,10690.258175125,stationary,1,2016-03-02 02:39:16.840,2016-03-02 02:37:10.358,31,44.91673,0,0,2016-03-02 02:39:08.486,10691.261532125,0,-0.2543335,97.39956,192.168.1.101,100.78.239.175,2,1,0.39,0
2016-03-02 02:39:18.747,19,234B9614-18C8-49ED-8B56-CAB6C4F40872,my_iOS_device_1,1456907957.999846,40.79921262808218,-96.68578835213248,370.2036,0,125.15625,4,14.300327897896,-9999,1456907958.700144,35.33226013183594,38.37562561035156,11.383544921875,280.9981384277344,277.7210083007812,25,10692.15461591667,0.22137451171875,0.993316650390625,0.044525146484375,10692.11873091667,-0.02215723395335025,0.06376087018645911,-0.00994610772311893,10692.11873091667,-2.275999427454267,1.780142682308719,-1.360407287903034,-0.003843015059828758,0.03014219924807549,-0.002277769381180406,-0.0005454052006825805,0.01484811026602983,-0.005055989138782024,XArbitraryCorrectedZVertical,-0.3824414637440418,-0.6127309278142272,0.6491706184637842,0.2384886685621537,0.2042807638645172,0.9779497385025024,0.0434013269841671,33.44876480102539,41.4111442565918,11.57863616943359,1,10690.258175125,stationary,1,2016-03-02 02:39:16.840,2016-03-02 02:37:10.358,31,44.91673,0,0,2016-03-02 02:39:08.486,10691.261532125,0,-0.2543335,97.39956,192.168.1.101,100.78.239.175,2,1,0.39,0
2016-03-02 02:39:18.771,20,234B9614-18C8-49ED-8B56-CAB6C4F40872,my_iOS_device_1,1456907957.999846,40.79921262808218,-96.68578835213248,370.2036,0,125.15625,4,14.300327897896,-9999,1456907958.760622,34.98551940917969,38.23638916015625,11.77984619140625,281.0099487304688,277.7328186035156,25,10692.18490591667,0.220794677734375,0.98583984375,0.049957275390625,10692.15374191667,-0.0295797302275101,0.03609808331158804,-0.01323697588212985,10692.15374191667,-2.275769215922887,1.780888063800586,-1.360180960480798,-0.01126485597342253,0.002479427959769964,-0.005567366257309914,0.01390371564775705,0.01573463529348373,0.001901969197206199,XArbitraryCorrectedZVertical,-0.3826862947661147,-0.6126590158486477,0.6490674625364191,0.2385614368963521,0.2044648081064224,0.9779024720191956,0.04359973967075348,33.40766143798828,41.44075012207031,11.59137058258057,1,10690.258175125,stationary,1,2016-03-02 02:39:16.840,2016-03-02 02:37:10.358,31,44.91673,0,0,2016-03-02 02:39:08.486,10691.261532125,0,-0.2543335,97.39956,192.168.1.101,100.78.239.175,2,1,0.39,0
2016-03-02 02:39:18.804,21,234B9614-18C8-49ED-8B56-CAB6C4F40872,my_iOS_device_1,1456907957.999846,40.79921262808218,-96.68578835213248,370.2036,0,125.15625,4,14.300327897896,-9999,1456907958.760622,34.98551940917969,38.23638916015625,11.77984619140625,281.0099487304688,277.7328186035156,25,10692.21520591667,0.21160888671875,0.9860992431640625,0.0524139404296875,10692.18874391667,-0.04454483134099236,0.0158940117017019,-0.009180981541939165,10692.18874391667,-2.272860395940318,1.783366815030391,-1.359258153710973,-0.02623053453862667,-0.0177244059741497,-0.001507180742919445,0.01555654779076576,0.008130732923746109,0.005660485941916704,XArbitraryCorrectedZVertical,-0.3828990088059479,-0.6128105284099968,0.6489878355227048,0.238047042974296,0.2052381336688995,0.9777091145515442,0.04429678991436958,33.41968536376953,41.42533874511719,11.6117696762085,1,10690.258175125,stationary,1,2016-03-02 02:39:16.840,2016-03-02 02:37:10.358,31,44.91673,0,0,2016-03-02 02:39:08.486,10691.261532125,0,-0.2543335,97.39956,192.168.1.101,100.78.239.175,2,1,0.39,0
2016-03-02 02:39:18.832,22,234B9614-18C8-49ED-8B56-CAB6C4F40872,my_iOS_device_1,1456907957.999846,40.79921262808218,-96.68578835213248,370.2036,0,125.15625,4,14.300327897896,-9999,1456907958.818406,34.63877105712891,38.09715270996094,12.3743896484375,281.0506896972656,277.7735595703125,25,10692.24548491667,0.2032470703125,0.997467041015625,0.0505523681640625,10692.22376891667,-0.05199608975492506,0.008444617500532256,-0.009285377456670272,10692.18874391667,-2.272860395940318,1.783366815030391,-1.359258153710973,-0.02623053453862667,-0.0177244059741497,-0.001507180742919445,0.01555654779076576,0.008130732923746109,0.005660485941916704,XArbitraryCorrectedZVertical,-0.3828990088059479,-0.6128105284099968,0.6489878355227048,0.238047042974296,0.2052381336688995,0.9777091145515442,0.04429678991436958,33.41968536376953,41.42533874511719,11.6117696762085,1,10690.258175125,stationary,1,2016-03-02 02:39:16.840,2016-03-02 02:37:10.358,31,44.91673,0,0,2016-03-02 02:39:08.486,10691.261532125,0,-0.2543335,97.39956,192.168.1.101,100.78.239.175,2,1,0.39,0
2016-03-02 02:39:18.861,23,234B9614-18C8-49ED-8B56-CAB6C4F40872,my_iOS_device_1,1456907957.999846,40.79921262808218,-96.68578835213248,370.2036,0,125.15625,4,14.300327897896,-9999,1456907958.818406,34.63877105712891,38.09715270996094,12.3743896484375,281.0506896972656,277.7735595703125,25,10692.27579691667,0.2039642333984375,0.9951324462890625,0.045166015625,10692.25877891667,-0.05096012009088424,0.01057807584979473,-0.007139934882502438,10692.22376891667,-2.266348653502985,1.789026880268805,-1.358553936634105,-0.03368373215198517,-0.02517327852547169,-0.001609513536095619,0.005952627863734961,0.008538234978914261,0.006807150784879923,XArbitraryCorrectedZVertical,-0.3829680128197177,-0.6133016354124357,0.6487137806200425,0.2374174298381823,0.2056562602519989,0.9775609970092773,0.04560678824782372,33.46052169799805,41.38395309448242,11.64170551300049,1,10690.258175125,stationary,1,2016-03-02 02:39:16.840,2016-03-02 02:37:10.358,31,44.91673,0,0,2016-03-02 02:39:08.486,10691.261532125,0,-0.2543335,97.39956,192.168.1.101,100.78.239.175,2,1,0.39,0
2016-03-02 02:39:18.908,24,234B9614-18C8-49ED-8B56-CAB6C4F40872,my_iOS_device_1,1456907957.999846,40.79921262808218,-96.68578835213248,370.2036,0,125.15625,4,14.300327897896,-9999,1456907958.877131,34.67344665527344,38.06236267089844,12.60565185546875,281.1091613769531,277.83203125,25,10692.30606091667,0.208160400390625,0.9924163818359375,0.0513153076171875,10692.29377491667,-0.05409838911943361,0.02226429302917144,-0.0103887250962901,10692.25877891667,-2.259651044140257,1.794745486068282,-1.358536123623734,-0.03264739736914635,-0.02307172864675522,0.0005501586711034179,-0.004954356700181961,0.01815502531826496,0.002423622878268361,XArbitraryCorrectedZVertical,-0.3827734143488432,-0.613903493365532,0.6484142535834474,0.2369936071946136,0.2054090648889542,0.9775572419166565,0.04678597301244736,33.47309494018555,41.36699676513672,11.66579341888428,1,10690.258175125,stationary,1,2016-03-02 02:39:16.840,2016-03-02 02:37:10.358,31,44.91673,0,0,2016-03-02 02:39:08.486,10691.261532125,0,-0.2543335,97.39956,192.168.1.101,100.78.239.175,2,1,0.39,0
2016-03-02 02:39:18.921,25,234B9614-18C8-49ED-8B56-CAB6C4F40872,my_iOS_device_1,1456907957.999846,40.79921262808218,-96.68578835213248,370.2036,0,125.15625,4,14.300327897896,-9999,1456907958.877131,34.67344665527344,38.06236267089844,12.60565185546875,281.1091613769531,277.83203125,25,10692.33636291667,0.2061767578125,0.99395751953125,0.0543212890625,10692.29377491667,-0.05409838911943361,0.02226429302917144,-0.0103887250962901,10692.29377491667,-2.254351197469604,1.799343677534261,-1.358567694308313,-0.03578540682792664,-0.01138534303754568,-0.002699872711673379,-0.001456873491406441,0.01709551736712456,-0.0004360045422799885,XArbitraryCorrectedZVertical,-0.3826261791118084,-0.6143766784168996,0.6481605451677404,0.2366989897814162,0.2051617056131363,0.9775639176368713,0.04772299155592918,33.47197723388672,41.35870361328125,11.69836235046387,1,10690.258175125,stationary,1,2016-03-02 02:39:16.840,2016-03-02 02:37:10.358,31,44.91673,0,0,2016-03-02 02:39:08.486,10691.261532125,0,-0.2543335,97.39956,192.168.1.101,100.78.239.175,2,1,0.39,0
2016-03-02 02:39:18.952,26,234B9614-18C8-49ED-8B56-CAB6C4F40872,my_iOS_device_1,1456907957.999846,40.79921262808218,-96.68578835213248,370.2036,0,125.15625,4,14.300327897896,-9999,1456907958.935953,34.77746963500977,38.02755737304688,12.11004638671875,281.1407165527344,277.8635864257812,25,10692.36666891667,0.2058868408203125,0.991455078125,0.05230712890625,10692.32880791667,-0.05300143306642997,0.02757623413944349,-0.01250700342733913,10692.32880791667,-2.247827409322587,1.805485382304481,-1.358469358681761,-0.03468922898173332,-0.006072991993278265,-0.004818476736545563,0.004377094563096762,0.01378982048481703,0.003211095929145813,XArbitraryCorrectedZVertical,-0.3826431910690286,-0.6148873298806028,0.6477615734349561,0.2364375263401598,0.2049582302570343,0.9775431752204895,0.04900448024272919,33.45930480957031,41.35134506225586,11.76047897338867,1,10690.258175125,stationary,1,2016-03-02 02:39:16.840,2016-03-02 02:37:10.358,31,44.91673,0,0,2016-03-02 02:39:08.486,10691.261532125,0,-0.2543335,97.39956,192.168.1.101,100.78.239.175,2,1,0.39,0
2016-03-02 02:39:18.988,27,234B9614-18C8-49ED-8B56-CAB6C4F40872,my_iOS_device_1,1456907957.999846,40.79921262808218,-96.68578835213248,370.2036,0,125.15625,4,14.300327897896,-9999,1456907958.935953,34.77746963500977,38.02755737304688,12.11004638671875,281.1407165527344,277.8635864257812,25,10692.39693691667,0.2090301513671875,0.995147705078125,0.0519866943359375,10692.36381891667,-0.04350167114200833,0.02759807206038214,-0.007040332657733474,10692.36381891667,-2.241568015943544,1.811510749280961,-1.358407787435614,-0.0251905731856823,-0.006050719879567623,0.0006474964902736247,-0.000417769857449457,0.01375702116638422,0.003564868588000536,XArbitraryCorrectedZVertical,-0.3826890312613911,-0.6153661881877449,0.6473510039634199,0.2362419045280179,0.2047176957130432,0.9775301814079285,0.05025288090109825,33.45930480957031,41.35134506225586,11.76047897338867,1,10690.258175125,stationary,1,2016-03-02 02:39:16.840,2016-03-02 02:37:10.358,31,44.91673,0,0,2016-03-02 02:39:08.486,10691.261532125,0,-0.2543335,97.39956,192.168.1.101,100.78.239.175,2,1,0.39,0
2016-03-02 02:39:19.012,28,234B9614-18C8-49ED-8B56-CAB6C4F40872,my_iOS_device_1,1456907957.999846,40.79921262808218,-96.68578835213248,370.2036,0,125.15625,4,14.300327897896,-9999,1456907958.995236,35.22824096679688,37.78390502929688,11.54852294921875,281.1403503417969,277.8632202148438,25,10692.42725391667,0.2012481689453125,0.999725341796875,0.0572662353515625,10692.39881591667,-0.04456373978473192,0.02972407355859239,-0.007056844256491965,10692.39881591667,-2.237375035245268,1.81542080186012,-1.358156668959747,-0.02624516002833843,-0.003938562236726284,0.000645176216494292,0.004272349178791046,0.01767046004533768,0.0008742924546822906,XArbitraryCorrectedZVertical,-0.3827460883643205,-0.6156798135267112,0.6471080111129706,0.2359979258614616,0.2047577947378159,0.9774772524833679,0.05111240223050117,33.45113372802734,41.33586502075195,11.83786869049072,1,10690.258175125,stationary,1,2016-03-02 02:39:16.840,2016-03-02 02:37:10.358,31,44.91673,0,0,2016-03-02 02:39:08.486,10691.261532125,0,-0.2543335,97.39956,192.168.1.101,100.78.239.175,2,1,0.39,0
2016-03-02 02:39:19.045,29,234B9614-18C8-49ED-8B56-CAB6C4F40872,my_iOS_device_1,1456907957.999846,40.79921262808218,-96.68578835213248,370.2036,0,125.15625,4,14.300327897896,-9999,1456907958.995236,35.22824096679688,37.78390502929688,11.54852294921875,281.1403503417969,277.8632202148438,25,10692.45754591667,0.199676513671875,0.995452880859375,0.0553436279296875,10692.43384391667,-0.03171691700229869,0.04247981623174492,-0.01220553359194216,10692.39881591667,-2.237375035245268,1.81542080186012,-1.358156668959747,-0.02624516002833843,-0.003938562236726284,0.000645176216494292,0.004272349178791046,0.01767046004533768,0.0008742924546822906,XArbitraryCorrectedZVertical,-0.3827460883643205,-0.6156798135267112,0.6471080111129706,0.2359979258614616,0.2047577947378159,0.9774772524833679,0.05111240223050117,33.45113372802734,41.33586502075195,11.83786869049072,1,10690.258175125,stationary,1,2016-03-02 02:39:16.840,2016-03-02 02:37:10.358,31,44.91673,0,0,2016-03-02 02:39:08.486,10691.261532125,0,-0.2543335,97.39956,192.168.1.101,100.78.239.175,2,1,0.39,0
2016-03-02 02:39:19.074,30,234B9614-18C8-49ED-8B56-CAB6C4F40872,my_iOS_device_1,1456907957.999846,40.79921262808218,-96.68578835213248,370.2036,0,125.15625,4,14.300327897896,-9999,1456907959.054318,34.7774658203125,38.23640441894531,12.0440673828125,281.1468200683594,277.8696899414062,25,10692.48783691667,0.210357666015625,0.991302490234375,0.0584564208984375,10692.46884391667,-0.02115588538348046,0.03931225243120468,-0.006721818591359997,10692.43384391667,-2.233370494882055,1.819549178061853,-1.358393000221614,-0.01339905057102442,0.008817577734589577,-0.004505058284848928,-0.003072973806411028,0.02219824865460396,0.005365828983485699,XArbitraryCorrectedZVertical,-0.3827710637895734,-0.6159841848393326,0.6467812416334006,0.2360589380310532,0.2043211460113525,0.9775270819664001,0.05190040543675423,33.45385360717773,41.32865524291992,11.8553409576416,1,10690.258175125,stationary,1,2016-03-02 02:39:16.840,2016-03-02 02:37:10.358,31,44.91673,0,0,2016-03-02 02:39:08.486,10691.261532125,0,-0.2543335,97.39956,192.168.1.101,100.78.239.175,2,1,0.39,0
2016-03-02 02:39:19.103,31,234B9614-18C8-49ED-8B56-CAB6C4F40872,my_iOS_device_1,1456907958.999845,40.79921262808218,-96.68578835213248,370.4008,0,125.15625,4,14.300327897896,-9999,1456907959.054318,34.7774658203125,38.23640441894531,12.0440673828125,281.1468200683594,277.8696899414062,25,10692.51812491667,0.20062255859375,0.9924468994140625,0.053314208984375,10692.50386791667,-0.02750299720946631,0.04674540134972484,-0.008949286527102272,10692.46884391667,-2.231175001930743,1.821988401281346,-1.358922794519301,-0.002838803455233574,0.005650537554174662,0.000975935603491962,-0.002230482408776879,0.01476248074322939,0.0004186951846349984,XArbitraryCorrectedZVertical,-0.3827098475273895,-0.6161721547793725,0.6465534610186049,0.2362914943982141,0.2036922723054886,0.9776386618614197,0.05226990208029747,33.44161224365234,41.33218383789062,11.87756729125977,1,10690.258175125,stationary,1,2016-03-02 02:39:16.840,2016-03-02 02:37:10.358,31,44.91673,0,0,2016-03-02 02:39:08.486,10691.261532125,0,-0.2543335,97.39956,192.168.1.101,100.78.239.175,2,1,0.39,0
2016-03-02 02:39:19.149,32,234B9614-18C8-49ED-8B56-CAB6C4F40872,my_iOS_device_1,1456907958.999845,40.79921262808218,-96.68578835213248,370.4008,0,125.15625,4,14.300327897896,-9999,1456907959.115875,34.25734710693359,38.27122497558594,12.34136962890625,281.1749267578125,277.8977966308594,25,10692.54841291667,0.205718994140625,0.9940643310546875,0.0556793212890625,10692.50386791667,-0.02750299720946631,0.04674540134972484,-0.008949286527102272,10692.50386791667,-2.229634523863679,1.823745577717598,-1.358718345139382,-0.009186932817101479,0.01308404561132193,-0.00125101103913039,0.003680129302665591,0.01050251722335815,0.00634323013946414,XArbitraryCorrectedZVertical,-0.3828702369693089,-0.6162379935832357,0.6464068147574309,0.2362611833177352,0.2037936300039291,0.9775956273078918,0.05267776548862457,33.40761566162109,41.35005569458008,11.91098976135254,1,10690.258175125,stationary,1,2016-03-02 02:39:16.840,2016-03-02 02:37:10.358,31,44.91673,0,0,2016-03-02 02:39:08.486,10691.261532125,0,-0.2543335,97.39956,192.168.1.101,100.78.239.175,2,1,0.39,0
2016-03-02 02:39:19.175,33,234B9614-18C8-49ED-8B56-CAB6C4F40872,my_iOS_device_1,1456907958.999845,40.79921262808218,-96.68578835213248,370.4008,0,125.15625,4,14.300327897896,-9999,1456907959.115875,34.25734710693359,38.27122497558594,12.34136962890625,281.1749267578125,277.8977966308594,25,10692.57870591667,0.205047607421875,0.998016357421875,0.0584259033203125,10692.57388491667,-0.02324833105195572,0.04674859714303293,-0.008887501189812434,10692.53888491667,-2.227830701139899,1.825924422746844,-1.358832712776653,-0.007062434684485197,0.009895811788737774,-0.001219356199726462,0.001996228704228997,0.01485772244632244,0.001059983391314745,XArbitraryCorrectedZVertical,-0.3829809897007342,-0.6163378059137067,0.6461985685565322,0.2363909484831928,0.2035701721906662,0.9776197075843811,0.05309345945715904,33.39647674560547,41.34673309326172,11.95366668701172,1,10690.258175125,stationary,1,2016-03-02 02:39:16.840,2016-03-02 02:37:10.358,31,44.91673,0,0,2016-03-02 02:39:08.486,10692.57322791667,0,-0.2543335,97.39956,192.168.1.101,100.78.239.175,2,1,0.39,0
2016-03-02 02:39:19.194,34,234B9614-18C8-49ED-8B56-CAB6C4F40872,my_iOS_device_1,1456907958.999845,40.79921262808218,-96.68578835213248,370.4008,0,125.15625,4,14.300327897896,-9999,1456907959.17573,34.39604949951172,38.27122497558594,12.407470703125,281.2139587402344,277.9368286132812,25,10692.60899891667,0.205718994140625,0.9944610595703125,0.0555419921875,10692.57388491667,-0.02324833105195572,0.04674859714303293,-0.008887501189812434,10692.57388491667,-2.225722263565251,1.828492207162134,-1.358899458332327,-0.004925656132400036,0.01305246260017157,-0.001178575679659843,-0.0003671468002721667,0.01902459003031254,0.00641343928873539,XArbitraryCorrectedZVertical,-0.3831387709249435,-0.6164449457766371,0.6459536231844271,0.236525321552355,0.2033700793981552,0.9776337146759033,0.05359937623143196,33.39102172851562,41.34722137451172,11.96721458435059,1,10690.258175125,stationary,1,2016-03-02 02:39:16.840,2016-03-02 02:37:10.358,31,44.91673,0,0,2016-03-02 02:39:08.486,10692.57322791667,0,-0.2543335,97.39956,192.168.1.101,100.78.239.175,2,1,0.39,0
2016-03-02 02:39:19.228,35,234B9614-18C8-49ED-8B56-CAB6C4F40872,my_iOS_device_1,1456907958.999845,40.79921262808218,-96.68578835213248,370.4008,0,125.15625,4,14.300327897896,-9999,1456907959.17573,34.39604949951172,38.27122497558594,12.407470703125,281.2139587402344,277.9368286132812,25,10692.63929191667,0.20123291015625,0.990692138671875,0.0630340576171875,10692.60891191667,-0.0158367537382652,0.04037964739610844,-0.006645119551965715,10692.57388491667,-2.225722263565251,1.828492207162134,-1.358899458332327,-0.004925656132400036,0.01305246260017157,-0.001178575679659843,-0.0003671468002721667,0.01902459003031254,0.00641343928873539,XArbitraryCorrectedZVertical,-0.3831387709249435,-0.6164449457766371,0.6459536231844271,0.236525321552355,0.2033700793981552,0.9776337146759033,0.05359937623143196,33.39102172851562,41.34722137451172,11.96721458435059,1,10690.258175125,stationary,1,2016-03-02 02:39:16.840,2016-03-02 02:37:10.358,31,44.91673,0,0,2016-03-02 02:39:08.486,10692.57322791667,0,-0.2543335,97.39956,192.168.1.101,100.78.239.175,2,1,0.39,0
2016-03-02 02:39:19.255,36,234B9614-18C8-49ED-8B56-CAB6C4F40872,my_iOS_device_1,1456907958.999845,40.79921262808218,-96.68578835213248,370.4008,0,125.15625,4,14.300327897896,-9999,1456907959.22994,35.15888977050781,37.92314147949219,12.275390625,281.2320556640625,277.9549255371094,25,10692.66958091667,0.205902099609375,0.9963226318359375,0.058135986328125,10692.64391691667,-0.01155945071148893,0.05101391594490384,-0.007654191288996738,10692.60891191667,-2.224430111851991,1.830083409433693,-1.35895733028812,0.002484531374648213,0.006684004329144955,0.001063079107552767,0.0004139539087191224,0.01754757761955261,0.007157267071306705,XArbitraryCorrectedZVertical,-0.3832353441956552,-0.6165102386303203,0.6457995446675903,0.2366194090313135,0.2032298445701599,0.9776459336280823,0.05390840768814087,33.37602996826172,41.34858703613281,12.00425910949707,1,10690.258175125,stationary,1,2016-03-02 02:39:16.840,2016-03-02 02:37:10.358,31,44.91673,0,0,2016-03-02 02:39:08.486,10692.57322791667,0,-0.2543335,97.39956,192.168.1.101,100.78.239.175,2,1,0.39,0
2016-03-02 02:39:19.310,37,234B9614-18C8-49ED-8B56-CAB6C4F40872,my_iOS_device_1,1456907958.999845,40.79921262808218,-96.68578835213248,370.4008,0,125.15625,4,14.300327897896,-9999,1456907959.288851,35.50563812255859,37.99273681640625,11.81292724609375,281.2291564941406,277.9520263671875,25,10692.69985691667,0.2105255126953125,0.98980712890625,0.063323974609375,10692.67893391667,-0.02011086097173337,0.03399897974038758,-0.005638178343806755,10692.64391691667,-2.223401527434759,1.831608625730372,-1.359027978860109,0.006760016083717346,0.01731894165277481,5.323096411302686e-05,-0.001847742474637926,0.01303138211369514,0.008833554573357105,XArbitraryCorrectedZVertical,-0.3833875017650779,-0.6165340824574298,0.6456264814559446,0.2367830126962172,0.2030806541442871,0.9776607751846313,0.05420050397515297,33.3698844909668,41.34947204589844,12.0182933807373,1,10690.258175125,stationary,1,2016-03-02 02:39:16.840,2016-03-02 02:37:10.358,31,44.91673,0,0,2016-03-02 02:39:08.486,10692.57322791667,0,-0.2543335,97.39956,192.168.1.101,100.78.239.175,2,1,0.39,0
2016-03-02 02:39:19.323,38,234B9614-18C8-49ED-8B56-CAB6C4F40872,my_iOS_device_1,1456907958.999845,40.79921262808218,-96.68578835213248,370.4008,0,125.15625,4,14.300327897896,-9999,1456907959.288851,35.50563812255859,37.99273681640625,11.81292724609375,281.2291564941406,277.9520263671875,25,10692.73015591667,0.2038726806640625,0.9921112060546875,0.0611724853515625,10692.71394991667,-0.01588708748286769,0.03188123404155658,-0.003444266237799479,10692.67893391667,-2.222525683583822,1.832824026594387,-1.35909699611819,-0.001792541239410639,0.0003044480690732598,0.002068589674308896,0.002952645067125559,0.01864737085998058,0.003706178395077586,XArbitraryCorrectedZVertical,-0.3834871429080346,-0.6165650940871639,0.6454947880181121,0.236899925324903,0.2029494494199753,0.9776752591133118,0.0544298067688942,33.35832977294922,41.35128402709961,12.04412174224854,1,10690.258175125,stationary,1,2016-03-02 02:39:16.840,2016-03-02 02:37:10.358,31,44.91673,0,0,2016-03-02 02:39:08.486,10692.57322791667,0,-0.2543335,97.39956,192.168.1.101,100.78.239.175,2,1,0.39,0
2016-03-02 02:39:19.345,39,234B9614-18C8-49ED-8B56-CAB6C4F40872,my_iOS_device_1,1456907958.999845,40.79921262808218,-96.68578835213248,370.4008,0,125.15625,4,14.300327897896,-9999,1456907959.324136,35.36693572998047,38.13198852539062,11.81292724609375,281.2259521484375,277.9488220214844,25,10692.76044591667,0.2043914794921875,0.9959716796875,0.0630035400390625,10692.71394991667,-0.01588708748286769,0.03188123404155658,-0.003444266237799479,10692.71394991667,-2.22155590373658,1.833736377101713,-1.358646583358538,0.002483281074091792,-0.00185165461152792,0.004275603219866753,0.004148842301219702,0.007282761391252279,0.008258881978690624,XArbitraryCorrectedZVertical,-0.3836305573158129,-0.6165973523465711,0.6454501131438746,0.2367054118842437,0.2033249139785767,0.9775805473327637,0.0547293983399868,33.36197662353516,41.34075164794922,12.07012557983398,1,10690.258175125,stationary,1,2016-03-02 02:39:16.840,2016-03-02 02:37:10.358,31,44.91673,0,0,2016-03-02 02:39:08.486,10692.57322791667,0,-0.2543335,97.39956,192.168.1.101,100.78.239.175,2,1,0.39,0
2016-03-02 02:39:19.388,40,234B9614-18C8-49ED-8B56-CAB6C4F40872,my_iOS_device_1,1456907958.999845,40.79921262808218,-96.68578835213248,370.4008,0,125.15625,4,14.300327897896,-9999,1456907959.376636,34.98551940917969,38.23638916015625,11.51556396484375,281.2134094238281,277.936279296875,25,10692.79073991667,0.206207275390625,0.9901580810546875,0.0553131103515625,10692.74896191667,-0.02651736129002798,0.04038044634443546,-0.003602990638768201,10692.74896191667,-2.219441750410776,1.835968096085757,-1.358485582314893,-0.008148413151502609,0.006648064125329256,0.004116122610867023,-0.001892361557111144,0.01848610863089561,0.006360198836773634,XArbitraryCorrectedZVertical,-0.3837517294635915,-0.6167225851972911,0.6452775919032193,0.2366531056817714,0.203354150056839,0.9775466322898865,0.05522427335381508,33.36680603027344,41.33416748046875,12.07932662963867,1,10690.258175125,stationary,1,2016-03-02 02:39:16.840,2016-03-02 02:37:10.358,31,44.91673,0,0,2016-03-02 02:39:08.486,10692.57322791667,0,-0.2543335,97.39956,192.168.1.101,100.78.239.175,2,1,0.39,0
2016-03-02 02:39:19.406,41,234B9614-18C8-49ED-8B56-CAB6C4F40872,my_iOS_device_1,1456907958.999845,40.79921262808218,-96.68578835213248,370.4008,0,125.15625,4,14.300327897896,-9999,1456907959.376636,34.98551940917969,38.23638916015625,11.51556396484375,281.2134094238281,277.936279296875,25,10692.82103191667,0.2075653076171875,0.989105224609375,0.0590972900390625,10692.78394491667,-0.01801362161329597,0.03294303636817117,-0.003475691538662414,10692.78394491667,-2.218440197117797,1.83701908982563,-1.35844644987424,0.0003540531033650041,-0.00078880216460675,0.004242639057338238,0.001424783607944846,0.01492379885166883,6.344317807815969e-05,XArbitraryCorrectedZVertical,-0.3837948029726659,-0.6167864824459086,0.6451957263730861,0.2366399352456243,0.2033329010009766,0.9775383472442627,0.05544803291559219,33.36467742919922,41.33080291748047,12.09671783447266,1,10690.258175125,stationary,1,2016-03-02 02:39:16.840,2016-03-02 02:37:10.358,31,44.91673,0,0,2016-03-02 02:39:08.486,10692.57322791667,0,-0.2543335,97.39956,192.168.1.101,100.78.239.175,2,1,0.39,0
2016-03-02 02:39:19.436,42,234B9614-18C8-49ED-8B56-CAB6C4F40872,my_iOS_device_1,1456907958.999845,40.79921262808218,-96.68578835213248,370.4008,0,125.15625,4,14.300327897896,-9999,1456907959.376636,34.98551940917969,38.23638916015625,11.51556396484375,281.2134094238281,277.936279296875,25,10692.85130891667,0.210540771484375,0.99688720703125,0.0626678466796875,10692.81898991667,-0.02974165042178692,0.03506690733750936,-0.001515604976364094,10692.78394491667,-2.218440197117797,1.83701908982563,-1.35844644987424,0.0003540531033650041,-0.00078880216460675,0.004242639057338238,0.001424783607944846,0.01492379885166883,6.344317807815969e-05,XArbitraryCorrectedZVertical,-0.3837948029726659,-0.6167864824459086,0.6451957263730861,0.2366399352456243,0.2033329010009766,0.9775383472442627,0.05544803291559219,33.36467742919922,41.33080291748047,12.09671783447266,1,10692.83918791667,unknown,1,2016-03-02 02:39:19.425,2016-03-02 02:37:10.358,31,44.91673,0,0,2016-03-02 02:39:08.486,10692.57322791667,0,-0.2543335,97.39956,192.168.1.101,100.78.239.175,2,1,0.39,0
2016-03-02 02:39:19.473,43,234B9614-18C8-49ED-8B56-CAB6C4F40872,my_iOS_device_1,1456907958.999845,40.79921262808218,-96.68578835213248,370.4008,0,125.15625,4,14.300327897896,-9999,1456907959.436951,35.05486297607422,38.30598449707031,11.44952392578125,281.1982727050781,277.921142578125,25,10692.88159791667,0.209075927734375,0.991424560546875,0.0569610595703125,10692.85399991667,-0.02333674800014635,0.02655864028692421,-0.003549727416966617,10692.85399991667,-2.21459216036382,1.84088102484412,-1.357592484468705,-0.004970921203494072,-0.0071724783629179,0.004169452004134655,0.00661906972527504,0.01952918246388435,0.006212261505424976,XArbitraryCorrectedZVertical,-0.3841342438892756,-0.6169835291719279,0.6449368255447591,0.2362809735429131,0.2039217054843903,0.9773580431938171,0.0564555861055851,33.36849594116211,41.32146835327148,12.11805820465088,1,10692.83918791667,unknown,1,2016-03-02 02:39:19.425,2016-03-02 02:37:10.358,31,44.91673,0,0,2016-03-02 02:39:08.486,10692.57322791667,0,-0.2543335,97.39956,192.168.1.101,100.78.239.175,2,1,0.39,0
2016-03-02 02:39:19.503,44,234B9614-18C8-49ED-8B56-CAB6C4F40872,my_iOS_device_1,1456907958.999845,40.79921262808218,-96.68578835213248,370.4008,0,125.15625,4,14.300327897896,-9999,1456907959.474589,35.15888977050781,38.6192626953125,11.74676513671875,281.1948547363281,277.917724609375,25,10692.91189691667,0.2091827392578125,0.987457275390625,0.05267333984375,10692.88901091667,-0.02019128843665376,0.02444302511696526,-0.0003057308931410966,10692.88901091667,-2.214721392221298,1.840345960017314,-1.35733413786184,-0.001747505622915924,-0.00932374969124794,0.007425002753734589,0.00488067464902997,0.0141212334856391,0.0005473563214763999,XArbitraryCorrectedZVertical,-0.3840865039145722,-0.6169962796679997,0.6450324863527463,0.2360640589672502,0.2041952461004257,0.9773033261299133,0.05641370266675949,33.39079284667969,41.29254913330078,12.15514278411865,1,10692.83918791667,unknown,1,2016-03-02 02:39:19.425,2016-03-02 02:37:10.358,31,44.91673,0,0,2016-03-02 02:39:08.486,10692.57322791667,0,-0.2543335,97.39956,192.168.1.101,100.78.239.175,2,1,0.39,0
2016-03-02 02:39:19.548,45,234B9614-18C8-49ED-8B56-CAB6C4F40872,my_iOS_device_1,1456907958.999845,40.79921262808218,-96.68578835213248,370.4008,0,125.15625,4,14.300327897896,-9999,1456907959.523924,34.95084381103516,38.20156860351562,11.6146240234375,281.1881713867188,277.9110412597656,25,10692.94218891667,0.2076873779296875,0.99566650390625,0.0611724853515625,10692.92402291667,-0.02123711179672788,0.02869289758451371,-0.001388838508476323,10692.88901091667,-2.214721392221298,1.840345960017314,-1.35733413786184,-0.001747505622915924,-0.00932374969124794,0.007425002753734589,0.00488067464902997,0.0141212334856391,0.0005473563214763999,XArbitraryCorrectedZVertical,-0.3840865039145722,-0.6169962796679997,0.6450324863527463,0.2360640589672502,0.2041952461004257,0.9773033261299133,0.05641370266675949,33.39079284667969,41.29254913330078,12.15514278411865,1,10692.83918791667,unknown,1,2016-03-02 02:39:19.425,2016-03-02 02:37:10.358,31,44.91673,0,0,2016-03-02 02:39:08.486,10692.57322791667,0,-0.2543335,97.39956,192.168.1.101,100.78.239.175,2,1,0.39,0
2016-03-02 02:39:19.558,46,234B9614-18C8-49ED-8B56-CAB6C4F40872,my_iOS_device_1,1456907958.999845,40.79921262808218,-96.68578835213248,370.4008,0,125.15625,4,14.300327897896,-9999,1456907959.523924,34.95084381103516,38.20156860351562,11.6146240234375,281.1881713867188,277.9110412597656,25,10692.97247991667,0.2115478515625,0.9934234619140625,0.061126708984375,10692.95902191667,-0.01695714560886153,0.02337323330708043,-0.003455451514377812,10692.92402291667,-2.215584386646563,1.839233435928002,-1.356969708790115,-0.002792872255668044,-0.005073769018054008,0.006342405918985605,0.003894816618412733,0.01354237273335457,0.001961843576282263,XArbitraryCorrectedZVertical,-0.3841136827328744,-0.6169255675717805,0.645155901639539,0.2358673046296772,0.2046012729406357,0.9772260785102844,0.0562809556722641,33.41206359863281,41.2806510925293,12.13710975646973,1,10692.83918791667,unknown,1,2016-03-02 02:39:19.425,2016-03-02 02:37:10.358,31,44.91673,0,0,2016-03-02 02:39:08.486,10692.57322791667,0,-0.2543335,97.39956,192.168.1.101,100.78.239.175,2,1,0.39,0
2016-03-02 02:39:19.587,47,234B9614-18C8-49ED-8B56-CAB6C4F40872,my_iOS_device_1,1456907958.999845,40.79921262808218,-96.68578835213248,370.4008,0,125.15625,4,14.300327897896,-9999,1456907959.582721,34.63877487182617,38.37562561035156,11.9779052734375,281.1885070800781,277.911376953125,25,10693.00274991667,0.213470458984375,0.984649658203125,0.060760498046875,10692.99404991667,-0.009509615620454943,0.006361492895872276,-0.004404335810773044,10692.95902191667,-2.214526053399227,1.840069823715062,-1.356827245916787,0.001485925633460283,-0.01039299555122852,0.00427544116973877,0.003227927489206195,0.02039329148828983,0.006926430854946375,XArbitraryCorrectedZVertical,-0.3841038265919813,-0.6170160440956182,0.6451245663164917,0.2357323602327852,0.2046883255243301,0.9771957993507385,0.05648909509181976,33.42509841918945,41.27038192749023,12.13614654541016,1,10692.83918791667,unknown,1,2016-03-02 02:39:19.425,2016-03-02 02:37:10.358,31,44.91673,0,0,2016-03-02 02:39:08.486,10692.57322791667,0,-0.2543335,97.39956,192.168.1.101,100.78.239.175,2,1,0.39,0
2016-03-02 02:39:19.629,48,234B9614-18C8-49ED-8B56-CAB6C4F40872,my_iOS_device_1,1456907958.999845,40.79921262808218,-96.68578835213248,370.4008,0,125.15625,4,14.300327897896,-9999,1456907959.582721,34.63877487182617,38.37562561035156,11.9779052734375,281.1885070800781,277.911376953125,25,10693.03306291667,0.2200775146484375,0.987640380859375,0.0548248291015625,10692.99404991667,-0.009509615620454943,0.006361492895872276,-0.004404335810773044,10692.99404991667,-2.216358453660048,1.837682465506551,-1.35640412865048,0.008932961151003838,-0.02740450948476791,0.003328074002638459,0.01076673902571201,0.009878366254270077,-0.003420711727812886,XArbitraryCorrectedZVertical,-0.3840379231394319,-0.6169031761480519,0.6453806688736761,0.2354339336062955,0.20522141456604,0.9771059155464172,0.05610930919647217,33.43125915527344,41.26520919799805,12.13675975799561,1,10692.83918791667,unknown,1,2016-03-02 02:39:19.425,2016-03-02 02:37:10.358,31,44.91673,0,0,2016-03-02 02:39:08.486,10692.57322791667,0,-0.2543335,97.39956,192.168.1.101,100.78.239.175,2,1,0.39,0
2016-03-02 02:39:19.648,49,234B9614-18C8-49ED-8B56-CAB6C4F40872,my_iOS_device_1,1456907958.999845,40.79921262808218,-96.68578835213248,370.4008,0,125.15625,4,14.300327897896,-9999,1456907959.641088,35.08954238891602,37.92311096191406,11.68072509765625,281.1805114746094,277.9033813476562,25,10693.06335691667,0.2066192626953125,0.9991302490234375,0.057830810546875,10693.02906491667,-0.03085751491853012,-0.01491077262724465,-0.000440486844299106,10693.02906491667,-2.215614404749637,1.837271278562217,-1.355577357289619,-0.01231985446065664,-0.04870293661952019,0.007303969003260136,0.01489301305264235,0.01960660144686699,-0.002725060097873211,XArbitraryCorrectedZVertical,-0.3839473317565248,-0.617011558324198,0.6455736191141778,0.2347677269881489,0.2060237377882004,0.9769296646118164,0.05623763427138329,33.46697616577148,41.24772262573242,12.09770393371582,1,10692.83918791667,unknown,1,2016-03-02 02:39:19.425,2016-03-02 02:37:10.358,31,44.91673,0,0,2016-03-02 02:39:08.486,10692.57322791667,0,-0.2543335,97.39956,192.168.1.101,100.78.239.175,2,1,0.39,0
2016-03-02 02:39:19.680,50,234B9614-18C8-49ED-8B56-CAB6C4F40872,my_iOS_device_1,1456907958.999845,40.79921262808218,-96.68578835213248,370.4008,0,125.15625,4,14.300327897896,-9999,1456907959.641088,35.08954238891602,37.92311096191406,11.68072509765625,281.1805114746094,277.9033813476562,25,10693.09364991667,0.2055206298828125,0.9910430908203125,0.0557403564453125,10693.06407691667,-0.0435378901328334,-0.00111080449067205,-0.005960420835706343,10693.06407691667,-2.211800225822822,1.839224070663092,-1.35488957233647,-0.02500107698142529,-0.03490270674228668,0.001786233042366803,5.793420496047474e-05,0.02234771102666855,0.001012773485854268,XArbitraryCorrectedZVertical,-0.3836266129437155,-0.6174460627446245,0.6456674012263326,0.2338901204328591,0.2065613269805908,0.9767825603485107,0.05681803822517395,33.531494140625,41.2048454284668,12.06511402130127,1,10692.83918791667,unknown,1,2016-03-02 02:39:19.425,2016-03-02 02:37:10.358,31,44.91673,0,0,2016-03-02 02:39:08.486,10692.57322791667,0,-0.2543335,97.39956,192.168.1.101,100.78.239.175,2,1,0.39,0
2016-03-02 02:39:19.709,51,234B9614-18C8-49ED-8B56-CAB6C4F40872,my_iOS_device_1,1456907958.999845,40.79921262808218,-96.68578835213248,370.4008,0,125.15625,4,14.300327897896,-9999,1456907959.701796,34.91616821289062,38.30598449707031,11.64764404296875,281.1711730957031,277.89404296875,25,10693.12394191667,0.20404052734375,0.9966278076171875,0.049560546875,10693.09908891667,-0.02547127161384486,0.0169864403808524,-0.003575826395649393,10693.09908891667,-2.209484687777281,1.840534284785847,-1.354836232530044,-0.006934790872037411,-0.01680512726306915,0.004169590305536985,-0.001016294700093567,0.01427198015153408,-0.001362155191600323,XArbitraryCorrectedZVertical,-0.383352111194153,-0.6177316688352239,0.6456883855432697,0.2335278418851388,0.2065369188785553,0.9767711162567139,0.0571025125682354,33.54546737670898,41.19588470458984,12.05687236785889,1,10692.83918791667,unknown,1,2016-03-02 02:39:19.425,2016-03-02 02:37:10.358,31,44.91673,0,0,2016-03-02 02:39:08.486,10692.57322791667,0,-0.2543335,97.39956,192.168.1.101,100.78.239.175,2,1,0.39,0
2016-03-02 02:39:19.739,52,234B9614-18C8-49ED-8B56-CAB6C4F40872,my_iOS_device_1,1456907958.999845,40.79921262808218,-96.68578835213248,370.4008,0,125.15625,4,14.300327897896,-9999,1456907959.701796,34.91616821289062,38.30598449707031,11.64764404296875,281.1711730957031,277.89404296875,25,10693.15422991667,0.208648681640625,0.9944000244140625,0.059722900390625,10693.13410391667,-0.02655864028692421,0.02443530194980403,-0.001463939651216557,10693.09908891667,-2.209484687777281,1.840534284785847,-1.354836232530044,-0.006934790872037411,-0.01680512726306915,0.004169590305536985,-0.001016294700093567,0.01427198015153408,-0.001362155191600323,XArbitraryCorrectedZVertical,-0.383352111194153,-0.6177316688352239,0.6456883855432697,0.2335278418851388,0.2065369188785553,0.9767711162567139,0.0571025125682354,33.54546737670898,41.19588470458984,12.05687236785889,1,10692.83918791667,unknown,1,2016-03-02 02:39:19.425,2016-03-02 02:37:10.358,31,44.91673,0,0,2016-03-02 02:39:08.486,10692.57322791667,0,-0.2543335,97.39956,192.168.1.101,100.78.239.175,2,1,0.39,0
2016-03-02 02:39:19.792,53,234B9614-18C8-49ED-8B56-CAB6C4F40872,my_iOS_device_1,1456907958.999845,40.79921262808218,-96.68578835213248,370.4008,0,125.15625,4,14.300327897896,-9999,1456907959.762006,34.77746963500977,38.09715270996094,11.31732177734375,281.1463317871094,277.8692016601562,25,10693.18452891667,0.2061309814453125,0.9893646240234375,0.0518035888671875,10693.16911591667,-0.01476563034783533,0.03080691485781861,-0.007690410279821816,10693.13410391667,-2.2098939939366,1.839637543064342,-1.355042430892913,-0.008020205423235893,-0.009356320835649967,0.006279692053794861,-0.001636179047636688,0.02471060492098331,-0.004953379742801189,XArbitraryCorrectedZVertical,-0.383121203214502,-0.6177783046994726,0.6458061718731064,0.2334577012237774,0.2063938677310944,0.9768152832984924,0.05686378106474876,33.54853439331055,41.19666290283203,12.04566764831543,1,10692.83918791667,unknown,1,2016-03-02 02:39:19.425,2016-03-02 02:37:10.358,31,44.91673,0,0,2016-03-02 02:39:08.486,10692.57322791667,0,-0.2543335,97.39956,192.168.1.101,100.78.239.175,2,1,0.39,0
2016-03-02 02:39:19.800,54,234B9614-18C8-49ED-8B56-CAB6C4F40872,my_iOS_device_1,1456907958.999845,40.79921262808218,-96.68578835213248,370.4008,0,125.15625,4,14.300327897896,-9999,1456907959.762006,34.77746963500977,38.09715270996094,11.31732177734375,281.1463317871094,277.8692016601562,25,10693.21482291667,0.2100982666015625,0.993560791015625,0.0536041259765625,10693.20412691667,-0.01372486699383236,0.03932077454669293,-0.005548163498962077,10693.16911591667,-2.210205903028181,1.839053097973372,-1.35506191205165,0.003772587515413761,-0.002984418999403715,5.263034836389124e-05,0.0006072722026146948,0.01857240125536919,-0.0005247219232842326,XArbitraryCorrectedZVertical,-0.3830224141291565,-0.6177887023021144,0.6458811154700641,0.2333849486613404,0.2064087241888046,0.9768194556236267,0.05673810094594955,33.55374908447266,41.20034027099609,12.01855850219727,1,10692.83918791667,unknown,1,2016-03-02 02:39:19.425,2016-03-02 02:37:10.358,31,44.91673,0,0,2016-03-02 02:39:08.486,10692.57322791667,0,-0.2543335,97.39956,192.168.1.101,100.78.239.175,2,1,0.39,0
2016-03-02 02:39:19.830,55,234B9614-18C8-49ED-8B56-CAB6C4F40872,my_iOS_device_1,1456907958.999845,40.79921262808218,-96.68578835213248,370.4008,0,125.15625,4,14.300327897896,-9999,1456907959.810787,34.84681701660156,37.74906921386719,11.51556396484375,281.1282348632812,277.8511047363281,25,10693.24509891667,0.209930419921875,0.9937744140625,0.0547027587890625,10693.20412691667,-0.01372486699383236,0.03932077454669293,-0.005548163498962077,10693.20412691667,-2.212406782078045,1.836987585049892,-1.355240793080475,0.004939158912748098,0.005503136198967695,0.002205548575147986,0.003298873314633965,0.01154559850692749,-0.004629931878298521,XArbitraryCorrectedZVertical,-0.3829762564038424,-0.6176261198972719,0.6460142081942484,0.2335226024663681,0.2063568830490112,0.9768577218055725,0.05626567453145981,33.5491828918457,41.20682525634766,12.00905895233154,1,10692.83918791667,unknown,1,2016-03-02 02:39:19.425,2016-03-02 02:37:10.358,31,44.91673,0,0,2016-03-02 02:39:08.486,10692.57322791667,0,-0.2543335,97.39956,192.168.1.101,100.78.239.175,2,1,0.39,0
