loggingTime,loggingSample,identifierForVendor,deviceID,locationTimestamp_since1970,locationLatitude,locationLongitude,locationAltitude,locationSpeed,locationCourse,locationVerticalAccuracy,locationHorizontalAccuracy,locationFloor,locationHeadingTimestamp_since1970,locationHeadingX,locationHeadingY,locationHeadingZ,locationTrueHeading,locationMagneticHeading,locationHeadingAccuracy,accelerometerTimestamp_sinceReboot,accelerometerAccelerationX,accelerometerAccelerationY,accelerometerAccelerationZ,gyroTimestamp_sinceReboot,gyroRotationX,gyroRotationY,gyroRotationZ,motionTimestamp_sinceReboot,motionYaw,motionRoll,motionPitch,motionRotationRateX,motionRotationRateY,motionRotationRateZ,motionUserAccelerationX,motionUserAccelerationY,motionUserAccelerationZ,motionAttitudeReferenceFrame,motionQuaternionX,motionQuaternionY,motionQuaternionZ,motionQuaternionW,motionGravityX,motionGravityY,motionGravityZ,motionMagneticFieldX,motionMagneticFieldY,motionMagneticFieldZ,motionMagneticFieldCalibrationAccuracy,activityTimestamp_sinceReboot,activity,activityActivityConfidence,activityActivityStartDate,pedometerStartDate,pedometerNumberofSteps,pedometerDistance,pedometerFloorAscended,pedometerFloorDescended,pedometerEndDate,altimeterTimestamp_sinceReboot,altimeterReset,altimeterRelativeAltitude,altimeterPressure,IP_en0,IP_pdp_ip0,deviceOrientation,batteryState,batteryLevel,state
2016-03-02 02:38:56.846,1,234B9614-18C8-49ED-8B56-CAB6C4F40872,my_iOS_device_1,1456907935.999845,40.79920118678435,-96.68574694553081,371.0263,0.19,174.7265625,4,10,-9999,1456907936.803972,37.50060272216797,37.55223083496094,9.0787353515625,274.8367614746094,271.5596313476562,25,10670.25208379167,0.248046875,0.984832763671875,0.015411376953125,10670.23609079167,-0.03706987079335795,0.0158937453855929,-0.01120391870596336,10670.20105979167,-2.421988360216872,1.674090867552985,-1.32117739392347,-0.1267657279968262,0.03673331439495087,-0.01331065688282251,0.01110268756747246,0.005114465020596981,-0.03961688280105591,XArbitraryCorrectedZVertical,-0.4042119489630023,-0.5910572669083363,0.6553670579774373,0.2403289971442238,0.2457179874181747,0.9690066576004028,0.02547198534011841,34.22375106811523,37.86376190185547,6.495659828186035,1,10670.21682179167,stationary,1,2016-03-02 02:38:56.805,2016-03-02 02:37:10.358,14,14.53673,0,0,2016-03-02 02:38:47.801,10670.25811279167,0,-0.009338379,97.39671,192.168.1.101,100.78.239.175,2,1,0.39,0
2016-03-02 02:38:56.875,2,234B9614-18C8-49ED-8B56-CAB6C4F40872,my_iOS_device_1,1456907935.999845,40.79920118678435,-96.68574694553081,371.0263,0.19,174.7265625,4,10,-9999,1456907936.856031,37.60463714599609,37.16932678222656,9.50823974609375,274.8600463867188,271.5829162597656,25,10670.28238079167,0.2501068115234375,0.9774627685546875,0.0296783447265625,10670.27110179167,-0.06579632420760667,0.0254457052673801,-0.0105602326704912,10670.23609079167,-2.409373602455005,1.686708752177975,-1.321252987613059,-0.01946290209889412,-0.01527469605207443,-0.005331312771886587,-0.0006143355276435614,0.02137692086398602,0.02212785370647907,XArbitraryCorrectedZVertical,-0.4045887895683083,-0.5921054243807385,0.6543238025224559,0.2399571612331699,0.2453042715787888,0.9690253138542175,0.02856184355914593,34.22378921508789,37.84595489501953,6.598449230194092,1,10670.21682179167,stationary,1,2016-03-02 02:38:56.805,2016-03-02 02:37:10.358,14,14.53673,0,0,2016-03-02 02:38:47.801,10670.25811279167,0,-0.009338379,97.39671,192.168.1.101,100.78.239.175,2,1,0.39,0
2016-03-02 02:38:56.907,3,234B9614-18C8-49ED-8B56-CAB6C4F40872,my_iOS_device_1,1456907935.999845,40.79920118678435,-96.68574694553081,371.0263,0.19,174.7265625,4,10,-9999,1456907936.856031,37.60463714599609,37.16932678222656,9.50823974609375,274.8600463867188,271.5829162597656,25,10670.31267579167,0.2476806640625,0.9761810302734375,0.0323333740234375,10670.30611379167,-0.06465942073825184,0.02543185682971168,-0.01587244009687226,10670.27110179167,-2.405294868627708,1.690342596921348,-1.321446066910253,-0.04818791896104813,-0.005722929257899523,-0.004688240587711334,0.0008059914689511061,0.0161565262824297,-0.004879345651715994,XArbitraryCorrectedZVertical,-0.4045099519303936,-0.5925260057085969,0.6540616541657013,0.239766519552424,0.245013102889061,0.9690729379653931,0.02943073771893978,34.2044792175293,37.85120010375977,6.668096542358398,1,10670.21682179167,stationary,1,2016-03-02 02:38:56.805,2016-03-02 02:37:10.358,14,14.53673,0,0,2016-03-02 02:38:47.801,10670.25811279167,0,-0.009338379,97.39671,192.168.1.101,100.78.239.175,2,1,0.39,0
2016-03-02 02:38:56.938,4,234B9614-18C8-49ED-8B56-CAB6C4F40872,my_iOS_device_1,1456907935.999845,40.79920118678435,-96.68574694553081,371.0263,0.19,174.7265625,4,10,-9999,1456907936.925076,38.26352691650391,36.92567443847656,8.81439208984375,274.240966796875,270.9638366699219,25,10670.34294479167,0.252960205078125,0.982269287109375,0.020172119140625,10670.34113079167,-0.07428941123997837,0.0275631846501021,-0.01175039936164761,10670.30611379167,-2.399084123545026,1.696164038492953,-1.321414350425036,-0.04705120623111725,-0.005736527033150196,-0.009999792091548443,0.003621265292167664,0.006642869673669338,0.002052804920822382,XArbitraryCorrectedZVertical,-0.404582037171914,-0.5930797389682828,0.6536308289153259,0.2394504915730424,0.2448681145906448,0.9690651297569275,0.03086040355265141,34.2044792175293,37.85120010375977,6.668096542358398,1,10670.21682179167,stationary,1,2016-03-02 02:38:56.805,2016-03-02 02:37:10.358,14,14.53673,0,0,2016-03-02 02:38:47.801,10670.25811279167,0,-0.009338379,97.39671,192.168.1.101,100.78.239.175,2,1,0.39,0
2016-03-02 02:38:56.987,5,234B9614-18C8-49ED-8B56-CAB6C4F40872,my_iOS_device_1,1456907935.999845,40.79920118678435,-96.68574694553081,371.0263,0.19,174.7265625,4,10,-9999,1456907936.973903,38.15949249267578,37.03012084960938,8.97967529296875,274.2709350585938,270.9938049316406,25,10670.37324679167,0.2478790283203125,0.982666015625,0.0399169921875,10670.34113079167,-0.07428941123997837,0.0275631846501021,-0.01175039936164761,10670.34113079167,-2.392566960960406,1.702274985125246,-1.32134199448982,-0.05665117502212524,-0.00358171621337533,-0.005879034288227558,0.006689857225865126,0.01351192593574524,-0.01066738832741976,XArbitraryCorrectedZVertical,-0.4046673626746146,-0.5936556397108995,0.6531800558673927,0.2391090162299501,0.2447444647550583,0.9690472483634949,0.03236538544297218,34.1927490234375,37.84096527099609,6.785351276397705,1,10670.21682179167,stationary,1,2016-03-02 02:38:56.805,2016-03-02 02:37:10.358,14,14.53673,0,0,2016-03-02 02:38:47.801,10670.25811279167,0,-0.009338379,97.39671,192.168.1.101,100.78.239.175,2,1,0.39,0
2016-03-02 02:38:56.997,6,234B9614-18C8-49ED-8B56-CAB6C4F40872,my_iOS_device_1,1456907935.999845,40.79920118678435,-96.68574694553081,371.0263,0.19,174.7265625,4,10,-9999,1456907936.973903,38.15949249267578,37.03012084960938,8.97967529296875,274.2709350585938,270.9938049316406,25,10670.40355179167,0.2479095458984375,0.987579345703125,0.043121337890625,10670.37613779167,-0.06996310604914464,0.02542493261087748,-0.01701520252062526,10670.37613779167,-2.385721967784452,1.708714542224438,-1.321137974827987,-0.0523243136703968,-0.005719913635402918,-0.01114256866276264,0.003152228659018874,0.01366912573575974,0.005949062295258045,XArbitraryCorrectedZVertical,-0.4048002318747941,-0.5942396295015422,0.652710590619188,0.2387151438378035,0.2447268068790436,0.9689968824386597,0.03396793082356453,34.19584655761719,37.83368682861328,6.810261726379395,1,10670.21682179167,stationary,1,2016-03-02 02:38:56.805,2016-03-02 02:37:10.358,14,14.53673,0,0,2016-03-02 02:38:47.801,10670.25811279167,0,-0.009338379,97.39671,192.168.1.101,100.78.239.175,2,1,0.39,0
2016-03-02 02:38:57.027,7,234B9614-18C8-49ED-8B56-CAB6C4F40872,my_iOS_device_1,1456907935.999845,40.79920118678435,-96.68574694553081,371.0263,0.19,174.7265625,4,10,-9999,1456907936.973903,38.15949249267578,37.03012084960938,8.97967529296875,274.2709350585938,270.9938049316406,25,10670.43383879167,0.249267578125,0.9864501953125,0.0365753173828125,10670.41114279167,-0.04554538096253513,0.04140602968022497,-0.01240580330591612,10670.41114279167,-2.378643121290809,1.715759243063472,-1.321256426709903,-0.02790810540318489,0.01026173587888479,-0.006533583626151085,0.003541688201949,0.01855319552123547,0.007446818519383669,XArbitraryCorrectedZVertical,-0.4049570681821124,-0.5948504286791926,0.6521200428247872,0.2385417996404319,0.244367852807045,0.9690261483192444,0.03567451983690262,34.192138671875,37.82927703857422,6.853262901306152,1,10670.21682179167,stationary,1,2016-03-02 02:38:56.805,2016-03-02 02:37:10.358,14,14.53673,0,0,2016-03-02 02:38:47.801,10670.25811279167,0,-0.009338379,97.39671,192.168.1.101,100.78.239.175,2,1,0.39,0
2016-03-02 02:38:57.071,8,234B9614-18C8-49ED-8B56-CAB6C4F40872,my_iOS_device_1,1456907935.999845,40.79920118678435,-96.68574694553081,371.0263,0.19,174.7265625,4,10,-9999,1456907937.032692,37.43124389648438,36.99530029296875,9.3431396484375,274.4602966308594,271.1831665039062,25,10670.46413079167,0.244384765625,0.98248291015625,0.03521728515625,10670.44616779167,-0.03171931384727976,0.039289615561939,-0.01220393569528811,10670.44616779167,-2.375877949293004,1.718680887549456,-1.321326199744027,-0.01408216077834368,0.008145568892359734,-0.006331826094537973,0.004568325821310282,0.01336323749274015,0.005400205031037331,XArbitraryCorrectedZVertical,-0.4050651709850873,-0.5950725896651607,0.6518529882506532,0.2385340688301875,0.2441957145929337,0.9690433740615845,0.03637836128473282,34.17450332641602,37.83109664916992,6.930733203887939,1,10670.21682179167,stationary,1,2016-03-02 02:38:56.805,2016-03-02 02:37:10.358,14,14.53673,0,0,2016-03-02 02:38:47.801,10670.25811279167,0,-0.009338379,97.39671,192.168.1.101,100.78.239.175,2,1,0.39,0
2016-03-02 02:38:57.087,9,234B9614-18C8-49ED-8B56-CAB6C4F40872,my_iOS_device_1,1456907936.999844,40.79920085150822,-96.68574954392079,370.378,0.25,211.640625,4,10,-9999,1456907937.071019,36.87638854980469,37.06491088867188,9.73968505859375,274.4776306152344,271.2005004882812,25,10670.49442079167,0.2424774169921875,0.988189697265625,0.0468597412109375,10670.48117879167,-0.0327829803866574,0.03928881661361198,-0.01221938202961057,10670.44616779167,-2.375877949293004,1.718680887549456,-1.321326199744027,-0.01408216077834368,0.008145568892359734,-0.006331826094537973,0.004568325821310282,0.01336323749274015,0.005400205031037331,XArbitraryCorrectedZVertical,-0.4050651709850873,-0.5950725896651607,0.6518529882506532,0.2385340688301875,0.2441957145929337,0.9690433740615845,0.03637836128473282,34.17450332641602,37.83109664916992,6.930733203887939,1,10670.21682179167,stationary,1,2016-03-02 02:38:56.805,2016-03-02 02:37:10.358,14,14.53673,0,0,2016-03-02 02:38:47.801,10670.25811279167,0,-0.009338379,97.39671,192.168.1.101,100.78.239.175,2,1,0.39,0
2016-03-02 02:38:57.117,10,234B9614-18C8-49ED-8B56-CAB6C4F40872,my_iOS_device_1,1456907936.999844,40.79920085150822,-96.68574954392079,370.378,0.25,211.640625,4,10,-9999,1456907937.071019,36.87638854980469,37.06491088867188,9.73968505859375,274.4776306152344,271.2005004882812,25,10670.52472479167,0.238250732421875,0.98858642578125,0.0433502197265625,10670.51618979167,-0.006118079972239034,0.03929414293579214,-0.0171608774322526,10670.48117879167,-2.373404412601188,1.721395634378305,-1.321625030722574,-0.01514607947319746,0.008145003579556942,-0.006347805261611938,0.003169018775224686,0.0149374520406127,-0.0002392836904618889,XArbitraryCorrectedZVertical,-0.4051204447308377,-0.5952951188519253,0.6515761739625364,0.2386412291630939,0.2438097447156906,0.9691171050071716,0.03699770569801331,34.15369415283203,37.83978271484375,6.985642433166504,1,10670.21682179167,stationary,1,2016-03-02 02:38:56.805,2016-03-02 02:37:10.358,14,14.53673,0,0,2016-03-02 02:38:47.801,10670.25811279167,0,-0.009338379,97.39671,192.168.1.101,100.78.239.175,2,1,0.39,0
2016-03-02 02:38:57.149,11,234B9614-18C8-49ED-8B56-CAB6C4F40872,my_iOS_device_1,1456907936.999844,40.79920085150822,-96.68574954392079,370.378,0.25,211.640625,4,10,-9999,1456907937.119863,36.84171676635742,37.23895263671875,9.3101806640625,274.4991455078125,271.2220153808594,25,10670.55499879167,0.2368927001953125,0.9785919189453125,0.036865234375,10670.55119779167,-0.01252138449722555,0.04992921043291457,-0.0151278202560861,10670.51618979167,-2.371502125429509,1.723744970632562,-1.32214590900225,0.01155688147991896,0.008176522329449654,-0.01129365153610706,-0.0009441632428206503,0.0200734157115221,0.006909593008458614,XArbitraryCorrectedZVertical,-0.405156682017442,-0.5954786349316349,0.6512893510601204,0.2389046662420615,0.2432232201099396,0.969245433807373,0.03749348223209381,34.14200973510742,37.84576416015625,7.010311126708984,1,10670.21682179167,stationary,1,2016-03-02 02:38:56.805,2016-03-02 02:37:10.358,14,14.53673,0,0,2016-03-02 02:38:47.801,10670.25811279167,0,-0.009338379,97.39671,192.168.1.101,100.78.239.175,2,1,0.39,0
2016-03-02 02:38:57.177,12,234B9614-18C8-49ED-8B56-CAB6C4F40872,my_iOS_device_1,1456907936.999844,40.79920085150822,-96.68574954392079,370.378,0.25,211.640625,4,10,-9999,1456907937.119863,36.84171676635742,37.23895263671875,9.3101806640625,274.4991455078125,271.2220153808594,25,10670.58530379167,0.23565673828125,0.9860687255859375,0.03656005859375,10670.55119779167,-0.01252138449722555,0.04992921043291457,-0.0151278202560861,10670.55119779167,-2.372413868122587,1.723294975938536,-1.322859348181191,0.005153144244104624,0.0188119038939476,-0.009262221865355968,-0.001315073692239821,0.01408449001610279,-0.001191940507851541,XArbitraryCorrectedZVertical,-0.4050586893915312,-0.5954552430390992,0.651219506626076,0.23931917155824,0.2425565272569656,0.9694207310676575,0.03727897629141808,34.10810470581055,37.8741340637207,7.022161483764648,1,10670.21682179167,stationary,1,2016-03-02 02:38:56.805,2016-03-02 02:37:10.358,14,14.53673,0,0,2016-03-02 02:38:47.801,10670.25811279167,0,-0.009338379,97.39671,192.168.1.101,100.78.239.175,2,1,0.39,0
2016-03-02 02:38:57.227,13,234B9614-18C8-49ED-8B56-CAB6C4F40872,my_iOS_device_1,1456907936.999844,40.79920085150822,-96.68574954392079,370.378,0.25,211.640625,4,10,-9999,1456907937.179277,36.87639617919922,37.69151306152344,8.61627197265625,274.4908752441406,271.2137451171875,25,10670.61561879167,0.2300567626953125,0.9802398681640625,0.04449462890625,10670.58621679167,-0.01357626260500594,0.06162581394054258,-0.01514912554480674,10670.58621679167,-2.372149545633567,1.724425660363755,-1.323771250843746,0.004097765777260065,0.03050892241299152,-0.00928625650703907,-0.005983778275549412,0.01642458513379097,-0.0008578560664318502,XArbitraryCorrectedZVertical,-0.405063083222679,-0.5955105842299758,0.6509556005821059,0.2398913269607079,0.2416405230760574,0.9696441292762756,0.03741791471838951,34.09075546264648,37.88903045654297,7.02604341506958,1,10670.21682179167,stationary,1,2016-03-02 02:38:56.805,2016-03-02 02:37:10.358,14,14.53673,0,0,2016-03-02 02:38:47.801,10670.25811279167,0,-0.009338379,97.39671,192.168.1.101,100.78.239.175,2,1,0.39,0
2016-03-02 02:38:57.238,14,234B9614-18C8-49ED-8B56-CAB6C4F40872,my_iOS_device_1,1456907936.999844,40.79920085150822,-96.68574954392079,370.378,0.25,211.640625,4,10,-9999,1456907937.179277,36.87639617919922,37.69151306152344,8.61627197265625,274.4908752441406,271.2137451171875,25,10670.64591179167,0.23699951171875,0.9889068603515625,0.0416412353515625,10670.62122779167,-0.01892655323497513,0.07758161097953432,-0.01203775444326716,10670.62122779167,-2.370683928279164,1.727270604017521,-1.324556598010729,-0.001253638765774667,0.04646522924304008,-0.006177711300551891,-0.01072404626756907,0.01040399260818958,0.006508095189929008,XArbitraryCorrectedZVertical,-0.4053066846116243,-0.5955835442515499,0.6504981881613977,0.2405386464263152,0.2407808154821396,0.9698358774185181,0.03798653185367584,34.04523468017578,37.92329788208008,7.061793327331543,1,10670.21682179167,stationary,1,2016-03-02 02:38:56.805,2016-03-02 02:37:10.358,14,14.53673,0,0,2016-03-02 02:38:47.801,10670.25811279167,0,-0.009338379,97.39671,192.168.1.101,100.78.239.175,2,1,0.39,0
2016-03-02 02:38:57.269,15,234B9614-18C8-49ED-8B56-CAB6C4F40872,my_iOS_device_1,1456907936.999844,40.79920085150822,-96.68574954392079,370.378,0.25,211.640625,4,10,-9999,1456907937.239271,37.15382385253906,37.90037536621094,8.484130859375,274.4691467285156,271.1920166015625,25,10670.67619879167,0.2393798828125,0.9812164306640625,0.0361175537109375,10670.65624479167,-0.02102405890952154,0.09778168784778535,-0.01314429787619509,10670.65624479167,-2.369118081036976,1.730859705578429,-1.325395480080082,-0.003351965919137001,0.06666582822799683,-0.007287576794624329,-0.002870664000511169,0.01901942864060402,-0.003259365679696202,XArbitraryCorrectedZVertical,-0.4057445763751923,-0.595593598418401,0.6498986750037722,0.2413945245722172,0.2398396581411362,0.9700400233268738,0.03872079029679298,34.01857376098633,37.94007110595703,7.100093841552734,1,10670.21682179167,stationary,1,2016-03-02 02:38:56.805,2016-03-02 02:37:10.358,14,14.53673,0,0,2016-03-02 02:38:47.801,10670.25811279167,0,-0.009338379,97.39671,192.168.1.101,100.78.239.175,2,1,0.39,0
2016-03-02 02:38:57.307,16,234B9614-18C8-49ED-8B56-CAB6C4F40872,my_iOS_device_1,1456907936.999844,40.79920085150822,-96.68574954392079,370.378,0.25,211.640625,4,10,-9999,1456907937.300442,37.22317504882812,37.34336853027344,9.2110595703125,274.46923828125,271.1921081542969,25,10670.70648679167,0.2468414306640625,0.981781005859375,0.0418548583984375,10670.69123079167,-0.0220746759595578,0.09565115897572195,-0.01422420969822222,10670.65624479167,-2.369118081036976,1.730859705578429,-1.325395480080082,-0.003351965919137001,0.06666582822799683,-0.007287576794624329,-0.002870664000511169,0.01901942864060402,-0.003259365679696202,XArbitraryCorrectedZVertical,-0.4057445763751923,-0.595593598418401,0.6498986750037722,0.2413945245722172,0.2398396581411362,0.9700400233268738,0.03872079029679298,34.01857376098633,37.94007110595703,7.100093841552734,1,10670.21682179167,stationary,1,2016-03-02 02:38:56.805,2016-03-02 02:37:10.358,14,14.53673,0,0,2016-03-02 02:38:47.801,10670.25811279167,0,-0.009338379,97.39671,192.168.1.101,100.78.239.175,2,1,0.39,0
2016-03-02 02:38:57.329,17,234B9614-18C8-49ED-8B56-CAB6C4F40872,my_iOS_device_1,1456907936.999844,40.79920085150822,-96.68574954392079,370.378,0.25,211.640625,4,10,-9999,1456907937.300442,37.22317504882812,37.34336853027344,9.2110595703125,274.46923828125,271.1921081542969,25,10670.73679279167,0.261322021484375,0.9775543212890625,0.031707763671875,10670.72626779167,-0.022115156008127,0.08076941480435917,-0.01208569134288859,10670.69123079167,-2.368973193564856,1.733264135453637,-1.325908230655637,-0.004357632249593735,0.06456099450588226,-0.008371613919734955,-0.001446765963919461,0.01341708097606897,0.001600363873876631,XArbitraryCorrectedZVertical,-0.4063218036016306,-0.5954082971807148,0.6493913760746775,0.2422444885773172,0.2392549961805344,0.9701644778251648,0.03921689838171005,33.94730377197266,37.97976684570312,7.227800846099854,1,10670.21682179167,stationary,1,2016-03-02 02:38:56.805,2016-03-02 02:37:10.358,14,14.53673,0,0,2016-03-02 02:38:47.801,10670.25811279167,0,-0.009338379,97.39671,192.168.1.101,100.78.239.175,2,1,0.39,0
2016-03-02 02:38:57.365,18,234B9614-18C8-49ED-8B56-CAB6C4F40872,my_iOS_device_1,1456907936.999844,40.79920085150822,-96.68574954392079,370.378,0.25,211.640625,4,10,-9999,1456907937.358031,37.77803039550781,37.13449096679688,9.67364501953125,274.4910583496094,271.2139282226562,25,10670.76709679167,0.2573089599609375,0.9796142578125,0.0413360595703125,10670.76128179167,-0.03062422200703917,0.06161888972170838,-0.01326520538968469,10670.72626779167,-2.368316053890118,1.73583277143249,-1.325748282621174,-0.004398375283926725,0.04967942088842392,-0.006231667473912239,0.01577464118599892,0.009641175158321857,-0.001572517096064985,XArbitraryCorrectedZVertical,-0.407010085393873,-0.5952068546517779,0.6489601354667009,0.2427392286760013,0.2393065392971039,0.970125675201416,0.03985681757330894,33.91946029663086,37.98722839355469,7.318763256072998,1,10670.21682179167,stationary,1,2016-03-02 02:38:56.805,2016-03-02 02:37:10.358,14,14.53673,0,0,2016-03-02 02:38:47.801,10670.25811279167,0,-0.009338379,97.39671,192.168.1.101,100.78.239.175,2,1,0.39,0
2016-03-02 02:38:57.389,19,234B9614-18C8-49ED-8B56-CAB6C4F40872,my_iOS_device_1,1456907936.999844,40.79920085150822,-96.68574954392079,370.378,0.25,211.640625,4,10,-9999,1456907937.358031,37.77803039550781,37.13449096679688,9.67364501953125,274.4910583496094,271.2139282226562,25,10670.79736979167,0.2606658935546875,0.981109619140625,0.037811279296875,10670.79629279167,-0.01379064707275732,0.02976189044607152,-0.001281246800437122,10670.76128179167,-2.368223513777568,1.737188063232962,-1.324955273819361,-0.01290595345199108,0.0305285956710577,-0.007406106684356928,0.01699286885559559,0.01193957962095737,-0.0003152319113723934,XArbitraryCorrectedZVertical,-0.4076708430931174,-0.5949443189998227,0.6487513618592671,0.2428320643310931,0.2400109171867371,0.9699329733848572,0.04030851647257805,33.92537689208984,37.97593307495117,7.3498854637146,1,10670.21682179167,stationary,1,2016-03-02 02:38:56.805,2016-03-02 02:37:10.358,14,14.53673,0,0,2016-03-02 02:38:47.801,10670.25811279167,0,-0.009338379,97.39671,192.168.1.101,100.78.239.175,2,1,0.39,0
2016-03-02 02:38:57.420,20,234B9614-18C8-49ED-8B56-CAB6C4F40872,my_iOS_device_1,1456907936.999844,40.79920085150822,-96.68574954392079,370.378,0.25,211.640625,4,10,-9999,1456907937.416503,37.70867919921875,37.96995544433594,9.73974609375,274.5129089355469,271.2357788085938,25,10670.82769379167,0.2498779296875,0.98248291015625,0.029449462890625,10670.79629279167,-0.01379064707275732,0.02976189044607152,-0.001281246800437122,10670.79629279167,-2.368692057697265,1.737111197483912,-1.324307700671078,0.003928024787455797,-0.001328448764979839,0.00458110123872757,0.01656875014305115,0.0104036582633853,-0.003376220352947712,XArbitraryCorrectedZVertical,-0.4079882305514188,-0.5947626628256287,0.6487557902758108,0.2427321635541277,0.2406333982944489,0.9697751998901367,0.04039404168725014,33.9464225769043,37.94759750366211,7.398874759674072,1,10670.21682179167,stationary,1,2016-03-02 02:38:56.805,2016-03-02 02:37:10.358,14,14.53673,0,0,2016-03-02 02:38:47.801,10670.25811279167,0,-0.009338379,97.39671,192.168.1.101,100.78.239.175,2,1,0.39,0
2016-03-02 02:38:57.469,21,234B9614-18C8-49ED-8B56-CAB6C4F40872,my_iOS_device_1,1456907936.999844,40.79920085150822,-96.68574954392079,370.378,0.25,211.640625,4,10,-9999,1456907937.416503,37.70867919921875,37.96995544433594,9.73974609375,274.5129089355469,271.2357788085938,25,10670.85798979167,0.25054931640625,0.97991943359375,0.0331268310546875,10670.83130479167,-0.0264811422992029,0.01059352218411719,-0.007850199945226571,10670.83130479167,-2.37060179221746,1.734641774061179,-1.323506987585483,-0.00870855525135994,-0.02046702429652214,-0.001988236792385578,0.008379480801522732,0.01290342025458813,-0.01047687791287899,XArbitraryCorrectedZVertical,-0.4080056165152758,-0.5945541080691976,0.6490846183015462,0.242334454327766,0.2414984554052353,0.9695795178413391,0.03992634266614914,33.96474838256836,37.93161392211914,7.396767139434814,1,10670.86367279167,unknown,1,2016-03-02 02:38:57.452,2016-03-02 02:37:10.358,14,14.53673,0,0,2016-03-02 02:38:47.801,10670.25811279167,0,-0.009338379,97.39671,192.168.1.101,100.78.239.175,2,1,0.39,0
2016-03-02 02:38:57.480,22,234B9614-18C8-49ED-8B56-CAB6C4F40872,my_iOS_device_1,1456907936.999844,40.79920085150822,-96.68574954392079,370.378,0.25,211.640625,4,10,-9999,1456907937.473656,37.15382385253906,37.8306884765625,9.078857421875,274.5193786621094,271.2422485351562,25,10670.88828379167,0.244598388671875,0.982391357421875,0.0356597900390625,10670.86632079167,-0.03189028878926285,-0.01279063008343257,-0.002588059947339004,10670.86632079167,-2.370611733272785,1.733267130559841,-1.323308297184856,-0.0141154071316123,-0.04385162517428398,0.003274648217484355,0.008806106634438038,0.01038859784603119,-0.006498659029603004,XArbitraryCorrectedZVertical,-0.4076245363546738,-0.5946889796201077,0.6493778513547206,0.2418587626072861,0.2417432069778442,0.9695308208465576,0.03962549194693565,34.01124954223633,37.90235900878906,7.332768440246582,1,10670.86367279167,unknown,1,2016-03-02 02:38:57.452,2016-03-02 02:37:10.358,14,14.53673,0,0,2016-03-02 02:38:47.801,10670.25811279167,0,-0.009338379,97.39671,192.168.1.101,100.78.239.175,2,1,0.39,0
2016-03-02 02:38:57.511,23,234B9614-18C8-49ED-8B56-CAB6C4F40872,my_iOS_device_1,1456907936.999844,40.79920085150822,-96.68574954392079,370.378,0.25,211.640625,4,10,-9999,1456907937.473656,37.15382385253906,37.8306884765625,9.078857421875,274.5193786621094,271.2422485351562,25,10670.91857479167,0.2283935546875,0.9929351806640625,0.0342864990234375,10670.90133079167,-0.03714044456224506,-4.554005464035497e-05,-0.006933806214130304,10670.86632079167,-2.370611733272785,1.733267130559841,-1.323308297184856,-0.0141154071316123,-0.04385162517428398,0.003274648217484355,0.008806106634438038,0.01038859784603119,-0.006498659029603004,XArbitraryCorrectedZVertical,-0.4076245363546738,-0.5946889796201077,0.6493778513547206,0.2418587626072861,0.2417432069778442,0.9695308208465576,0.03962549194693565,34.01124954223633,37.90235900878906,7.332768440246582,1,10670.86367279167,unknown,1,2016-03-02 02:38:57.452,2016-03-02 02:37:10.358,14,14.53673,0,0,2016-03-02 02:38:47.801,10670.25811279167,0,-0.009338379,97.39671,192.168.1.101,100.78.239.175,2,1,0.39,0
2016-03-02 02:38:57.547,24,234B9614-18C8-49ED-8B56-CAB6C4F40872,my_iOS_device_1,1456907936.999844,40.79920085150822,-96.68574954392079,370.378,0.25,211.640625,4,10,-9999,1456907937.53262,37.01510620117188,37.8306884765625,9.07891845703125,274.5183715820312,271.2412414550781,25,10670.94886879167,0.22607421875,0.9836273193359375,0.0457916259765625,10670.93634279167,-0.03286154363881474,0.01271552894069233,-0.00794394321559736,10670.90133079167,-2.370469013274545,1.731971544526523,-1.323109600641342,-0.01936368830502033,-0.03110682405531406,-0.001070412690751255,-0.0006819956470280886,0.01669339463114738,-0.007711702492088079,XArbitraryCorrectedZVertical,-0.4072235201199665,-0.5948450140248931,0.6496731883719333,0.2413569188182577,0.241984486579895,0.9694821238517761,0.03934317082166672,34.02856063842773,37.89262390136719,7.302716255187988,1,10670.86367279167,unknown,1,2016-03-02 02:38:57.452,2016-03-02 02:37:10.358,14,14.53673,0,0,2016-03-02 02:38:47.801,10670.25811279167,0,-0.009338379,97.39671,192.168.1.101,100.78.239.175,2,1,0.39,0
2016-03-02 02:38:57.571,25,234B9614-18C8-49ED-8B56-CAB6C4F40872,my_iOS_device_1,1456907936.999844,40.79920085150822,-96.68574954392079,370.378,0.25,211.640625,4,10,-9999,1456907937.53262,37.01510620117188,37.8306884765625,9.07891845703125,274.5183715820312,271.2412414550781,25,10670.97914779167,0.2338714599609375,0.9812469482421875,0.0360565185546875,10670.97135779167,-0.02217161502323668,0.04461966616762359,-0.009936520343194645,10670.93634279167,-2.368202872840005,1.733236013093067,-1.323871764721497,-0.01508382987231016,-0.01834577135741711,-0.002084219828248024,-0.01343735214322805,0.02138963527977467,0.0009061804157681763,XArbitraryCorrectedZVertical,-0.4067213955666693,-0.5952667567404497,0.6496350834755661,0.2412663528668481,0.2412052899599075,0.9696686863899231,0.03952961042523384,34.03321075439453,37.89625930786133,7.262078285217285,1,10670.86367279167,unknown,1,2016-03-02 02:38:57.452,2016-03-02 02:37:10.358,14,14.53673,0,0,2016-03-02 02:38:47.801,10670.25811279167,0,-0.009338379,97.39671,192.168.1.101,100.78.239.175,2,1,0.39,0
2016-03-02 02:38:57.604,26,234B9614-18C8-49ED-8B56-CAB6C4F40872,my_iOS_device_1,1456907936.999844,40.79920085150822,-96.68574954392079,370.378,0.25,211.640625,4,10,-9999,1456907937.59261,37.56996154785156,36.99522399902344,8.087646484375,274.4803771972656,271.2032470703125,25,10671.00943179167,0.2335052490234375,0.9884490966796875,0.04412841796875,10670.97135779167,-0.02217161502323668,0.04461966616762359,-0.009936520343194645,10670.97135779167,-2.366226344630944,1.735173283585545,-1.324855531942532,-0.00439438596367836,0.01355879288166761,-0.0040814527310431,-0.009825140237808228,0.008820547722280025,-0.002960204845294356,XArbitraryCorrectedZVertical,-0.4064538152909384,-0.5955800912179503,0.6494103064096161,0.2415489700023486,0.2401870787143707,0.9699087142944336,0.0398406982421875,34.01218414306641,37.9162712097168,7.256106853485107,1,10670.86367279167,unknown,1,2016-03-02 02:38:57.452,2016-03-02 02:37:10.358,14,14.53673,0,0,2016-03-02 02:38:47.801,10670.25811279167,0,-0.009338379,97.39671,192.168.1.101,100.78.239.175,2,1,0.39,0
2016-03-02 02:38:57.632,27,234B9614-18C8-49ED-8B56-CAB6C4F40872,my_iOS_device_1,1456907936.999844,40.79920085150822,-96.68574954392079,370.378,0.25,211.640625,4,10,-9999,1456907937.59261,37.56996154785156,36.99522399902344,8.087646484375,274.4803771972656,271.2032470703125,25,10671.03975079167,0.2435760498046875,0.987030029296875,0.0427398681640625,10671.00636979167,-0.02742762975061707,0.06906508812956992,-0.01322259481224342,10671.00636979167,-2.364291343026103,1.73807920206697,-1.325468824698831,-0.009625309146940708,0.03803622350096703,-0.007371280342340469,-0.005810615140944719,0.01805556751787663,0.001781626837328076,XArbitraryCorrectedZVertical,-0.4066284179415104,-0.595712221619099,0.6490105651564894,0.2420032335553498,0.2394837141036987,0.9700578451156616,0.04043944180011749,33.97036361694336,37.95039367675781,7.273616313934326,1,10670.86367279167,unknown,1,2016-03-02 02:38:57.452,2016-03-02 02:37:10.358,14,14.53673,0,0,2016-03-02 02:38:47.801,10670.25811279167,0,-0.009338379,97.39671,192.168.1.101,100.78.239.175,2,1,0.39,0
2016-03-02 02:38:57.662,28,234B9614-18C8-49ED-8B56-CAB6C4F40872,my_iOS_device_1,1456907936.999844,40.79920085150822,-96.68574954392079,370.378,0.25,211.640625,4,10,-9999,1456907937.649178,37.81270980834961,36.96043395996094,8.781494140625,274.4583435058594,271.1812133789062,25,10671.07004679167,0.2467193603515625,0.979217529296875,0.03857421875,10671.04138179167,-0.01687645182783213,0.07228085514584061,-0.00667654485282865,10671.04138179167,-2.363068251838447,1.740694100081799,-1.325901570814158,0.0009252533782273531,0.04125238209962845,-0.0008269107202067971,0.004612669814378023,0.01686718128621578,0.001745321555063128,XArbitraryCorrectedZVertical,-0.4069765279288077,-0.5957074609538968,0.6485968013502316,0.2425384834559076,0.2389633804559708,0.9701628684997559,0.0409945473074913,33.9505729675293,37.96305465698242,7.299903869628906,1,10670.86367279167,unknown,1,2016-03-02 02:38:57.452,2016-03-02 02:37:10.358,14,14.53673,0,0,2016-03-02 02:38:47.801,10670.25811279167,0,-0.009338379,97.39671,192.168.1.101,100.78.239.175,2,1,0.39,0
2016-03-02 02:38:57.706,29,234B9614-18C8-49ED-8B56-CAB6C4F40872,my_iOS_device_1,1456907936.999844,40.79920085150822,-96.68574954392079,370.378,0.25,211.640625,4,10,-9999,1456907937.649178,37.81270980834961,36.96043395996094,8.781494140625,274.4583435058594,271.1812133789062,25,10671.10034079167,0.2519989013671875,0.9785308837890625,0.0425872802734375,10671.07637479167,-0.02422278169481571,0.06800115527408326,-0.01424125392919873,10671.07637479167,-2.363744253889966,1.741241987045188,-1.325720511811024,-0.006420767400413752,0.03697273880243301,-0.008390289731323719,0.007605369202792645,0.0090985968708992,-0.002581041073426604,XArbitraryCorrectedZVertical,-0.4074123535087854,-0.5954769551855552,0.6484157437631117,0.2428567340871414,0.239113986492157,0.9701189398765564,0.04115526005625725,33.91077041625977,37.9813232421875,7.389334201812744,1,10670.86367279167,unknown,1,2016-03-02 02:38:57.452,2016-03-02 02:37:10.358,14,14.53673,0,0,2016-03-02 02:38:47.801,10670.25811279167,0,-0.009338379,97.39671,192.168.1.101,100.78.239.175,2,1,0.39,0
2016-03-02 02:38:57.723,30,234B9614-18C8-49ED-8B56-CAB6C4F40872,my_iOS_device_1,1456907936.999844,40.79920085150822,-96.68574954392079,370.378,0.25,211.640625,4,10,-9999,1456907937.708427,37.32720947265625,36.75154113769531,9.244140625,274.4487609863281,271.171630859375,25,10671.13063579167,0.25567626953125,0.9825286865234375,0.053131103515625,10671.11140479167,-0.03590100939092218,0.05841590587867007,-0.01653743142106505,10671.11140479167,-2.361339064906418,1.744773634417673,-1.3254316628371,-0.01809915527701378,0.02738768607378006,-0.01068403851240873,0.01472415309399366,0.009809589944779873,0.009404664859175682,XArbitraryCorrectedZVertical,-0.4079315957294269,-0.595496262972704,0.6480078571037428,0.2430264000535165,0.2392431348562241,0.9700487852096558,0.04204797372221947,33.90202713012695,37.97882080078125,7.442136764526367,1,10670.86367279167,unknown,1,2016-03-02 02:38:57.452,2016-03-02 02:37:10.358,14,14.53673,0,0,2016-03-02 02:38:47.801,10670.25811279167,0,-0.009338379,97.39671,192.168.1.101,100.78.239.175,2,1,0.39,0
2016-03-02 02:38:57.755,31,234B9614-18C8-49ED-8B56-CAB6C4F40872,my_iOS_device_1,1456907936.999844,40.79920085150822,-96.68574954392079,370.378,0.25,211.640625,4,10,-9999,1456907937.708427,37.32720947265625,36.75154113769531,9.244140625,274.4487609863281,271.171630859375,25,10671.16092779167,0.26190185546875,0.9751129150390625,0.04296875,10671.14641779167,-0.02739540550142711,0.03396116285290846,-0.01746714095761171,10671.14641779167,-2.357596380498933,1.749078113066884,-1.32504205211379,-0.009504927322268486,0.002963197184726596,-0.01160761713981628,0.01950979605317116,0.009492316283285618,0.008338737301528454,XArbitraryCorrectedZVertical,-0.4083338095368725,-0.5956808779267735,0.6476104529435963,0.2429578006561058,0.2394318580627441,0.9699540734291077,0.04314441606402397,33.90385055541992,37.96932220458984,7.482198238372803,1,10670.86367279167,unknown,1,2016-03-02 02:38:57.452,2016-03-02 02:37:10.358,14,14.53673,0,0,2016-03-02 02:38:47.801,10670.25811279167,0,-0.009338379,97.39671,192.168.1.101,100.78.239.175,2,1,0.39,0
2016-03-02 02:38:57.787,32,234B9614-18C8-49ED-8B56-CAB6C4F40872,my_iOS_device_1,1456907936.999844,40.79920085150822,-96.68574954392079,370.378,0.25,211.640625,4,10,-9999,1456907937.773471,37.50060272216797,37.27371215820312,9.2110595703125,274.4551696777344,271.1780395507812,25,10671.19122279167,0.259613037109375,0.9772491455078125,0.0429229736328125,10671.18141779167,-0.03916551225514131,0.01907648920434659,-0.01336747077554373,10671.14641779167,-2.357596380498933,1.749078113066884,-1.32504205211379,-0.009504927322268486,0.002963197184726596,-0.01160761713981628,0.01950979605317116,0.009492316283285618,0.008338737301528454,XArbitraryCorrectedZVertical,-0.4083338095368725,-0.5956808779267735,0.6476104529435963,0.2429578006561058,0.2394318580627441,0.9699540734291077,0.04314441606402397,33.90385055541992,37.96932220458984,7.482198238372803,1,10670.86367279167,unknown,1,2016-03-02 02:38:57.452,2016-03-02 02:37:10.358,14,14.53673,0,0,2016-03-02 02:38:47.801,10670.25811279167,0,-0.009338379,97.39671,192.168.1.101,100.78.239.175,2,1,0.39,0
2016-03-02 02:38:57.814,33,234B9614-18C8-49ED-8B56-CAB6C4F40872,my_iOS_device_1,1456907936.999844,40.79920085150822,-96.68574954392079,370.378,0.25,211.640625,4,10,-9999,1456907937.773471,37.50060272216797,37.27371215820312,9.2110595703125,274.4551696777344,271.1780395507812,25,10671.22151879167,0.252777099609375,0.9818572998046875,0.050201416015625,10671.21644579167,-0.04557574099896203,0.0009968211960166588,-0.01238556328163151,10671.18141779167,-2.355972456643255,1.750278528939514,-1.323804613880754,-0.02127529866993427,-0.01192140765488148,-0.007501627318561077,0.02311119064688683,0.008893843740224838,-0.001516523654572666,XArbitraryCorrectedZVertical,-0.4086282411664683,-0.5956895002035938,0.6476444662341293,0.242350211934443,0.2405606806278229,0.9696522951126099,0.04364604130387306,33.94501495361328,37.92022323608398,7.544265747070312,1,10670.86367279167,unknown,1,2016-03-02 02:38:57.452,2016-03-02 02:37:10.358,14,14.53673,0,0,2016-03-02 02:38:47.801,10670.25811279167,0,-0.009338379,97.39671,192.168.1.101,100.78.239.175,2,1,0.39,0
2016-03-02 02:38:57.844,34,234B9614-18C8-49ED-8B56-CAB6C4F40872,my_iOS_device_1,1456907936.999844,40.79920085150822,-96.68574954392079,370.378,0.25,211.640625,4,10,-9999,1456907937.826547,37.32720947265625,37.30850219726562,9.44244384765625,274.4617614746094,271.1846313476562,25,10671.25181379167,0.2537689208984375,0.980377197265625,0.0454254150390625,10671.21644579167,-0.04557574099896203,0.0009968211960166588,-0.01238556328163151,10671.21644579167,-2.352371580826985,1.752936362032765,-1.323269856399115,-0.02768613770604134,-0.03000085428357124,-0.006516892928630114,0.01186912693083286,0.0117560476064682,0.007393898442387581,XArbitraryCorrectedZVertical,-0.4085844147675142,-0.5960271490059798,0.6475723097236795,0.2417860983100538,0.2409537434577942,0.9695214033126831,0.04437917098402977,33.94501495361328,37.92022323608398,7.544265747070312,1,10670.86367279167,unknown,1,2016-03-02 02:38:57.452,2016-03-02 02:37:10.358,14,14.53673,0,0,2016-03-02 02:38:47.801,10670.25811279167,0,-0.009338379,97.39671,192.168.1.101,100.78.239.175,2,1,0.39,0
2016-03-02 02:38:57.874,35,234B9614-18C8-49ED-8B56-CAB6C4F40872,my_iOS_device_1,1456907936.999844,40.79920085150822,-96.68574954392079,370.378,0.25,211.640625,4,10,-9999,1456907937.826547,37.32720947265625,37.30850219726562,9.44244384765625,274.4617614746094,271.1846313476562,25,10671.28211079167,0.2407989501953125,0.9857330322265625,0.04449462890625,10671.25144479167,-0.04025474514098372,-0.01495311688857691,-0.01336587287888968,10671.25144479167,-2.348515953733986,1.755189119679202,-1.322798006068349,-0.02236625738441944,-0.04595040157437325,-0.007494844496250153,0.01390039827674627,0.008163876831531525,0.003791865659877658,XArbitraryCorrectedZVertical,-0.4083130799129207,-0.596475732674803,0.6476080079899127,0.2410414841669112,0.2413028478622437,0.9694057106971741,0.04500574246048927,33.97727203369141,37.88966751098633,7.55257511138916,1,10670.86367279167,unknown,1,2016-03-02 02:38:57.452,2016-03-02 02:37:10.358,14,14.53673,0,0,2016-03-02 02:38:47.801,10670.25811279167,0,-0.009338379,97.39671,192.168.1.101,100.78.239.175,2,1,0.39,0
2016-03-02 02:38:57.915,36,234B9614-18C8-49ED-8B56-CAB6C4F40872,my_iOS_device_1,1456907936.999844,40.79920085150822,-96.68574954392079,370.378,0.25,211.640625,4,10,-9999,1456907937.885793,37.29253387451172,37.41293334960938,9.607666015625,274.4683532714844,271.1912231445312,25,10671.31238879167,0.2346954345703125,0.9818267822265625,0.04473876953125,10671.28647179167,-0.04240578035344072,-0.007505054267952302,-0.0112694324687793,10671.28647179167,-2.345438896666892,1.756646806632803,-1.322781259560788,-0.024516886100173,-0.03850226104259491,-0.005397848319262266,-0.0004539926303550601,0.01633143983781338,-0.0008658087463118136,XArbitraryCorrectedZVertical,-0.4078723526657549,-0.596925759836915,0.6476820466970338,0.2404740059971825,0.2412529438734055,0.9694015979766846,0.04536043852567673,34.00840759277344,37.86777877807617,7.522167205810547,1,10670.86367279167,unknown,1,2016-03-02 02:38:57.452,2016-03-02 02:37:10.358,14,14.53673,0,0,2016-03-02 02:38:47.801,10670.25811279167,0,-0.009338379,97.39671,192.168.1.101,100.78.239.175,2,1,0.39,0
2016-03-02 02:38:57.947,37,234B9614-18C8-49ED-8B56-CAB6C4F40872,my_iOS_device_1,1456907936.999844,40.79920085150822,-96.68574954392079,370.378,0.25,211.640625,4,10,-9999,1456907937.943573,37.29253387451172,37.34332275390625,9.805908203125,274.4882507324219,271.2111206054688,25,10671.34267579167,0.2284698486328125,0.983428955078125,0.0536346435546875,10671.32148379167,-0.03918149122168178,-0.002191515261026205,-0.01335681813118341,10671.28647179167,-2.345438896666892,1.756646806632803,-1.322781259560788,-0.024516886100173,-0.03850226104259491,-0.005397848319262266,-0.0004539926303550601,0.01633143983781338,-0.0008658087463118136,XArbitraryCorrectedZVertical,-0.4078723526657549,-0.596925759836915,0.6476820466970338,0.2404740059971825,0.2412529438734055,0.9694015979766846,0.04536043852567673,34.00840759277344,37.86777877807617,7.522167205810547,1,10670.86367279167,unknown,1,2016-03-02 02:38:57.452,2016-03-02 02:37:10.358,14,14.53673,0,0,2016-03-02 02:38:47.801,10670.25811279167,0,-0.009338379,97.39671,192.168.1.101,100.78.239.175,2,1,0.39,0
2016-03-02 02:38:57.965,38,234B9614-18C8-49ED-8B56-CAB6C4F40872,my_iOS_device_1,1456907936.999844,40.79920085150822,-96.68574954392079,370.378,0.25,211.640625,4,10,-9999,1456907937.943573,37.29253387451172,37.34332275390625,9.805908203125,274.4882507324219,271.2111206054688,25,10671.37299179167,0.2366485595703125,0.98291015625,0.0484619140625,10671.35649579167,-0.04981762398324024,0.0180080289750068,-0.01245587073440961,10671.35649579167,-2.336403024910719,1.763582367464845,-1.324058967474532,-0.03182471916079521,-0.01297303009778261,-0.006581357680261135,-0.009751470759510994,0.01542348600924015,0.004718463402241468,XArbitraryCorrectedZVertical,-0.4070143206309576,-0.5981111494922297,0.6472757448766695,0.2400760415966664,0.2397166788578033,0.9697144627571106,0.04679520800709724,33.97872161865234,37.89752197265625,7.506498336791992,1,10670.86367279167,unknown,1,2016-03-02 02:38:57.452,2016-03-02 02:37:10.358,14,14.53673,0,0,2016-03-02 02:38:47.801,10670.25811279167,0,-0.009338379,97.39671,192.168.1.101,100.78.239.175,2,1,0.39,0
2016-03-02 02:38:58.004,39,234B9614-18C8-49ED-8B56-CAB6C4F40872,my_iOS_device_1,1456907936.999844,40.79920085150822,-96.68574954392079,370.378,0.25,211.640625,4,10,-9999,1456907937.943573,37.29253387451172,37.34332275390625,9.805908203125,274.4882507324219,271.2111206054688,25,10671.40328879167,0.2405548095703125,0.990203857421875,0.05072021484375,10671.39151179167,-0.05190847175506146,0.02757117413337234,-0.01462261859729807,10671.35649579167,-2.336403024910719,1.763582367464845,-1.324058967474532,-0.03182471916079521,-0.01297303009778261,-0.006581357680261135,-0.009751470759510994,0.01542348600924015,0.004718463402241468,XArbitraryCorrectedZVertical,-0.4070143206309576,-0.5981111494922297,0.6472757448766695,0.2400760415966664,0.2397166788578033,0.9697144627571106,0.04679520800709724,33.97872161865234,37.89752197265625,7.506498336791992,1,10670.86367279167,unknown,1,2016-03-02 02:38:57.452,2016-03-02 02:37:10.358,14,14.53673,0,0,2016-03-02 02:38:47.801,10670.25811279167,0,-0.009338379,97.39671,192.168.1.101,100.78.239.175,2,1,0.39,0
2016-03-02 02:38:58.028,40,234B9614-18C8-49ED-8B56-CAB6C4F40872,my_iOS_device_1,1456907936.999844,40.79920085150822,-96.68574954392079,370.378,0.25,211.640625,4,10,-9999,1456907938.004041,37.22317504882812,37.13444519042969,9.34332275390625,274.4908752441406,271.2137451171875,25,10671.43358579167,0.2380218505859375,0.984283447265625,0.0571441650390625,10671.42652179167,-0.03700249281777895,0.02757942993275158,-0.01547190066892434,10671.39151179167,-2.331191402905463,1.768370728442196,-1.32430782825515,-0.03391575068235397,-0.00340962503105402,-0.008749487809836864,0.0021103008184582,0.01351642049849033,0.001833247020840645,XArbitraryCorrectedZVertical,-0.4069255044838291,-0.5986311110037181,0.6469119072963004,0.2399112563788215,0.2392532229423523,0.9697751998901367,0.04789514467120171,33.944580078125,37.92023849487305,7.546165943145752,1,10670.86367279167,unknown,1,2016-03-02 02:38:57.452,2016-03-02 02:37:10.358,14,14.53673,0,0,2016-03-02 02:38:47.801,10670.25811279167,0,-0.009338379,97.39671,192.168.1.101,100.78.239.175,2,1,0.39,0
2016-03-02 02:38:58.061,41,234B9614-18C8-49ED-8B56-CAB6C4F40872,my_iOS_device_1,1456907937.999846,40.79920085150822,-96.68574954392079,370.4804,0,293.90625,4,10,-9999,1456907938.004041,37.22317504882812,37.13444519042969,9.34332275390625,274.4908752441406,271.2137451171875,25,10671.463809125,0.24176025390625,0.9816131591796875,0.047271728515625,10671.461459125,-0.03387327853693585,0.02333994379345444,-0.01116130812852209,10671.42652179167,-2.326396355142332,1.772993590364145,-1.324774103323193,-0.01901074685156345,-0.003400846384465694,-0.0096005043014884,-0.003051592269912362,0.01833134330809116,0.006647399161010981,XArbitraryCorrectedZVertical,-0.4068365847313848,-0.5991151135274743,0.6465195262968286,0.2399116007698574,0.2385862618684769,0.9698888659477234,0.04890985041856766,33.92240142822266,37.93089294433594,7.592192649841309,1,10670.86367279167,unknown,1,2016-03-02 02:38:57.452,2016-03-02 02:37:10.358,14,14.53673,0,0,2016-03-02 02:38:47.801,10670.25811279167,0,-0.009338379,97.39671,192.168.1.101,100.78.239.175,2,1,0.39,0
2016-03-02 02:38:58.108,42,234B9614-18C8-49ED-8B56-CAB6C4F40872,my_iOS_device_1,1456907937.999846,40.79920085150822,-96.68574954392079,370.4804,0,293.90625,4,10,-9999,1456907938.065863,37.04978179931641,37.6566162109375,9.1781005859375,274.4859008789062,271.2087707519531,25,10671.494105125,0.2396392822265625,0.98260498046875,0.04595947265625,10671.461459125,-0.03387327853693585,0.02333994379345444,-0.01116130812852209,10671.461459125,-2.323398451109699,1.775752534668347,-1.325002083158137,-0.01588246040046215,-0.007639913354068995,-0.005290751345455647,0.0009475990664213896,0.01130257826298475,0.0005564381717704237,XArbitraryCorrectedZVertical,-0.4067575873890806,-0.5994244897027545,0.6463049625684154,0.2398508736807373,0.2382339239120483,0.9699443578720093,0.04952290654182434,33.90866470336914,37.93862915039062,7.614884376525879,1,10670.86367279167,unknown,1,2016-03-02 02:38:57.452,2016-03-02 02:37:10.358,14,14.53673,0,0,2016-03-02 02:38:47.801,10670.25811279167,0,-0.009338379,97.39671,192.168.1.101,100.78.239.175,2,1,0.39,0
2016-03-02 02:38:58.121,43,234B9614-18C8-49ED-8B56-CAB6C4F40872,my_iOS_device_1,1456907937.999846,40.79920085150822,-96.68574954392079,370.4804,0,293.90625,4,10,-9999,1456907938.065863,37.04978179931641,37.6566162109375,9.1781005859375,274.4859008789062,271.2087707519531,25,10671.524396125,0.2431793212890625,0.991058349609375,0.0545654296875,10671.496449125,-0.03703338548642387,0.02545848844061248,-0.0133397739002069,10671.496449125,-2.322395651377312,1.776392332841092,-1.325086523746968,-0.01892002299427986,-0.005527098663151264,-0.007453507743775845,0.001517274766229093,0.01264006737619638,-0.003699125722050667,XArbitraryCorrectedZVertical,-0.4066369082158962,-0.5995629441852308,0.6462903435301844,0.2397488116678735,0.2381220012903214,0.9699649214744568,0.04965859651565552,33.90166854858398,37.94338989257812,7.622323989868164,1,10671.519788125,unknown,0,2016-03-02 02:38:58.098,2016-03-02 02:37:10.358,14,14.53673,0,0,2016-03-02 02:38:47.801,10670.25811279167,0,-0.009338379,97.39671,192.168.1.101,100.78.239.175,2,1,0.39,0
2016-03-02 02:38:58.147,44,234B9614-18C8-49ED-8B56-CAB6C4F40872,my_iOS_device_1,1456907937.999846,40.79920085150822,-96.68574954392079,370.4804,0,293.90625,4,10,-9999,1456907938.126854,37.25785827636719,37.6566162109375,9.508544921875,274.4806823730469,271.2035522460938,25,10671.554694125,0.2428741455078125,0.984832763671875,0.0532073974609375,10671.531486125,-0.02854349424736027,0.01908740816481591,-0.01214747668017843,10671.531486125,-2.319396657756859,1.778972592919365,-1.32521468544668,-0.01043074205517769,-0.01189785823225975,-0.006261589471250772,0.005307869054377079,0.02106226980686188,0.00431827362626791,XArbitraryCorrectedZVertical,-0.4065305489321051,-0.5998803971790111,0.6461180512413824,0.2395994276397972,0.237871453166008,0.9699960947036743,0.05024715512990952,33.8988151550293,37.94618606567383,7.62108039855957,1,10671.519788125,unknown,0,2016-03-02 02:38:58.098,2016-03-02 02:37:10.358,14,14.53673,0,0,2016-03-02 02:38:47.801,10670.25811279167,0,-0.009338379,97.39671,192.168.1.101,100.78.239.175,2,1,0.39,0
2016-03-02 02:38:58.186,45,234B9614-18C8-49ED-8B56-CAB6C4F40872,my_iOS_device_1,1456907937.999846,40.79920085150822,-96.68574954392079,370.4804,0,293.90625,4,10,-9999,1456907938.126854,37.25785827636719,37.6566162109375,9.508544921875,274.4806823730469,271.2035522460938,25,10671.584989125,0.238555908203125,0.979461669921875,0.0454254150390625,10671.566495125,-0.009383648100894195,0.01803545953423462,-0.01293444078229684,10671.566495125,-2.318728063151827,1.779147677375685,-1.325371010502836,0.008727787062525749,-0.01294929627329111,-0.007048189174383879,0.002932069124653935,0.01118235662579536,-0.002848379546776414,XArbitraryCorrectedZVertical,-0.4063368005995954,-0.6000159357159243,0.6461539274639511,0.2394919276057272,0.2377142906188965,0.9700340628623962,0.05025743693113327,33.89113616943359,37.94917678833008,7.640303611755371,1,10671.519788125,unknown,0,2016-03-02 02:38:58.098,2016-03-02 02:37:10.358,14,14.53673,0,0,2016-03-02 02:38:47.801,10671.570233125,0,-0.1011963,97.39778,192.168.1.101,100.78.239.175,2,1,0.39,0
2016-03-02 02:38:58.208,46,234B9614-18C8-49ED-8B56-CAB6C4F40872,my_iOS_device_1,1456907937.999846,40.79920085150822,-96.68574954392079,370.4804,0,293.90625,4,10,-9999,1456907938.187581,37.18849945068359,37.72624206542969,9.64068603515625,274.4920959472656,271.2149658203125,25,10671.615285125,0.240386962890625,0.9871368408203125,0.0584259033203125,10671.601514125,-0.02319346993350008,0.02227574462185878,-0.01420290440950159,10671.566495125,-2.318728063151827,1.779147677375685,-1.325371010502836,0.008727787062525749,-0.01294929627329111,-0.007048189174383879,0.002932069124653935,0.01118235662579536,-0.002848379546776414,XArbitraryCorrectedZVertical,-0.4063368005995954,-0.6000159357159243,0.6461539274639511,0.2394919276057272,0.2377142906188965,0.9700340628623962,0.05025743693113327,33.89113616943359,37.94917678833008,7.640303611755371,1,10671.519788125,unknown,0,2016-03-02 02:38:58.098,2016-03-02 02:37:10.358,14,14.53673,0,0,2016-03-02 02:38:47.801,10671.570233125,0,-0.1011963,97.39778,192.168.1.101,100.78.239.175,2,1,0.39,0
2016-03-02 02:38:58.240,47,234B9614-18C8-49ED-8B56-CAB6C4F40872,my_iOS_device_1,1456907937.999846,40.79920085150822,-96.68574954392079,370.4804,0,293.90625,4,10,-9999,1456907938.187581,37.18849945068359,37.72624206542969,9.64068603515625,274.4920959472656,271.2149658203125,25,10671.645562125,0.2412872314453125,0.983489990234375,0.0524139404296875,10671.636524125,-0.01046782098066545,0.02973792199626081,-0.01082468456673607,10671.601514125,-2.319187011430758,1.778334379074204,-1.325702970509963,-0.005081047303974628,-0.008709082379937172,-0.008316843770444393,0.001665251445956528,0.01191047020256519,-0.004114555660635233,XArbitraryCorrectedZVertical,-0.4061060615836852,-0.6000639414419244,0.6462458220377847,0.2395150734814958,0.2374399751424789,0.9701146483421326,0.04999773576855659,33.8800048828125,37.96598815917969,7.606085777282715,1,10671.519788125,unknown,0,2016-03-02 02:38:58.098,2016-03-02 02:37:10.358,14,14.53673,0,0,2016-03-02 02:38:47.801,10671.570233125,0,-0.1011963,97.39778,192.168.1.101,100.78.239.175,2,1,0.39,0
2016-03-02 02:38:58.268,48,234B9614-18C8-49ED-8B56-CAB6C4F40872,my_iOS_device_1,1456907937.999846,40.79920085150822,-96.68574954392079,370.4804,0,293.90625,4,10,-9999,1456907938.248094,37.74335098266602,37.51742553710938,9.64068603515625,274.4890441894531,271.2119140625,25,10671.675875125,0.2387542724609375,0.978607177734375,0.0546875,10671.671529125,-0.01574807047396556,0.04142547075618255,-0.01303883669702795,10671.636524125,-2.318177405499525,1.779259062034579,-1.325938522226003,0.007755763363093138,-0.001252975314855576,-0.004921765998005867,0.003384741488844156,0.01635468378663063,0.006119696889072657,XArbitraryCorrectedZVertical,-0.4060269009997188,-0.6001892565566604,0.6461659902148125,0.2395506732785495,0.2371700704097748,0.9701718091964722,0.05016997456550598,33.87401580810547,37.97039413452148,7.610757827758789,1,10671.519788125,unknown,0,2016-03-02 02:38:58.098,2016-03-02 02:37:10.358,14,14.53673,0,0,2016-03-02 02:38:47.801,10671.570233125,0,-0.1011963,97.39778,192.168.1.101,100.78.239.175,2,1,0.39,0
2016-03-02 02:38:58.306,49,234B9614-18C8-49ED-8B56-CAB6C4F40872,my_iOS_device_1,1456907937.999846,40.79920085150822,-96.68574954392079,370.4804,0,293.90625,4,10,-9999,1456907938.296489,37.39656829833984,37.23890686035156,9.44244384765625,274.4887390136719,271.2116088867188,25,10671.706168125,0.2380523681640625,0.98187255859375,0.055999755859375,10671.671529125,-0.01574807047396556,0.04142547075618255,-0.01303883669702795,10671.671529125,-2.318599611753743,1.779065962169821,-1.326104683021057,0.002474843757227063,0.0104348873719573,-0.007135787047445774,0.002067938446998596,0.01045504119247198,0.002979223150759935,XArbitraryCorrectedZVertical,-0.4060383103427206,-0.6001485758389028,0.6461454456753076,0.2396886323662251,0.2370220273733139,0.9702121019363403,0.05009084567427635,33.86613845825195,37.97770309448242,7.609353065490723,1,10671.519788125,unknown,0,2016-03-02 02:38:58.098,2016-03-02 02:37:10.358,14,14.53673,0,0,2016-03-02 02:38:47.801,10671.570233125,0,-0.1011963,97.39778,192.168.1.101,100.78.239.175,2,1,0.39,0
2016-03-02 02:38:58.347,50,234B9614-18C8-49ED-8B56-CAB6C4F40872,my_iOS_device_1,1456907937.999846,40.79920085150822,-96.68574954392079,370.4804,0,293.90625,4,10,-9999,1456907938.296489,37.39656829833984,37.23890686035156,9.44244384765625,274.4887390136719,271.2116088867188,25,10671.736460125,0.2393035888671875,0.9915008544921875,0.0623779296875,10671.706543125,-0.0327962961921078,0.06056268003338295,-0.01009897316968948,10671.706543125,-2.31655469947385,1.781825155870421,-1.326270988186336,-0.01457442808896303,0.02957258000969887,-0.004196271300315857,0.001327228383161128,0.01162021048367023,0.005288911052048206,XArbitraryCorrectedZVertical,-0.4062628615299446,-0.6002548707203466,0.6458211919256209,0.2399157468315478,0.2367251366376877,0.9702523350715637,0.05071084573864937,33.85957336425781,37.98186874389648,7.617775917053223,1,10671.519788125,unknown,0,2016-03-02 02:38:58.098,2016-03-02 02:37:10.358,14,14.53673,0,0,2016-03-02 02:38:47.801,10671.570233125,0,-0.1011963,97.39778,192.168.1.101,100.78.239.175,2,1,0.39,0
2016-03-02 02:38:58.369,51,234B9614-18C8-49ED-8B56-CAB6C4F40872,my_iOS_device_1,1456907937.999846,40.79920085150822,-96.68574954392079,370.4804,0,293.90625,4,10,-9999,1456907938.355383,36.91107559204102,37.51742553710938,9.83892822265625,274.4979248046875,271.2207946777344,25,10671.766755125,0.2388763427734375,0.9813232421875,0.0531463623046875,10671.741549125,-0.01784397825185792,0.06375234807097085,-0.01414644539439191,10671.741549125,-2.313162188714239,1.786343161934688,-1.326452706567574,0.0003754326899070293,0.03276302292943001,-0.008244282566010952,0.002982212929055095,0.02120452933013439,0.01063579134643078,XArbitraryCorrectedZVertical,-0.4066449272547185,-0.6004256593256632,0.6453004729902521,0.2402420244667296,0.2363213747739792,0.970296323299408,0.05174214020371437,33.82552337646484,37.99124908447266,7.721565246582031,1,10671.519788125,unknown,0,2016-03-02 02:38:58.098,2016-03-02 02:37:10.358,14,14.53673,0,0,2016-03-02 02:38:47.801,10671.570233125,0,-0.1011963,97.39778,192.168.1.101,100.78.239.175,2,1,0.39,0
2016-03-02 02:38:58.392,52,234B9614-18C8-49ED-8B56-CAB6C4F40872,my_iOS_device_1,1456907937.999846,40.79920085150822,-96.68574954392079,370.4804,0,293.90625,4,10,-9999,1456907938.355383,36.91107559204102,37.51742553710938,9.83892822265625,274.4979248046875,271.2207946777344,25,10671.797049125,0.2368316650390625,0.9873809814453125,0.049163818359375,10671.776548125,-0.01144173899130743,0.07119801384661438,-0.01512302656612396,10671.776548125,-2.313130733686145,1.787713761534623,-1.326728578841152,0.006776744965463877,0.040209099650383,-0.00922083668410778,0.002887520473450422,0.01096021477133036,0.0011379822390154,XArbitraryCorrectedZVertical,-0.4069896093788996,-0.600302963419228,0.6450108308555613,0.2407422647702114,0.2359888255596161,0.9703630208969116,0.05200837925076485,33.8128776550293,37.99722671508789,7.747485160827637,1,10671.519788125,unknown,0,2016-03-02 02:38:58.098,2016-03-02 02:37:10.358,14,14.53673,0,0,2016-03-02 02:38:47.801,10671.570233125,0,-0.1011963,97.39778,192.168.1.101,100.78.239.175,2,1,0.39,0
2016-03-02 02:38:58.427,53,234B9614-18C8-49ED-8B56-CAB6C4F40872,my_iOS_device_1,1456907937.999846,40.79920085150822,-96.68574954392079,370.4804,0,293.90625,4,10,-9999,1456907938.413064,36.73768615722656,37.83070373535156,9.67376708984375,274.5083618164062,271.2312316894531,25,10671.827346125,0.244659423828125,0.9850006103515625,0.06060791015625,10671.811589125,-0.0273951391853181,0.07331283006824631,-0.01535578684539689,10671.776548125,-2.313130733686145,1.787713761534623,-1.326728578841152,0.006776744965463877,0.040209099650383,-0.00922083668410778,0.002887520473450422,0.01096021477133036,0.0011379822390154,XArbitraryCorrectedZVertical,-0.4069896093788996,-0.600302963419228,0.6450108308555613,0.2407422647702114,0.2359888255596161,0.9703630208969116,0.05200837925076485,33.8128776550293,37.99722671508789,7.747485160827637,1,10671.519788125,unknown,0,2016-03-02 02:38:58.098,2016-03-02 02:37:10.358,14,14.53673,0,0,2016-03-02 02:38:47.801,10671.570233125,0,-0.1011963,97.39778,192.168.1.101,100.78.239.175,2,1,0.39,0
2016-03-02 02:38:58.452,54,234B9614-18C8-49ED-8B56-CAB6C4F40872,my_iOS_device_1,1456907937.999846,40.79920085150822,-96.68574954392079,370.4804,0,293.90625,4,10,-9999,1456907938.413064,36.73768615722656,37.83070373535156,9.67376708984375,274.5083618164062,271.2312316894531,25,10671.857643125,0.237762451171875,0.98101806640625,0.0447998046875,10671.846601125,-0.01255494032696055,0.06376220176700415,-0.0119381522184982,10671.811589125,-2.312654563631685,1.789744364200121,-1.327141385380384,-0.009049358777701855,0.04229418933391571,-0.009430793114006519,0.005322510842233896,0.01871881820261478,-0.0005510969203896821,XArbitraryCorrectedZVertical,-0.4073696647934646,-0.6002084531822428,0.6446330218182517,0.2413462991555445,0.2354916930198669,0.9704626798629761,0.05240046232938766,33.78570938110352,38.01071929931641,7.799656867980957,1,10671.519788125,unknown,0,2016-03-02 02:38:58.098,2016-03-02 02:37:10.358,14,14.53673,0,0,2016-03-02 02:38:47.801,10671.570233125,0,-0.1011963,97.39778,192.168.1.101,100.78.239.175,2,1,0.39,0
2016-03-02 02:38:58.507,55,234B9614-18C8-49ED-8B56-CAB6C4F40872,my_iOS_device_1,1456907937.999846,40.79920085150822,-96.68574954392079,370.4804,0,293.90625,4,10,-9999,1456907938.472917,36.63364791870117,37.44776916503906,9.83892822265625,274.5232543945312,271.2461242675781,25,10671.887941125,0.2443084716796875,0.9902801513671875,0.04754638671875,10671.881612125,-0.0199574628929448,0.06268442047384908,-0.01524233618295951,10671.846601125,-2.311504674836994,1.792066314538635,-1.327053636678156,0.005789231974631548,0.03274403512477875,-0.006011877208948135,0.009466351009905338,0.01140051428228617,0.01121265720576048,XArbitraryCorrectedZVertical,-0.4078008168661367,-0.6001511463812343,0.6443032612914724,0.2416410618039548,0.2354524731636047,0.9704415202140808,0.05296580865979195,33.77043914794922,38.01760101318359,7.832196235656738,1,10671.519788125,unknown,0,2016-03-02 02:38:58.098,2016-03-02 02:37:10.358,14,14.53673,0,0,2016-03-02 02:38:47.801,10671.570233125,0,-0.1011963,97.39778,192.168.1.101,100.78.239.175,2,1,0.39,0
2016-03-02 02:38:58.513,56,234B9614-18C8-49ED-8B56-CAB6C4F40872,my_iOS_device_1,1456907937.999846,40.79920085150822,-96.68574954392079,370.4804,0,293.90625,4,10,-9999,1456907938.472917,36.63364791870117,37.44776916503906,9.83892822265625,274.5232543945312,271.2461242675781,25,10671.918220125,0.23760986328125,0.9827117919921875,0.053375244140625,10671.916628125,-0.00292974351519617,0.05525047260700189,-0.01605699716041475,10671.881612125,-2.313507721125612,1.791191973538017,-1.327363046093858,-0.0016110670985654,0.03166589513421059,-0.009315670467913151,0.005227059125900269,0.0169563814997673,-0.00919147115200758,XArbitraryCorrectedZVertical,-0.4080213290687944,-0.5998881015077334,0.6442231518196295,0.2421350684100361,0.2352056801319122,0.9705161452293396,0.05269427970051765,33.76238250732422,38.01365661621094,7.885893821716309,1,10671.519788125,unknown,0,2016-03-02 02:38:58.098,2016-03-02 02:37:10.358,14,14.53673,0,0,2016-03-02 02:38:47.801,10671.570233125,0,-0.1011963,97.39778,192.168.1.101,100.78.239.175,2,1,0.39,0
