loggingTime,loggingSample,identifierForVendor,deviceID,locationTimestamp_since1970,locationLatitude,locationLongitude,locationAltitude,locationSpeed,locationCourse,locationVerticalAccuracy,locationHorizontalAccuracy,locationFloor,locationHeadingTimestamp_since1970,locationHeadingX,locationHeadingY,locationHeadingZ,locationTrueHeading,locationMagneticHeading,locationHeadingAccuracy,accelerometerTimestamp_sinceReboot,accelerometerAccelerationX,accelerometerAccelerationY,accelerometerAccelerationZ,gyroTimestamp_sinceReboot,gyroRotationX,gyroRotationY,gyroRotationZ,motionTimestamp_sinceReboot,motionYaw,motionRoll,motionPitch,motionRotationRateX,motionRotationRateY,motionRotationRateZ,motionUserAccelerationX,motionUserAccelerationY,motionUserAccelerationZ,motionAttitudeReferenceFrame,motionQuaternionX,motionQuaternionY,motionQuaternionZ,motionQuaternionW,motionGravityX,motionGravityY,motionGravityZ,motionMagneticFieldX,motionMagneticFieldY,motionMagneticFieldZ,motionMagneticFieldCalibrationAccuracy,activityTimestamp_sinceReboot,activity,activityActivityConfidence,activityActivityStartDate,pedometerStartDate,pedometerNumberofSteps,pedometerDistance,pedometerFloorAscended,pedometerFloorDescended,pedometerEndDate,altimeterTimestamp_sinceReboot,altimeterReset,altimeterRelativeAltitude,altimeterPressure,IP_en0,IP_pdp_ip0,deviceOrientation,batteryState,batteryLevel,state
2016-03-02 02:28:42.302,1,234B9614-18C8-49ED-8B56-CAB6C4F40872,my_iOS_device_1,1456907321.999996,40.79925160393193,-96.68575792582396,371.4605,0,336.09375,3,10,-9999,1456907322.242704,-4.553072929382324,44.2152099609375,22.9320068359375,14.33926868438721,11.06213283538818,25,10055.693505375,0.027191162109375,1.019439697265625,0.027374267578125,10055.664274375,-0.2646186101291073,0.1167457916541306,-0.01456003431168121,10055.664274375,-3.064131010809224,2.442108030246668,-1.537504306297287,-0.2436545491218567,0.0866452157497406,-0.008478984236717224,0.000572950579226017,0.01233391370624304,-0.04060620442032814,XArbitraryCorrectedZVertical,-0.6655338083532106,-0.264195936965581,0.2713996665588042,0.6431232213359421,0.02143022418022156,0.9994458556175232,0.02546948567032814,-4.942676067352295,46.98282241821289,23.02978706359863,1,10054.595383375,unknown,1,2016-03-02 02:28:41.182,null,0,0,0,0,null,10054.786179375,0,-0.2418518,97.42633,192.168.1.101,100.78.239.175,2,1,0.44,0
2016-03-02 02:28:42.329,2,234B9614-18C8-49ED-8B56-CAB6C4F40872,my_iOS_device_1,1456907321.999996,40.79925160393193,-96.68575792582396,371.4605,0,336.09375,3,10,-9999,1456907322.305506,-4.934693336486816,44.18034362792969,22.89892578125,16.97671699523926,13.69958019256592,25,10055.723803375,0.026641845703125,1.01495361328125,0.0301971435546875,10055.699284375,0.01816648705986652,0.03403067135735953,-0.004016579556057507,10055.699284375,-3.027881806937685,2.47867191515533,-1.536247624974232,0.03912353515625,0.003930504899471998,0.002064068336039782,0.005933374632149935,0.02003644406795502,0.0001484630192862824,XArbitraryCorrectedZVertical,-0.6661202343680918,-0.2643799077968524,0.2710040782808029,0.6426071017922983,0.02125778794288635,0.9994032382965088,0.02722580544650555,-4.99055814743042,46.89617919921875,23.19546318054199,1,10054.595383375,unknown,1,2016-03-02 02:28:41.182,null,0,0,0,0,null,10054.786179375,0,-0.2418518,97.42633,192.168.1.101,100.78.239.175,2,1,0.44,0
2016-03-02 02:28:42.361,3,234B9614-18C8-49ED-8B56-CAB6C4F40872,my_iOS_device_1,1456907321.999996,40.79925160393193,-96.68575792582396,371.4605,0,336.09375,3,10,-9999,1456907322.305506,-4.934693336486816,44.18034362792969,22.89892578125,16.97671699523926,13.69958019256592,25,10055.754098375,0.03240966796875,1.007308959960938,0.0168914794921875,10055.734293375,-0.01478906616542803,0.01911244187906266,-0.006619020573282938,10055.734293375,-3.025640412872703,2.480892409930501,-1.536022024702013,0.006167539861053228,-0.01098750345408916,-0.0005378296482376754,0.005992849823087454,0.01470368634909391,-0.003006378654390574,XArbitraryCorrectedZVertical,-0.6662003273018589,-0.2643910045617305,0.2710056104640368,0.6425188555262391,0.02133564092218876,0.9993954300880432,0.02745095826685429,-5.006479740142822,46.85555267333984,23.27400588989258,1,10054.595383375,unknown,1,2016-03-02 02:28:41.182,null,0,0,0,0,null,10054.786179375,0,-0.2418518,97.42633,192.168.1.101,100.78.239.175,2,1,0.44,0
2016-03-02 02:28:42.386,4,234B9614-18C8-49ED-8B56-CAB6C4F40872,my_iOS_device_1,1456907321.999996,40.79925160393193,-96.68575792582396,371.4605,0,336.09375,3,10,-9999,1456907322.366293,-4.96938419342041,44.07588195800781,22.53570556640625,17.49990463256836,14.22276878356934,25,10055.784391375,0.0248565673828125,1.006317138671875,0.0233306884765625,10055.769306375,-0.03394118914473287,-0.008553274473007489,-0.007948736905559502,10055.734293375,-3.025640412872703,2.480892409930501,-1.536022024702013,0.006167539861053228,-0.01098750345408916,-0.0005378296482376754,0.005992849823087454,0.01470368634909391,-0.003006378654390574,XArbitraryCorrectedZVertical,-0.6662003273018589,-0.2643910045617305,0.2710056104640368,0.6425188555262391,0.02133564092218876,0.9993954300880432,0.02745095826685429,-5.006479740142822,46.85555267333984,23.27400588989258,1,10054.595383375,unknown,1,2016-03-02 02:28:41.182,null,0,0,0,0,null,10054.786179375,0,-0.2418518,97.42633,192.168.1.101,100.78.239.175,2,1,0.44,0
2016-03-02 02:28:42.433,5,234B9614-18C8-49ED-8B56-CAB6C4F40872,my_iOS_device_1,1456907321.999996,40.79925160393193,-96.68575792582396,371.4605,0,336.09375,3,10,-9999,1456907322.426868,-4.483689308166504,44.424072265625,22.337646484375,16.67058944702148,13.39345264434814,25,10055.814686375,0.0104217529296875,1.009033203125,0.0296478271484375,10055.804316375,-0.02435940185873678,0.003151318517890763,-0.00781557885105554,10055.769306375,-3.03120252261221,2.474316243477495,-1.536059131700289,-0.01298305206000805,-0.03865314275026321,-0.001866400009021163,0.009589402005076408,0.003273563692346215,-0.01299870293587446,XArbitraryCorrectedZVertical,-0.6660318209884244,-0.2646546391400537,0.2714056376288452,0.6424161542767813,0.02149275131523609,0.9993967413902283,0.02728092856705189,-5.004109382629395,46.84914016723633,23.28741836547852,1,10054.595383375,unknown,1,2016-03-02 02:28:41.182,null,0,0,0,0,null,10054.786179375,0,-0.2418518,97.42633,192.168.1.101,100.78.239.175,2,1,0.44,0
2016-03-02 02:28:42.447,6,234B9614-18C8-49ED-8B56-CAB6C4F40872,my_iOS_device_1,1456907321.999996,40.79925160393193,-96.68575792582396,371.4605,0,336.09375,3,10,-9999,1456907322.426868,-4.483689308166504,44.424072265625,22.337646484375,16.67058944702148,13.39345264434814,25,10055.844980375,0.0085601806640625,1.016067504882812,0.031768798828125,10055.839325375,-0.01796701629421958,0.01698031511034522,-0.007729825063954989,10055.804316375,-3.026223499939687,2.478125807689222,-1.53581935783558,-0.003401408903300762,-0.02694834023714066,-0.001733284792862833,-0.001715075457468629,0.007554380688816309,-0.001382579677738249,XArbitraryCorrectedZVertical,-0.6659699332046485,-0.265065557087597,0.2717585939892793,0.6421616347199558,0.02153624221682549,0.9993883967399597,0.02755140326917171,-4.959615707397461,46.84972763061523,23.29575729370117,1,10054.595383375,unknown,1,2016-03-02 02:28:41.182,null,0,0,0,0,null,10054.786179375,0,-0.2418518,97.42633,192.168.1.101,100.78.239.175,2,1,0.44,0
2016-03-02 02:28:42.480,7,234B9614-18C8-49ED-8B56-CAB6C4F40872,my_iOS_device_1,1456907321.999996,40.79925160393193,-96.68575792582396,371.4605,0,336.09375,3,10,-9999,1456907322.426868,-4.483689308166504,44.424072265625,22.337646484375,16.67058944702148,13.39345264434814,25,10055.875273375,0.0098114013671875,1.014083862304688,0.03106689453125,10055.839325375,-0.01796701629421958,0.01698031511034522,-0.007729825063954989,10055.839325375,-3.019647369281772,2.484014798365754,-1.535878056235239,0.002991033252328634,-0.01311905682086945,-0.001648865989409387,-0.01363207679241896,0.01573104038834572,0.002779445378109813,XArbitraryCorrectedZVertical,-0.6658786275864866,-0.2653701452023641,0.2719036844975822,0.6420690973060851,0.02133776620030403,0.9993904232978821,0.02763132192194462,-4.943262100219727,46.84406280517578,23.31061744689941,1,10054.595383375,unknown,1,2016-03-02 02:28:41.182,null,0,0,0,0,null,10054.786179375,0,-0.2418518,97.42633,192.168.1.101,100.78.239.175,2,1,0.44,0
2016-03-02 02:28:42.514,8,234B9614-18C8-49ED-8B56-CAB6C4F40872,my_iOS_device_1,1456907321.999996,40.79925160393193,-96.68575792582396,371.4605,0,336.09375,3,10,-9999,1456907322.48706,-3.824532508850098,44.80711364746094,22.37060546875,15.19502544403076,11.91788959503174,25,10055.905567375,0.0172882080078125,1.007949829101562,0.0316162109375,10055.874339375,-0.01045663570408712,0.04462552512202176,-0.01083214141778829,10055.874339375,-2.999717099924628,2.504175047169748,-1.536426085059965,0.01049982383847237,0.01452657580375671,-0.004756233189254999,-0.0114782964810729,0.01885536871850491,0.005038107745349407,XArbitraryCorrectedZVertical,-0.6657878933042229,-0.2655830030864076,0.271542972238916,0.6422278130296004,0.02045046351850033,0.9994093775749207,0.02761569991707802,-4.93886137008667,46.84360122680664,23.31247520446777,1,10054.595383375,unknown,1,2016-03-02 02:28:41.182,null,0,0,0,0,null,10054.786179375,0,-0.2418518,97.42633,192.168.1.101,100.78.239.175,2,1,0.44,0
2016-03-02 02:28:42.538,9,234B9614-18C8-49ED-8B56-CAB6C4F40872,my_iOS_device_1,1456907321.999996,40.79925160393193,-96.68575792582396,371.4605,0,336.09375,3,10,-9999,1456907322.48706,-3.824532508850098,44.80711364746094,22.37060546875,15.19502544403076,11.91788959503174,25,10055.935846375,0.0207061767578125,1.008255004882812,0.0343017578125,10055.909336375,-0.004122839683551669,0.05846623962327257,-0.006484264622124929,10055.909336375,-2.994698424571259,2.510033286068055,-1.53697365286622,0.01673664897680283,0.02834727987647057,-0.0004151793546043336,-0.00267702853307128,0.008521760813891888,0.004322870168834925,XArbitraryCorrectedZVertical,-0.6657317487031108,-0.2654202498843754,0.2711591017175679,0.6425154249321442,0.01996523700654507,0.9994280934333801,0.02729334123432636,-5.001338958740234,46.84055709838867,23.30527114868164,1,10054.595383375,unknown,1,2016-03-02 02:28:41.182,null,0,0,0,0,null,10054.786179375,0,-0.2418518,97.42633,192.168.1.101,100.78.239.175,2,1,0.44,0
2016-03-02 02:28:42.570,10,234B9614-18C8-49ED-8B56-CAB6C4F40872,my_iOS_device_1,1456907321.999996,40.79925160393193,-96.68575792582396,371.4605,0,336.09375,3,10,-9999,1456907322.539557,-4.206149101257324,44.56336975097656,22.53570556640625,15.71471691131592,12.43758106231689,25,10055.966155375,0.0172271728515625,1.007568359375,0.030975341796875,10055.944336375,-0.004156129197177659,0.05315509746132754,-0.004350539956753443,10055.944336375,-2.998973224673009,2.506691160675999,-1.5371114323999,0.01670093275606632,0.02303634956479073,0.001718599931336939,0.0007315042894333601,0.008822287432849407,0.0071861632168293,XArbitraryCorrectedZVertical,-0.6657993020445351,-0.2650831694552369,0.270886662498822,0.6426994777878877,0.01997467316687107,0.9994327425956726,0.0271155945956707,-5.020776748657227,46.84576034545898,23.29062652587891,1,10054.595383375,unknown,1,2016-03-02 02:28:41.182,null,0,0,0,0,null,10054.786179375,0,-0.2418518,97.42633,192.168.1.101,100.78.239.175,2,1,0.44,0
2016-03-02 02:28:42.599,11,234B9614-18C8-49ED-8B56-CAB6C4F40872,my_iOS_device_1,1456907321.999996,40.79925160393193,-96.68575792582396,371.4605,0,336.09375,3,10,-9999,1456907322.5956,-4.27553653717041,44.49369812011719,22.00738525390625,15.72351837158203,12.44638252258301,25,10055.996453375,0.0251007080078125,1.007736206054688,0.0303497314453125,10055.979369375,-0.02328668057165286,0.05420118713751067,-0.005694637358916435,10055.944336375,-2.998973224673009,2.506691160675999,-1.5371114323999,0.01670093275606632,0.02303634956479073,0.001718599931336939,0.0007315042894333601,0.008822287432849407,0.0071861632168293,XArbitraryCorrectedZVertical,-0.6657993020445351,-0.2650831694552369,0.270886662498822,0.6426994777878877,0.01997467316687107,0.9994327425956726,0.0271155945956707,-5.020776748657227,46.84576034545898,23.29062652587891,1,10054.595383375,unknown,1,2016-03-02 02:28:41.182,null,0,0,0,0,null,10054.786179375,0,-0.2418518,97.42633,192.168.1.101,100.78.239.175,2,1,0.44,0
2016-03-02 02:28:42.639,12,234B9614-18C8-49ED-8B56-CAB6C4F40872,my_iOS_device_1,1456907321.999996,40.79925160393193,-96.68575792582396,371.4605,0,336.09375,3,10,-9999,1456907322.5956,-4.27553653717041,44.49369812011719,22.00738525390625,15.72351837158203,12.44638252258301,25,10056.026748375,0.029205322265625,1.011856079101562,0.0307464599609375,10056.014379375,-0.03292865529828474,0.04038151160887149,-0.001564607140421552,10055.979369375,-2.99436046247661,2.512178518328082,-1.537088747903987,-0.002431401982903481,0.0240827314555645,0.000373902585124597,-0.004152890294790268,0.007297172676771879,0.005685345735400915,XArbitraryCorrectedZVertical,-0.6659385973900106,-0.2648534407666289,0.2705440340940315,0.6427941855963141,0.01983892545104027,0.9994319677352905,0.0272431205958128,-5.056272983551025,46.85295486450195,23.26847076416016,1,10054.595383375,unknown,1,2016-03-02 02:28:41.182,null,0,0,0,0,null,10054.786179375,0,-0.2418518,97.42633,192.168.1.101,100.78.239.175,2,1,0.44,0
2016-03-02 02:28:42.674,13,234B9614-18C8-49ED-8B56-CAB6C4F40872,my_iOS_device_1,1456907321.999996,40.79925160393193,-96.68575792582396,371.4605,0,336.09375,3,10,-9999,1456907322.655715,-4.934693336486816,44.18032836914062,22.1064453125,15.75592517852783,12.47878932952881,25,10056.057042375,0.0230712890625,1.006927490234375,0.0318603515625,10056.049385375,-0.05208264249035264,0.02973312830629866,-0.001837314836045666,10056.014379375,-2.996526630562891,2.510503341687625,-1.536603229626714,-0.01207443326711655,0.01026318687945604,0.004505146760493517,0.005906432867050171,0.01114360895007849,0.001237487653270364,XArbitraryCorrectedZVertical,-0.6661627022140916,-0.2646281655545322,0.2704457996844016,0.6426960849477186,0.02017083764076233,0.9994154572486877,0.02760162390768528,-5.074491024017334,46.84692001342773,23.27665519714355,1,10054.595383375,unknown,1,2016-03-02 02:28:41.182,null,0,0,0,0,null,10054.786179375,0,-0.2418518,97.42633,192.168.1.101,100.78.239.175,2,1,0.44,0
2016-03-02 02:28:42.695,14,234B9614-18C8-49ED-8B56-CAB6C4F40872,my_iOS_device_1,1456907321.999996,40.79925160393193,-96.68575792582396,371.4605,0,336.09375,3,10,-9999,1456907322.655715,-4.934693336486816,44.18032836914062,22.1064453125,15.75592517852783,12.47878932952881,25,10056.087336375,0.02386474609375,1.008407592773438,0.030181884765625,10056.049385375,-0.05208264249035264,0.02973312830629866,-0.001837314836045666,10056.049385375,-2.993089113241993,2.514017592639525,-1.535493432608634,-0.03122975677251816,-0.0003850735956802964,0.004235212225466967,0.004696167074143887,0.009335851296782494,0.002954532625153661,XArbitraryCorrectedZVertical,-0.6665578081888591,-0.2645482018411808,0.2704703877061366,0.642308887233512,0.02072497457265854,0.9993768930435181,0.02857012487947941,-5.062056064605713,46.83633041381836,23.30065155029297,1,10054.595383375,unknown,1,2016-03-02 02:28:41.182,null,0,0,0,0,null,10054.786179375,0,-0.2418518,97.42633,192.168.1.101,100.78.239.175,2,1,0.44,0
2016-03-02 02:28:42.720,15,234B9614-18C8-49ED-8B56-CAB6C4F40872,my_iOS_device_1,1456907321.999996,40.79925160393193,-96.68575792582396,371.4605,0,336.09375,3,10,-9999,1456907322.713446,-4.55307674407959,44.28477478027344,22.4696044921875,15.78105163574219,12.50391578674316,25,10056.117629375,0.0194854736328125,1.013107299804688,0.02752685546875,10056.084391375,-0.05215827626531089,0.02655757502248818,0.003491936821311897,10056.084391375,-2.98409370224967,2.522898722481581,-1.534351343819937,-0.03136712312698364,-0.003608206054195762,0.009571608155965805,0.003235906828194857,0.01009397674351931,-0.001652450766414404,XArbitraryCorrectedZVertical,-0.6669548379171456,-0.2645990689987808,0.2704888276533356,0.6418678765747784,0.02113237977027893,0.9993359446525574,0.02968284673988819,-5.04868221282959,46.82538223266602,23.32554244995117,1,10054.595383375,unknown,1,2016-03-02 02:28:41.182,null,0,0,0,0,null,10056.099381375,0,-0.1697083,97.42549,192.168.1.101,100.78.239.175,2,1,0.44,0
2016-03-02 02:28:42.754,16,234B9614-18C8-49ED-8B56-CAB6C4F40872,my_iOS_device_1,1456907321.999996,40.79925160393193,-96.68575792582396,371.4605,0,336.09375,3,10,-9999,1456907322.713446,-4.55307674407959,44.28477478027344,22.4696044921875,15.78105163574219,12.50391578674316,25,10056.147929375,0.0212860107421875,1.017730712890625,0.0333404541015625,10056.119382375,-0.05422622085175741,0.02760765944030642,-0.0008016114881138507,10056.119382375,-2.972015895746979,2.534872225652813,-1.533401875818063,-0.03343458846211433,-0.002557886997237802,0.00527782179415226,-0.001830986933782697,0.01380639057606459,-0.003186363261193037,XArbitraryCorrectedZVertical,-0.6672973001310457,-0.2647091283180306,0.2704423345257935,0.6414860359502476,0.02131646126508713,0.9993008971214294,0.03071321919560432,-5.013360977172852,46.78156661987305,23.42089462280273,1,10054.595383375,unknown,1,2016-03-02 02:28:41.182,null,0,0,0,0,null,10056.099381375,0,-0.1697083,97.42549,192.168.1.101,100.78.239.175,2,1,0.44,0
2016-03-02 02:28:42.783,17,234B9614-18C8-49ED-8B56-CAB6C4F40872,my_iOS_device_1,1456907321.999996,40.79925160393193,-96.68575792582396,371.4605,0,336.09375,3,10,-9999,1456907322.771698,-5.177542686462402,43.79728698730469,22.931884765625,15.82717418670654,12.55003833770752,25,10056.178213375,0.0185394287109375,1.011795043945312,0.030792236328125,10056.154403375,-0.03295608585751256,0.02337003751377234,-0.0004905542727925957,10056.154403375,-2.961432550523597,2.545415013863546,-1.532711855689444,-0.0121642705053091,-0.006795297376811504,0.005588029976934195,-9.262729145120829e-05,0.01845583878457546,0.00183363480027765,XArbitraryCorrectedZVertical,-0.6675558305178333,-0.2648067650356744,0.2703677533260349,0.6412081318062154,0.02137863822281361,0.9992748498916626,0.03150681778788567,-5.010851860046387,46.75911331176758,23.46621704101562,1,10054.595383375,unknown,1,2016-03-02 02:28:41.182,null,0,0,0,0,null,10056.099381375,0,-0.1697083,97.42549,192.168.1.101,100.78.239.175,2,1,0.44,0
2016-03-02 02:28:42.833,18,234B9614-18C8-49ED-8B56-CAB6C4F40872,my_iOS_device_1,1456907321.999996,40.79925160393193,-96.68575792582396,371.4605,0,336.09375,3,10,-9999,1456907322.771698,-5.177542686462402,43.79728698730469,22.931884765625,15.82717418670654,12.55003833770752,25,10056.208490375,0.0238189697265625,1.014144897460938,0.021484375,10056.189433375,-0.01916517246864623,0.03295981428303867,0.002902046639859346,10056.189433375,-2.963226737476336,2.543664097530161,-1.532580320137386,0.001626505982130766,0.002794751431792974,0.00897999107837677,0.001166797825135291,0.01020585093647242,-0.006462007761001587,XArbitraryCorrectedZVertical,-0.6676013264039203,-0.26475924186367,0.270386289422157,0.6411725721863155,0.02150776237249374,0.9992698431015015,0.03157797455787659,-5.006102561950684,46.7512321472168,23.48293304443359,1,10054.595383375,unknown,1,2016-03-02 02:28:41.182,null,0,0,0,0,null,10056.099381375,0,-0.1697083,97.42549,192.168.1.101,100.78.239.175,2,1,0.44,0
2016-03-02 02:28:42.846,19,234B9614-18C8-49ED-8B56-CAB6C4F40872,my_iOS_device_1,1456907321.999996,40.79925160393193,-96.68575792582396,371.4605,0,336.09375,3,10,-9999,1456907322.843717,-4.657151222229004,43.97137451171875,22.63470458984375,15.85401248931885,12.57687664031982,25,10056.238792375,0.0186004638671875,1.01312255859375,0.033599853515625,10056.224413375,-0.0191001913380483,0.04145529816039144,-0.001364337426447594,10056.224413375,-2.979209179115966,2.527911163843837,-1.532835210641818,0.001694466802291572,0.01129033323377371,0.004713937640190125,0.0009713093168102205,0.01448386441916227,-0.006124685984104872,XArbitraryCorrectedZVertical,-0.6674994929600643,-0.2644956364213481,0.2705010029793372,0.6413389841568131,0.02185583859682083,0.9992795586585999,0.03102703019976616,-4.995913505554199,46.76053237915039,23.46658515930176,1,10056.234360375,unknown,2,2016-03-02 02:28:42.798,null,0,0,0,0,null,10056.099381375,0,-0.1697083,97.42549,192.168.1.101,100.78.239.175,2,1,0.44,0
2016-03-02 02:28:42.873,20,234B9614-18C8-49ED-8B56-CAB6C4F40872,my_iOS_device_1,1456907321.999996,40.79925160393193,-96.68575792582396,371.4605,0,336.09375,3,10,-9999,1456907322.843717,-4.657151222229004,43.97137451171875,22.63470458984375,15.85401248931885,12.57687664031982,25,10056.269091375,0.02276611328125,1.011947631835938,0.02740478515625,10056.259451375,-0.01585965692363988,0.04889270813665573,-0.004518319105428436,10056.224413375,-2.979209179115966,2.527911163843837,-1.532835210641818,0.001694466802291572,0.01129033323377371,0.004713937640190125,0.0009713093168102205,0.01448386441916227,-0.006124685984104872,XArbitraryCorrectedZVertical,-0.6674994929600643,-0.2644956364213481,0.2705010029793372,0.6413389841568131,0.02185583859682083,0.9992795586585999,0.03102703019976616,-4.995913505554199,46.76053237915039,23.46658515930176,1,10056.234360375,unknown,2,2016-03-02 02:28:42.798,null,0,0,0,0,null,10056.099381375,0,-0.1697083,97.42549,192.168.1.101,100.78.239.175,2,1,0.44,0
2016-03-02 02:28:42.915,21,234B9614-18C8-49ED-8B56-CAB6C4F40872,my_iOS_device_1,1456907321.999996,40.79925160393193,-96.68575792582396,371.4605,0,336.09375,3,10,-9999,1456907322.889657,-4.171452522277832,44.24993896484375,22.17242431640625,15.87743759155273,12.60030174255371,25,10056.299407375,0.032196044921875,1.01019287109375,0.027130126953125,10056.294464375,-0.01805436797797418,0.03720542569284299,-0.0002812298111123676,10056.259451375,-2.980075352805814,2.527540609818695,-1.533011355603489,0.004837600979954004,0.01863717474043369,0.001572921872138977,-0.0004951637238264084,0.01197475381195545,-0.003149845404550433,XArbitraryCorrectedZVertical,-0.667504315630437,-0.2643397835575956,0.270333388202369,0.6414688820718358,0.02176591567695141,0.9992862343788147,0.030875064432621,-5.000278472900391,46.76762008666992,23.45152473449707,1,10056.234360375,unknown,2,2016-03-02 02:28:42.798,null,0,0,0,0,null,10056.099381375,0,-0.1697083,97.42549,192.168.1.101,100.78.239.175,2,1,0.44,0
2016-03-02 02:28:42.932,22,234B9614-18C8-49ED-8B56-CAB6C4F40872,my_iOS_device_1,1456907321.999996,40.79925160393193,-96.68575792582396,371.4605,0,336.09375,3,10,-9999,1456907322.889657,-4.171452522277832,44.24993896484375,22.17242431640625,15.87743759155273,12.60030174255371,25,10056.32960829167,0.0294952392578125,1.010467529296875,0.0274810791015625,10056.294464375,-0.01805436797797418,0.03720542569284299,-0.0002812298111123676,10056.294464375,-2.997969601350053,2.510089497530819,-1.533016395795472,0.002644095569849014,0.006949975155293941,0.005811927374452353,0.01195757649838924,0.01006721425801516,-0.004317655228078365,XArbitraryCorrectedZVertical,-0.6675068434955631,-0.2639656286690498,0.2704175286716071,0.6415848509395164,0.02229840494692326,0.999286413192749,0.03048647753894329,-5.007209300994873,46.77368927001953,23.43793869018555,1,10056.234360375,unknown,2,2016-03-02 02:28:42.798,null,0,0,0,0,null,10056.099381375,0,-0.1697083,97.42549,192.168.1.101,100.78.239.175,2,1,0.44,0
2016-03-02 02:28:42.962,23,234B9614-18C8-49ED-8B56-CAB6C4F40872,my_iOS_device_1,1456907321.999996,40.79925160393193,-96.68575792582396,371.4605,0,336.09375,3,10,-9999,1456907322.94824,-4.102066993713379,44.319580078125,22.1724853515625,15.8840913772583,12.60695552825928,25,10056.35991229167,0.0333099365234375,1.013626098632812,0.0275115966796875,10056.32937829167,-0.02764600896000356,0.03188416351875566,0.0006479470932162786,10056.32937829167,-3.009396332916613,2.498863610715913,-1.532719731421526,-0.006947324611246586,0.00162884034216404,0.006743348203599453,0.006129004992544651,0.01174167171120644,0.001159928273409605,XArbitraryCorrectedZVertical,-0.6675959317187846,-0.2637260751088882,0.2705241144159862,0.6415457370909989,0.02281691879034042,0.9992751479148865,0.03047154098749161,-4.972160339355469,46.78842926025391,23.41596412658691,1,10056.234360375,unknown,2,2016-03-02 02:28:42.798,null,0,0,0,0,null,10056.099381375,0,-0.1697083,97.42549,192.168.1.101,100.78.239.175,2,1,0.44,0
2016-03-02 02:28:42.994,24,234B9614-18C8-49ED-8B56-CAB6C4F40872,my_iOS_device_1,1456907321.999996,40.79925160393193,-96.68575792582396,371.4605,0,336.09375,3,10,-9999,1456907322.94824,-4.102066993713379,44.319580078125,22.1724853515625,15.8840913772583,12.60695552825928,25,10056.39021629167,0.0254364013671875,1.010650634765625,0.027496337890625,10056.36439729167,-0.02230796887104874,0.01912149662676893,-0.00139949115283664,10056.36439729167,-3.031717300734286,2.476187534912076,-1.532437365697315,-0.00160760642029345,-0.01113375369459391,0.004699275363236666,0.00963377021253109,0.01436171308159828,-0.002656722441315651,XArbitraryCorrectedZVertical,-0.6675629507529617,-0.2635220415646378,0.2709591407423071,0.6414803071332689,0.02367616631090641,0.9992643594741821,0.03016831912100315,-4.949062347412109,46.79324722290039,23.41123199462891,1,10056.234360375,unknown,2,2016-03-02 02:28:42.798,null,0,0,0,0,null,10056.099381375,0,-0.1697083,97.42549,192.168.1.101,100.78.239.175,2,1,0.44,0
2016-03-02 02:28:43.022,25,234B9614-18C8-49ED-8B56-CAB6C4F40872,my_iOS_device_1,1456907321.999996,40.79925160393193,-96.68575792582396,371.4605,0,336.09375,3,10,-9999,1456907323.006874,-3.893914222717285,43.97137451171875,22.502685546875,15.8812141418457,12.60407829284668,25,10056.42048929167,0.0258941650390625,1.014389038085938,0.0260009765625,10056.39941029167,-0.02230956676770279,0.01699469618023165,-0.001398425888400608,10056.36439729167,-3.031717300734286,2.476187534912076,-1.532437365697315,-0.00160760642029345,-0.01113375369459391,0.004699275363236666,0.00963377021253109,0.01436171308159828,-0.002656722441315651,XArbitraryCorrectedZVertical,-0.6675629507529617,-0.2635220415646378,0.2709591407423071,0.6414803071332689,0.02367616631090641,0.9992643594741821,0.03016831912100315,-4.949062347412109,46.79324722290039,23.41123199462891,1,10056.234360375,unknown,2,2016-03-02 02:28:42.798,null,0,0,0,0,null,10056.099381375,0,-0.1697083,97.42549,192.168.1.101,100.78.239.175,2,1,0.44,0
2016-03-02 02:28:43.076,26,234B9614-18C8-49ED-8B56-CAB6C4F40872,my_iOS_device_1,1456907322.999996,40.79925160393193,-96.68575792582396,371.8289,0,336.09375,3,10,-9999,1456907323.066965,-3.755143165588379,43.9017333984375,22.56866455078125,15.86404323577881,12.58690738677979,25,10056.45079329167,0.02520751953125,1.00860595703125,0.0296630859375,10056.43439929167,-0.01378558706668617,0.01699815828964875,-0.002340385965961634,10056.43439929167,-3.047660665576953,2.459348527930648,-1.532320900600198,0.006828565616160631,-0.01335169747471809,0.003773160744458437,0.001731545897200704,0.01314548309892416,-0.002405145205557346,XArbitraryCorrectedZVertical,-0.6674191772041078,-0.2635896341753917,0.27147711308897,0.6413831333332299,0.02425417117774487,0.999259889125824,0.02985570579767227,-4.894469261169434,46.80313491821289,23.40294647216797,1,10056.234360375,unknown,2,2016-03-02 02:28:42.798,null,0,0,0,0,null,10056.099381375,0,-0.1697083,97.42549,192.168.1.101,100.78.239.175,2,1,0.44,0
2016-03-02 02:28:43.083,27,234B9614-18C8-49ED-8B56-CAB6C4F40872,my_iOS_device_1,1456907322.999996,40.79925160393193,-96.68575792582396,371.8289,0,336.09375,3,10,-9999,1456907323.066965,-3.755143165588379,43.9017333984375,22.56866455078125,15.86404323577881,12.58690738677979,25,10056.48109829167,0.02325439453125,1.01324462890625,0.032867431640625,10056.46942729167,-0.02442811141486082,0.02869050073953264,-0.001435177511443702,10056.43439929167,-3.047660665576953,2.459348527930648,-1.532320900600198,0.006828565616160631,-0.01335169747471809,0.003773160744458437,0.001731545897200704,0.01314548309892416,-0.002405145205557346,XArbitraryCorrectedZVertical,-0.6674191772041078,-0.2635896341753917,0.27147711308897,0.6413831333332299,0.02425417117774487,0.999259889125824,0.02985570579767227,-4.894469261169434,46.80313491821289,23.40294647216797,1,10056.234360375,unknown,2,2016-03-02 02:28:42.798,null,0,0,0,0,null,10056.099381375,0,-0.1697083,97.42549,192.168.1.101,100.78.239.175,2,1,0.44,0
2016-03-02 02:28:43.114,28,234B9614-18C8-49ED-8B56-CAB6C4F40872,my_iOS_device_1,1456907322.999996,40.79925160393193,-96.68575792582396,371.8289,0,336.09375,3,10,-9999,1456907323.066965,-3.755143165588379,43.9017333984375,22.56866455078125,15.86404323577881,12.58690738677979,25,10056.51139329167,0.024169921875,1.011184692382812,0.0291748046875,10056.46942729167,-0.02442811141486082,0.02869050073953264,-0.001435177511443702,10056.46942729167,-3.051817331663823,2.454965309685272,-1.532266222493522,-0.003813827876001596,-0.001659186207689345,0.004678412806242704,0.000711786444298923,0.01169800292700529,-0.001776228309608996,XArbitraryCorrectedZVertical,-0.6673900390205335,-0.263602386754602,0.2716123313446586,0.6413509639619832,0.02441943995654583,0.9992578029632568,0.02979136444628239,-4.881554126739502,46.8057861328125,23.40033912658691,1,10056.234360375,unknown,2,2016-03-02 02:28:42.798,null,0,0,0,0,null,10056.099381375,0,-0.1697083,97.42549,192.168.1.101,100.78.239.175,2,1,0.44,0
2016-03-02 02:28:43.155,29,234B9614-18C8-49ED-8B56-CAB6C4F40872,my_iOS_device_1,1456907322.999996,40.79925160393193,-96.68575792582396,371.8289,0,336.09375,3,10,-9999,1456907323.126775,-3.893914222717285,44.38922119140625,22.56866455078125,15.85186290740967,12.57472705841064,25,10056.54169129167,0.024627685546875,1.010543823242188,0.028106689453125,10056.50444229167,-0.01804771007524898,0.02656849398295751,-0.001341434241072912,10056.50444229167,-3.052245277312111,2.454439801231295,-1.532134587810249,0.002566058421507478,-0.003780931234359741,0.00477186031639576,0.0009941651951521635,0.01260335091501474,0.0008815054316073656,XArbitraryCorrectedZVertical,-0.6674187100296832,-0.2636140591235903,0.2716638205979777,0.6412945204138309,0.02451853081583977,0.9992527365684509,0.0298802126199007,-4.863834381103516,46.81087493896484,23.39384460449219,1,10056.53703929167,stationary,1,2016-03-02 02:28:43.121,null,0,0,0,0,null,10056.099381375,0,-0.1697083,97.42549,192.168.1.101,100.78.239.175,2,1,0.44,0
2016-03-02 02:28:43.174,30,234B9614-18C8-49ED-8B56-CAB6C4F40872,my_iOS_device_1,1456907322.999996,40.79925160393193,-96.68575792582396,371.8289,0,336.09375,3,10,-9999,1456907323.126775,-3.893914222717285,44.38922119140625,22.56866455078125,15.85186290740967,12.57472705841064,25,10056.57198329167,0.029937744140625,1.01141357421875,0.02880859375,10056.53942529167,-0.02865268385205352,0.02974484621509501,-0.003628556985232962,10056.53942529167,-3.053357917552757,2.453235972995631,-1.532092603638839,-0.008128803223371506,-0.0006855650572106242,0.002499473746865988,-0.0001670718338573352,0.01274230424314737,-0.0004793888074345887,XArbitraryCorrectedZVertical,-0.6674157481552272,-0.2636242719843302,0.2717130592661567,0.641272544055454,0.02458113431930542,0.999251127243042,0.02988307550549507,-4.852299690246582,46.81085205078125,23.39628601074219,1,10056.53703929167,stationary,1,2016-03-02 02:28:43.121,null,0,0,0,0,null,10056.099381375,0,-0.1697083,97.42549,192.168.1.101,100.78.239.175,2,1,0.44,0
2016-03-02 02:28:43.204,31,234B9614-18C8-49ED-8B56-CAB6C4F40872,my_iOS_device_1,1456907322.999996,40.79925160393193,-96.68575792582396,371.8289,0,336.09375,3,10,-9999,1456907323.18289,-4.206151008605957,45.39901733398438,23.13006591796875,15.84829998016357,12.57116413116455,25,10056.60225629167,0.0242767333984375,1.012481689453125,0.0333404541015625,10056.57446029167,-0.03184368347018646,0.02974244937011394,-0.003674895988200341,10056.57446029167,-3.056881163522896,2.449629011602323,-1.531825917016121,-0.01131901238113642,-0.0006877771811559796,0.002454063855111599,0.005078951828181744,0.01217282470315695,-0.001190816634334624,XArbitraryCorrectedZVertical,-0.6674783055026876,-0.2635762069188285,0.2718145160796065,0.6411841885745084,0.02485879324376583,0.9992407560348511,0.02999941073358059,-4.849410057067871,46.80939865112305,23.3997974395752,1,10056.53703929167,stationary,1,2016-03-02 02:28:43.121,null,0,0,0,0,null,10056.099381375,0,-0.1697083,97.42549,192.168.1.101,100.78.239.175,2,1,0.44,0
2016-03-02 02:28:43.235,32,234B9614-18C8-49ED-8B56-CAB6C4F40872,my_iOS_device_1,1456907322.999996,40.79925160393193,-96.68575792582396,371.8289,0,336.09375,3,10,-9999,1456907323.18289,-4.206151008605957,45.39901733398438,23.13006591796875,15.84829998016357,12.57116413116455,25,10056.63255629167,0.0228118896484375,1.010299682617188,0.025726318359375,10056.60945329167,-0.03286101100659673,0.03292306265999558,-0.006888532475598958,10056.60945329167,-3.050727786673924,2.455732202988795,-1.53146919322144,-0.01233683805912733,0.002493024570867419,-0.0007593209738843143,-0.0006242591189220548,0.01325490139424801,0.002914037555456161,XArbitraryCorrectedZVertical,-0.6676148573472772,-0.2636353741684931,0.2717863170046727,0.6410296324080865,0.02490099333226681,0.9992268085479736,0.03042641654610634,-4.832879066467285,46.80447769165039,23.41305160522461,1,10056.53703929167,stationary,1,2016-03-02 02:28:43.121,null,0,0,0,0,null,10056.099381375,0,-0.1697083,97.42549,192.168.1.101,100.78.239.175,2,1,0.44,0
2016-03-02 02:28:43.265,33,234B9614-18C8-49ED-8B56-CAB6C4F40872,my_iOS_device_1,1456907322.999996,40.79925160393193,-96.68575792582396,371.8289,0,336.09375,3,10,-9999,1456907323.241677,-4.310227394104004,45.22492980957031,22.7008056640625,15.85845470428467,12.58131885528564,25,10056.66286729167,0.0275115966796875,1.013702392578125,0.0289764404296875,10056.64445829167,-0.03185433611454678,0.03506237996365623,-0.002612028397149717,10056.60945329167,-3.050727786673924,2.455732202988795,-1.53146919322144,-0.01233683805912733,0.002493024570867419,-0.0007593209738843143,-0.0006242591189220548,0.01325490139424801,0.002914037555456161,XArbitraryCorrectedZVertical,-0.6676148573472772,-0.2636353741684931,0.2717863170046727,0.6410296324080865,0.02490099333226681,0.9992268085479736,0.03042641654610634,-4.832879066467285,46.80447769165039,23.41305160522461,1,10056.53703929167,stationary,1,2016-03-02 02:28:43.121,null,0,0,0,0,null,10056.099381375,0,-0.1697083,97.42549,192.168.1.101,100.78.239.175,2,1,0.44,0
2016-03-02 02:28:43.313,34,234B9614-18C8-49ED-8B56-CAB6C4F40872,my_iOS_device_1,1456907322.999996,40.79925160393193,-96.68575792582396,371.8289,0,336.09375,3,10,-9999,1456907323.300141,-4.726534843444824,45.0159912109375,22.83282470703125,15.8825626373291,12.60542678833008,25,10056.69316329167,0.0252532958984375,1.01239013671875,0.032257080078125,10056.67948029167,-0.02329946374488524,0.03718678356521243,-0.005686115243428182,10056.64445829167,-3.044806457483947,2.461795053620087,-1.531197697404548,-0.01132982783019543,0.004632580559700727,0.003516708267852664,0.001099113491363823,0.01396751683205366,-0.002803186187520623,XArbitraryCorrectedZVertical,-0.6677481488904875,-0.263640498218051,0.2716871569234338,0.6409307186549295,0.024886604398489,0.9992160797119141,0.03078780509531498,-4.832437992095947,46.79923248291016,23.42362785339355,1,10056.53703929167,stationary,1,2016-03-02 02:28:43.121,null,0,0,0,0,null,10056.099381375,0,-0.1697083,97.42549,192.168.1.101,100.78.239.175,2,1,0.44,0
2016-03-02 02:28:43.326,35,234B9614-18C8-49ED-8B56-CAB6C4F40872,my_iOS_device_1,1456907322.999996,40.79925160393193,-96.68575792582396,371.8289,0,336.09375,3,10,-9999,1456907323.300141,-4.726534843444824,45.0159912109375,22.83282470703125,15.8825626373291,12.60542678833008,25,10056.72345929167,0.0285491943359375,1.010986328125,0.023406982421875,10056.67948029167,-0.02329946374488524,0.03718678356521243,-0.005686115243428182,10056.67948029167,-3.043936541476739,2.462784375744251,-1.530934138138911,-0.002774459542706609,0.006757133640348911,0.0004429792170412838,0.0003233663155697286,0.01390169188380241,-0.001903613563627005,XArbitraryCorrectedZVertical,-0.6678554075904902,-0.2635865058769689,0.2716616148051054,0.640851991892973,0.02502148225903511,0.9992055892944336,0.03101738356053829,-4.836796760559082,46.78933334350586,23.44250297546387,1,10056.53703929167,stationary,1,2016-03-02 02:28:43.121,null,0,0,0,0,null,10056.099381375,0,-0.1697083,97.42549,192.168.1.101,100.78.239.175,2,1,0.44,0
2016-03-02 02:28:43.355,36,234B9614-18C8-49ED-8B56-CAB6C4F40872,my_iOS_device_1,1456907322.999996,40.79925160393193,-96.68575792582396,371.8289,0,336.09375,3,10,-9999,1456907323.300141,-4.726534843444824,45.0159912109375,22.83282470703125,15.8825626373291,12.60542678833008,25,10056.75373129167,0.025543212890625,1.00762939453125,0.030975341796875,10056.74949829167,-0.0232408742009035,0.03717506565641609,-0.009948238251990994,10056.71450529167,-3.043102054130899,2.463902528793205,-1.530831016919621,-0.002878495026379824,0.01408061850816011,0.001520911580882967,0.002032960997894406,0.01389054767787457,-0.005460327956825495,XArbitraryCorrectedZVertical,-0.6679315546403505,-0.2634961934893134,0.2715657534613428,0.6408504005455079,0.02505138888955116,0.9992014765739441,0.03112561069428921,-4.837295532226562,46.78100204467773,23.45901679992676,1,10056.53703929167,stationary,1,2016-03-02 02:28:43.121,null,0,0,0,0,null,10056.099381375,0,-0.1697083,97.42549,192.168.1.101,100.78.239.175,2,1,0.44,0
2016-03-02 02:28:43.393,37,234B9614-18C8-49ED-8B56-CAB6C4F40872,my_iOS_device_1,1456907322.999996,40.79925160393193,-96.68575792582396,371.8289,0,336.09375,3,10,-9999,1456907323.359193,-3.963299751281738,44.38922119140625,22.9649658203125,15.88198375701904,12.60484790802002,25,10056.78404829167,0.0245819091796875,1.012344360351562,0.03314208984375,10056.74949829167,-0.0232408742009035,0.03717506565641609,-0.009948238251990994,10056.74949829167,-3.046511827754109,2.460818554852104,-1.530955116003378,-0.002809372497722507,0.0066222851164639,-0.003802534658461809,0.002335569588467479,0.01016245223581791,-0.003226627130061388,XArbitraryCorrectedZVertical,-0.667920765901024,-0.2633586411181009,0.2714907605871359,0.640949954007669,0.02506921626627445,0.9992064237594604,0.0309518463909626,-4.836825370788574,46.78554916381836,23.45004272460938,1,10056.53703929167,stationary,1,2016-03-02 02:28:43.121,null,0,0,0,0,null,10056.099381375,0,-0.1697083,97.42549,192.168.1.101,100.78.239.175,2,1,0.44,0
2016-03-02 02:28:43.417,38,234B9614-18C8-49ED-8B56-CAB6C4F40872,my_iOS_device_1,1456907322.999996,40.79925160393193,-96.68575792582396,371.8289,0,336.09375,3,10,-9999,1456907323.359193,-3.963299751281738,44.38922119140625,22.9649658203125,15.88198375701904,12.60484790802002,25,10056.81434329167,0.0274200439453125,1.010330200195312,0.028106689453125,10056.78452429167,-0.0275093887960825,0.03823819956357572,-0.008945025469358145,10056.78452429167,-3.040267096044309,2.467307960826494,-1.530803264593947,-0.007078511174768209,0.00768567668274045,-0.002799351466819644,-0.0003806521417573094,0.01314397621899843,0.001909686834551394,XArbitraryCorrectedZVertical,-0.6680295897110076,-0.2633489486831326,0.2713395151715096,0.6409045685626835,0.02496256120502949,0.9992004036903381,0.03123240359127522,-4.847885608673096,46.78436279296875,23.45011901855469,1,10056.53703929167,stationary,1,2016-03-02 02:28:43.121,null,0,0,0,0,null,10056.099381375,0,-0.1697083,97.42549,192.168.1.101,100.78.239.175,2,1,0.44,0
2016-03-02 02:28:43.451,39,234B9614-18C8-49ED-8B56-CAB6C4F40872,my_iOS_device_1,1456907322.999996,40.79925160393193,-96.68575792582396,371.8289,0,336.09375,3,10,-9999,1456907323.417915,-3.616375923156738,44.11067199707031,22.9649658203125,15.85426425933838,12.57712841033936,25,10056.84463829167,0.0281829833984375,1.01495361328125,0.0328521728515625,10056.81953729167,-0.03285861416161566,0.03611326332980149,-0.006890130372253005,10056.78452429167,-3.040267096044309,2.467307960826494,-1.530803264593947,-0.007078511174768209,0.00768567668274045,-0.002799351466819644,-0.0003806521417573094,0.01314397621899843,0.001909686834551394,XArbitraryCorrectedZVertical,-0.6680295897110076,-0.2633489486831326,0.2713395151715096,0.6409045685626835,0.02496256120502949,0.9992004036903381,0.03123240359127522,-4.847885608673096,46.78436279296875,23.45011901855469,1,10056.53703929167,stationary,1,2016-03-02 02:28:43.121,null,0,0,0,0,null,10056.099381375,0,-0.1697083,97.42549,192.168.1.101,100.78.239.175,2,1,0.44,0
2016-03-02 02:28:43.483,40,234B9614-18C8-49ED-8B56-CAB6C4F40872,my_iOS_device_1,1456907322.999996,40.79925160393193,-96.68575792582396,371.8289,0,336.09375,3,10,-9999,1456907323.478691,-3.928608894348145,44.00619506835938,22.6016845703125,15.83039283752441,12.55325698852539,25,10056.87492129167,0.023590087890625,1.012237548828125,0.0350341796875,10056.85451429167,-0.0264643643843354,0.03292492687275863,-0.007861385221804903,10056.81953729167,-3.037669292994916,2.470145193121617,-1.530584089070618,-0.0124271409586072,0.005560886580497026,-0.0007439136388711631,0.002409952692687511,0.01113860309123993,-0.003367871744558215,XArbitraryCorrectedZVertical,-0.6681453352020985,-0.2632851906707085,0.2712453960682705,0.6408499469711525,0.02501009032130241,0.9991915822029114,0.03147456049919128,-4.857230663299561,46.77688217163086,23.46311378479004,1,10056.53703929167,stationary,1,2016-03-02 02:28:43.121,null,0,0,0,0,null,10056.099381375,0,-0.1697083,97.42549,192.168.1.101,100.78.239.175,2,1,0.44,0
2016-03-02 02:28:43.518,41,234B9614-18C8-49ED-8B56-CAB6C4F40872,my_iOS_device_1,1456907322.999996,40.79925160393193,-96.68575792582396,371.8289,0,336.09375,3,10,-9999,1456907323.478691,-3.928608894348145,44.00619506835938,22.6016845703125,15.83039283752441,12.55325698852539,25,10056.90520029167,0.020477294921875,1.007339477539062,0.0349273681640625,10056.88955529167,-0.02119316963874157,0.02868410915291645,-0.004585430764898433,10056.88955529167,-3.029936149988918,2.477918648374442,-1.529980400450068,-0.0008455895585939288,-0.001994005171582103,0.001573704765178263,-0.002522722817957401,0.01329928450286388,0.003470834577456117,XArbitraryCorrectedZVertical,-0.6683824836728026,-0.263318144194662,0.2711827895168525,0.6406155673468378,0.02513624727725983,0.9991671442985535,0.03214317932724953,-4.851037502288818,46.76445388793945,23.4891471862793,1,10056.53703929167,stationary,1,2016-03-02 02:28:43.121,null,0,0,0,0,null,10056.099381375,0,-0.1697083,97.42549,192.168.1.101,100.78.239.175,2,1,0.44,0
2016-03-02 02:28:43.553,42,234B9614-18C8-49ED-8B56-CAB6C4F40872,my_iOS_device_1,1456907322.999996,40.79925160393193,-96.68575792582396,371.8289,0,336.09375,3,10,-9999,1456907323.535528,-4.587765693664551,44.11067199707031,22.7008056640625,15.85078048706055,12.57364463806152,25,10056.93551929167,0.0232391357421875,1.012313842773438,0.03314208984375,10056.92456829167,-0.03182024765259376,0.04143692234886989,-0.004746285694739219,10056.88955529167,-3.029936149988918,2.477918648374442,-1.529980400450068,-0.0008455895585939288,-0.001994005171582103,0.001573704765178263,-0.002522722817957401,0.01329928450286388,0.003470834577456117,XArbitraryCorrectedZVertical,-0.6683824836728026,-0.263318144194662,0.2711827895168525,0.6406155673468378,0.02513624727725983,0.9991671442985535,0.03214317932724953,-4.851037502288818,46.76445388793945,23.4891471862793,1,10056.53703929167,stationary,1,2016-03-02 02:28:43.121,null,0,0,0,0,null,10056.099381375,0,-0.1697083,97.42549,192.168.1.101,100.78.239.175,2,1,0.44,0
2016-03-02 02:28:43.577,43,234B9614-18C8-49ED-8B56-CAB6C4F40872,my_iOS_device_1,1456907322.999996,40.79925160393193,-96.68575792582396,371.8289,0,336.09375,3,10,-9999,1456907323.535528,-4.587765693664551,44.11067199707031,22.7008056640625,15.85078048706055,12.57364463806152,25,10056.96582029167,0.025634765625,1.017349243164062,0.0377197265625,10056.95957529167,-0.02435913554262777,0.04250298573322861,-0.00570422473884072,10056.92456829167,-3.019949077166884,2.488145495059327,-1.529794599339047,-0.0114734536036849,0.01075904350727797,0.001411638222634792,-0.003892463631927967,0.009476928040385246,0.001587951555848122,XArbitraryCorrectedZVertical,-0.6685156776505127,-0.2633624281100855,0.2709805544858443,0.6405439557797555,0.02491907589137554,0.999159574508667,0.03254596143960953,-4.85736083984375,46.75590515136719,23.50485801696777,1,10056.53703929167,stationary,1,2016-03-02 02:28:43.121,null,0,0,0,0,null,10056.099381375,0,-0.1697083,97.42549,192.168.1.101,100.78.239.175,2,1,0.44,0
2016-03-02 02:28:43.598,44,234B9614-18C8-49ED-8B56-CAB6C4F40872,my_iOS_device_1,1456907322.999996,40.79925160393193,-96.68575792582396,371.8289,0,336.09375,3,10,-9999,1456907323.594341,-4.51838207244873,44.59817504882812,22.83282470703125,15.87409496307373,12.59695911407471,25,10056.99611429167,0.0225830078125,1.01495361328125,0.0347137451171875,10056.99457429167,-0.02112499271483554,0.04143319392334378,-0.008853945360077435,10056.95957529167,-3.013054347934796,2.495396866012394,-1.529516979109566,-0.004013292491436005,0.01182539109140635,0.000453042914159596,0.0005869537126272917,0.01568341441452503,0.005016608629375696,XArbitraryCorrectedZVertical,-0.6686828958524329,-0.2633188451048537,0.2707891710677236,0.6404682626325077,0.02484944835305214,0.9991481304168701,0.03294725716114044,-4.868563652038574,46.74929428100586,23.51568984985352,1,10056.53703929167,stationary,1,2016-03-02 02:28:43.121,null,0,0,0,0,null,10056.099381375,0,-0.1697083,97.42549,192.168.1.101,100.78.239.175,2,1,0.44,0
2016-03-02 02:28:43.637,45,234B9614-18C8-49ED-8B56-CAB6C4F40872,my_iOS_device_1,1456907322.999996,40.79925160393193,-96.68575792582396,371.8289,0,336.09375,3,10,-9999,1456907323.628453,-4.657151222229004,44.319580078125,23.1630859375,15.8849630355835,12.60782718658447,25,10057.02640529167,0.023468017578125,1.01275634765625,0.029296875,10057.02960029167,-0.01476989140557946,0.04463404723751001,-0.006631803746515319,10056.99457429167,-3.007093084042435,2.501847146631925,-1.529419451106048,-0.0007800630992278457,0.01075582019984722,-0.002697136485949159,-0.002905036089941859,0.01776263862848282,0.001955958316102624,XArbitraryCorrectedZVertical,-0.6688038010439966,-0.2632375205117852,0.2705498433367717,0.6404765926826328,0.02469458617269993,0.9991440773010254,0.03318503126502037,-4.881579399108887,46.73914337158203,23.53316688537598,1,10056.53703929167,stationary,1,2016-03-02 02:28:43.121,null,0,0,0,0,null,10056.099381375,0,-0.1697083,97.42549,192.168.1.101,100.78.239.175,2,1,0.44,0
2016-03-02 02:28:43.659,46,234B9614-18C8-49ED-8B56-CAB6C4F40872,my_iOS_device_1,1456907322.999996,40.79925160393193,-96.68575792582396,371.8289,0,336.09375,3,10,-9999,1456907323.628453,-4.657151222229004,44.319580078125,23.1630859375,15.8849630355835,12.60782718658447,25,10057.05670629167,0.025390625,1.011016845703125,0.039642333984375,10057.02960029167,-0.01476989140557946,0.04463404723751001,-0.006631803746515319,10057.02960029167,-3.006517956532144,2.502783611680734,-1.529641966936168,0.005507282912731171,0.01389009226113558,-0.0004684290324803442,-0.0010629219468683,0.01360306888818741,-0.003732783952727914,XArbitraryCorrectedZVertical,-0.6687800992371523,-0.2631501631398507,0.2704018708958055,0.6405997180141899,0.02453093975782394,0.9991532564163208,0.03302966058254242,-4.891003131866455,46.73505783081055,23.53931999206543,1,10056.53703929167,stationary,1,2016-03-02 02:28:43.121,null,0,0,0,0,null,10056.099381375,0,-0.1697083,97.42549,192.168.1.101,100.78.239.175,2,1,0.44,0
2016-03-02 02:28:43.714,47,234B9614-18C8-49ED-8B56-CAB6C4F40872,my_iOS_device_1,1456907322.999996,40.79925160393193,-96.68575792582396,371.8289,0,336.09375,3,10,-9999,1456907323.688996,-4.34492015838623,44.63296508789062,23.460205078125,15.89209365844727,12.61495780944824,25,10057.08700129167,0.0197601318359375,1.012741088867188,0.0328216552734375,10057.06461029167,-0.01263936253351606,0.04888924602723863,-0.006603041606742463,10057.06461029167,-3.010332745121382,2.499533220375495,-1.529893764034888,0.007637607865035534,0.01814547739923,-0.000439730123616755,0.0009031167719513178,0.01185323856770992,0.006894070189446211,XArbitraryCorrectedZVertical,-0.6687580338847194,-0.2629388219318806,0.270245062909178,0.6407756815055724,0.02448750846087933,0.9991636276245117,0.0327482633292675,-4.921513557434082,46.7415657043457,23.52002716064453,1,10056.53703929167,stationary,1,2016-03-02 02:28:43.121,null,0,0,0,0,null,10056.099381375,0,-0.1697083,97.42549,192.168.1.101,100.78.239.175,2,1,0.44,0
2016-03-02 02:28:43.719,48,234B9614-18C8-49ED-8B56-CAB6C4F40872,my_iOS_device_1,1456907322.999996,40.79925160393193,-96.68575792582396,371.8289,0,336.09375,3,10,-9999,1456907323.688996,-4.34492015838623,44.63296508789062,23.460205078125,15.89209365844727,12.61495780944824,25,10057.11729829167,0.0231781005859375,1.010467529296875,0.02825927734375,10057.09961729167,-0.0168484886363863,0.05100406224887055,-0.009862484464890443,10057.09961729167,-3.005372551279499,2.505249915285791,-1.530137681107326,0.003427835181355476,0.02026059105992317,-0.003700354835018516,-0.003158974461257458,0.01314029190689325,-0.002021536463871598,XArbitraryCorrectedZVertical,-0.6687962187332209,-0.2627878784366296,0.2699019613064228,0.6409423375295658,0.02415506727993488,0.9991735219955444,0.03269170224666595,-4.942862510681152,46.74263000488281,23.51343536376953,1,10056.53703929167,stationary,1,2016-03-02 02:28:43.121,null,0,0,0,0,null,10056.099381375,0,-0.1697083,97.42549,192.168.1.101,100.78.239.175,2,1,0.44,0
2016-03-02 02:28:43.750,49,234B9614-18C8-49ED-8B56-CAB6C4F40872,my_iOS_device_1,1456907322.999996,40.79925160393193,-96.68575792582396,371.8289,0,336.09375,3,10,-9999,1456907323.742791,-4.032687187194824,44.66777038574219,23.55926513671875,15.88484668731689,12.60771083831787,25,10057.14759229167,0.025665283203125,1.010025024414062,0.0321197509765625,10057.13462229167,-0.01795689628207728,0.04994865150887214,-0.006680805910572777,10057.09961729167,-3.005372551279499,2.505249915285791,-1.530137681107326,0.003427835181355476,0.02026059105992317,-0.003700354835018516,-0.003158974461257458,0.01314029190689325,-0.002021536463871598,XArbitraryCorrectedZVertical,-0.6687962187332209,-0.2627878784366296,0.2699019613064228,0.6409423375295658,0.02415506727993488,0.9991735219955444,0.03269170224666595,-4.942862510681152,46.74263000488281,23.51343536376953,1,10056.53703929167,stationary,1,2016-03-02 02:28:43.121,null,0,0,0,0,null,10056.099381375,0,-0.1697083,97.42549,192.168.1.101,100.78.239.175,2,1,0.44,0
2016-03-02 02:28:43.794,50,234B9614-18C8-49ED-8B56-CAB6C4F40872,my_iOS_device_1,1456907322.999996,40.79925160393193,-96.68575792582396,371.8289,0,336.09375,3,10,-9999,1456907323.742791,-4.032687187194824,44.66777038574219,23.55926513671875,15.88484668731689,12.60771083831787,25,10057.17788629167,0.025848388671875,1.015869140625,0.038177490234375,10057.16961529167,-0.01794384679273589,0.04781892158513578,-0.007745271398277448,10057.13462229167,-3.00894981706716,2.50234957416303,-1.530579665584965,0.002320480765774846,0.01920534484088421,-0.0005190007505007088,0.001495861331932247,0.01190172042697668,-0.004984368570148945,XArbitraryCorrectedZVertical,-0.6687264143811101,-0.2625614680249755,0.2696874225635971,0.6411982160990105,0.02398631721735001,0.9991914033889771,0.03226708248257637,-4.964015483856201,46.7445182800293,23.50522422790527,1,10056.53703929167,stationary,1,2016-03-02 02:28:43.121,null,0,0,0,0,null,10056.099381375,0,-0.1697083,97.42549,192.168.1.101,100.78.239.175,2,1,0.44,0
2016-03-02 02:28:43.810,51,234B9614-18C8-49ED-8B56-CAB6C4F40872,my_iOS_device_1,1456907322.999996,40.79925160393193,-96.68575792582396,371.8289,0,336.09375,3,10,-9999,1456907323.803447,-4.032687187194824,45.08560180664062,23.42718505859375,15.86758136749268,12.59044551849365,25,10057.20817329167,0.02459716796875,1.015457153320312,0.0298614501953125,10057.20462829167,-0.01156744019475917,0.04037991371221744,-0.00764886496681658,10057.16961529167,-3.009463486617302,2.502461339486857,-1.530514767494527,0.002333342097699642,0.01707584038376808,-0.001582736615091562,0.003429171396419406,0.0144067732617259,0.004436612594872713,XArbitraryCorrectedZVertical,-0.6688306671552313,-0.262347944048173,0.2694909368992837,0.6412594871466055,0.02402139082551003,0.9991887807846069,0.03232181072235107,-4.988081932067871,46.7545280456543,23.48020935058594,1,10056.53703929167,stationary,1,2016-03-02 02:28:43.121,null,0,0,0,0,null,10056.099381375,0,-0.1697083,97.42549,192.168.1.101,100.78.239.175,2,1,0.44,0
2016-03-02 02:28:43.840,52,234B9614-18C8-49ED-8B56-CAB6C4F40872,my_iOS_device_1,1456907322.999996,40.79925160393193,-96.68575792582396,371.8289,0,336.09375,3,10,-9999,1456907323.803447,-4.032687187194824,45.08560180664062,23.42718505859375,15.86758136749268,12.59044551849365,25,10057.23846329167,0.0247344970703125,1.007461547851562,0.0350341796875,10057.20462829167,-0.01156744019475917,0.04037991371221744,-0.00764886496681658,10057.20462829167,-3.008049643519374,2.50431900331886,-1.530501194409527,0.008645382709801197,0.009514192119240761,-0.001483548432588577,0.0002310642739757895,0.0166351031512022,0.004594767931848764,XArbitraryCorrectedZVertical,-0.6689000418392022,-0.2622238987913559,0.2693241737990998,0.6413079216239281,0.0239693745970726,0.999188244342804,0.03237727656960487,-4.994991302490234,46.7540283203125,23.4797306060791,1,10056.53703929167,stationary,1,2016-03-02 02:28:43.121,null,0,0,0,0,null,10056.099381375,0,-0.1697083,97.42549,192.168.1.101,100.78.239.175,2,1,0.44,0
2016-03-02 02:28:43.877,53,234B9614-18C8-49ED-8B56-CAB6C4F40872,my_iOS_device_1,1456907322.999996,40.79925160393193,-96.68575792582396,371.8289,0,336.09375,3,10,-9999,1456907323.8708,-4.102070808410645,44.94633483886719,23.096923828125,15.86225509643555,12.58511924743652,25,10057.26878129167,0.022857666015625,1.009796142578125,0.0325164794921875,10057.23966329167,-0.01685647811965654,0.04037006001618415,-0.009857158142710284,10057.23966329167,-3.010721646776936,2.501936256679275,-1.530796269509704,0.003356691217049956,0.009504567831754684,-0.003691744059324265,0.000864037370774895,0.008261443115770817,0.002950654597952962,XArbitraryCorrectedZVertical,-0.6688304505121362,-0.2621213287926031,0.2692388189829988,0.6414582572641557,0.02387045882642269,0.9992001056671143,0.03208352625370026,-5.013928413391113,46.75771713256836,23.46834373474121,1,10056.53703929167,stationary,1,2016-03-02 02:28:43.121,null,0,0,0,0,null,10056.099381375,0,-0.1697083,97.42549,192.168.1.101,100.78.239.175,2,1,0.44,0
2016-03-02 02:28:43.901,54,234B9614-18C8-49ED-8B56-CAB6C4F40872,my_iOS_device_1,1456907322.999996,40.79925160393193,-96.68575792582396,371.8289,0,336.09375,3,10,-9999,1456907323.8708,-4.102070808410645,44.94633483886719,23.096923828125,15.86225509643555,12.58511924743652,25,10057.29907829167,0.0239105224609375,1.014022827148438,0.03216552734375,10057.27467329167,-0.01793559099335664,0.03930879032178757,-0.008806541092674024,10057.27467329167,-3.008887297107588,2.504044653225574,-1.530889844662456,0.002277160994708538,0.008443493396043777,-0.002641167957335711,-0.0008894418715499341,0.01059230044484138,0.0004578303778544068,XArbitraryCorrectedZVertical,-0.6688424212141227,-0.2620670527463344,0.2691140463160997,0.6415203079596554,0.02374710701406002,0.9992038607597351,0.03205864876508713,-5.025891304016113,46.75812530517578,23.46497344970703,1,10056.53703929167,stationary,1,2016-03-02 02:28:43.121,null,0,0,0,0,null,10056.099381375,0,-0.1697083,97.42549,192.168.1.101,100.78.239.175,2,1,0.44,0
2016-03-02 02:28:43.952,55,234B9614-18C8-49ED-8B56-CAB6C4F40872,my_iOS_device_1,1456907322.999996,40.79925160393193,-96.68575792582396,371.8289,0,336.09375,3,10,-9999,1456907323.917629,-4.414303779602051,44.35435485839844,22.40350341796875,15.88008594512939,12.60295009613037,25,10057.32937229167,0.0222930908203125,1.011322021484375,0.037933349609375,10057.30968129167,-0.0157829578842456,0.03398752814770024,-0.01090404676722043,10057.30968129167,-3.005772773516523,2.507357728047364,-1.531057726253094,0.004429791122674942,0.003122486872598529,-0.004739074967801571,0.00105580419767648,0.01464445516467094,0.002452322281897068,XArbitraryCorrectedZVertical,-0.6688236230158838,-0.2620610099743485,0.2689908871041038,0.6415940235086929,0.02354136295616627,0.99921053647995,0.03200202435255051,-5.034495830535889,46.75846862792969,23.46245384216309,1,10056.53703929167,stationary,1,2016-03-02 02:28:43.121,null,0,0,0,0,null,10056.099381375,0,-0.1697083,97.42549,192.168.1.101,100.78.239.175,2,1,0.44,0
2016-03-02 02:28:43.962,56,234B9614-18C8-49ED-8B56-CAB6C4F40872,my_iOS_device_1,1456907322.999996,40.79925160393193,-96.68575792582396,371.8289,0,336.09375,3,10,-9999,1456907323.917629,-4.414303779602051,44.35435485839844,22.40350341796875,15.88008594512939,12.60295009613037,25,10057.35968129167,0.0224609375,1.007766723632812,0.0316925048828125,10057.34469529167,-0.01574966837061961,0.03929867030964527,-0.01303777143259192,10057.30968129167,-3.005772773516523,2.507357728047364,-1.531057726253094,0.004429791122674942,0.003122486872598529,-0.004739074967801571,0.00105580419767648,0.01464445516467094,0.002452322281897068,XArbitraryCorrectedZVertical,-0.6688236230158838,-0.2620610099743485,0.2689908871041038,0.6415940235086929,0.02354136295616627,0.99921053647995,0.03200202435255051,-5.034495830535889,46.75846862792969,23.46245384216309,1,10056.53703929167,stationary,1,2016-03-02 02:28:43.121,null,0,0,0,0,null,10056.099381375,0,-0.1697083,97.42549,192.168.1.101,100.78.239.175,2,1,0.44,0
2016-03-02 02:28:43.992,57,234B9614-18C8-49ED-8B56-CAB6C4F40872,my_iOS_device_1,1456907322.999996,40.79925160393193,-96.68575792582396,371.8289,0,336.09375,3,10,-9999,1456907323.976406,-4.51838207244873,43.90168762207031,22.4365234375,15.89830303192139,12.62116718292236,25,10057.38998129167,0.023529052734375,1.012542724609375,0.032440185546875,10057.37970429167,-0.02642787907740132,0.04248966992777822,-0.009997240416048452,10057.34469529167,-2.996759983325241,2.516698446329215,-1.531122287023301,0.004414559807628393,0.008328614756464958,-0.006874606478959322,-0.003580877557396889,0.0148707740008831,0.005948256701231003,XArbitraryCorrectedZVertical,-0.6688766271665487,-0.2620842549865247,0.2687531138171905,0.6416289151308713,0.02320368029177189,0.9992130994796753,0.032168198376894,-5.043014049530029,46.75924301147461,23.45907974243164,1,10056.53703929167,stationary,1,2016-03-02 02:28:43.121,null,0,0,0,0,null,10056.099381375,0,-0.1697083,97.42549,192.168.1.101,100.78.239.175,2,1,0.44,0
2016-03-02 02:28:44.034,58,234B9614-18C8-49ED-8B56-CAB6C4F40872,my_iOS_device_1,1456907322.999996,40.79925160393193,-96.68575792582396,371.8289,0,336.09375,3,10,-9999,1456907323.976406,-4.51838207244873,43.90168762207031,22.4365234375,15.89830303192139,12.62116718292236,25,10057.42027929167,0.02130126953125,1.010116577148438,0.0347747802734375,10057.41471329167,-0.02535116304868228,0.04036073895236887,-0.01104625956943067,10057.37970429167,-2.993979954022837,2.519812929573614,-1.531273067694238,-0.006264017429202795,0.01151984743773937,-0.003834347007796168,0.001764651155099273,0.01324737258255482,-0.0001964578405022621,XArbitraryCorrectedZVertical,-0.6688799420229298,-0.2620277569985297,0.2685912446575915,0.6417163088273525,0.02301562204957008,0.9992190599441528,0.03211784362792969,-5.067119121551514,46.75355911254883,23.4652156829834,1,10056.53703929167,stationary,1,2016-03-02 02:28:43.121,null,0,0,0,0,null,10057.41158129167,0,-0.1697083,97.42549,192.168.1.101,100.78.239.175,2,1,0.44,0
