loggingTime,loggingSample,identifierForVendor,deviceID,locationTimestamp_since1970,locationLatitude,locationLongitude,locationAltitude,locationSpeed,locationCourse,locationVerticalAccuracy,locationHorizontalAccuracy,locationFloor,locationHeadingTimestamp_since1970,locationHeadingX,locationHeadingY,locationHeadingZ,locationTrueHeading,locationMagneticHeading,locationHeadingAccuracy,accelerometerTimestamp_sinceReboot,accelerometerAccelerationX,accelerometerAccelerationY,accelerometerAccelerationZ,gyroTimestamp_sinceReboot,gyroRotationX,gyroRotationY,gyroRotationZ,motionTimestamp_sinceReboot,motionYaw,motionRoll,motionPitch,motionRotationRateX,motionRotationRateY,motionRotationRateZ,motionUserAccelerationX,motionUserAccelerationY,motionUserAccelerationZ,motionAttitudeReferenceFrame,motionQuaternionX,motionQuaternionY,motionQuaternionZ,motionQuaternionW,motionGravityX,motionGravityY,motionGravityZ,motionMagneticFieldX,motionMagneticFieldY,motionMagneticFieldZ,motionMagneticFieldCalibrationAccuracy,activityTimestamp_sinceReboot,activity,activityActivityConfidence,activityActivityStartDate,pedometerStartDate,pedometerNumberofSteps,pedometerDistance,pedometerFloorAscended,pedometerFloorDescended,pedometerEndDate,altimeterTimestamp_sinceReboot,altimeterReset,altimeterRelativeAltitude,altimeterPressure,IP_en0,IP_pdp_ip0,deviceOrientation,batteryState,batteryLevel,state
2016-03-02 02:29:22.797,1,234B9614-18C8-49ED-8B56-CAB6C4F40872,my_iOS_device_1,1456907361.999997,40.79925160393193,-96.68575792582396,371.0539,0,-1,3,10,-9999,1456907362.737887,-0.8028974533081055,43.57267761230469,20.1046142578125,10.23565101623535,6.95851469039917,25,10096.199700125,0.05108642578125,1.020126342773438,0.0315399169921875,10096.171242125,-0.1700516240331566,0.06259520457733142,-0.008896023305300687,10096.171242125,3.014059141761351,2.051754751320537,-1.521022999638379,-0.148913785815239,0.03182718530297279,-0.002514770021662116,0.006108252797275782,0.01663455367088318,-0.004477653652429581,XArbitraryCorrectedZVertical,-0.6410649113810705,-0.317087244266625,0.3372093384807791,0.6121938589701085,0.04410842061042786,0.9987615346908569,0.02301708236336708,0.3266943693161011,45.39170837402344,19.70627975463867,1,10095.964287125,stationary,1,2016-03-02 02:29:22.547,null,0,0,0,0,null,10095.498741125,0,-0.1894226,97.42572,192.168.1.101,100.78.239.175,2,1,0.44,0
2016-03-02 02:29:22.833,2,234B9614-18C8-49ED-8B56-CAB6C4F40872,my_iOS_device_1,1456907361.999997,40.79925160393193,-96.68575792582396,371.0539,0,-1,3,10,-9999,1456907362.797912,-0.2478256225585938,43.57267761230469,19.972412109375,10.18283748626709,6.905701160430908,25,10096.229979125,0.0435943603515625,1.0074462890625,0.023712158203125,10096.206278125,0.009625463127873391,0.03083993805533559,-0.00200749082970173,10096.171242125,3.014059141761351,2.051754751320537,-1.521022999638379,-0.148913785815239,0.03182718530297279,-0.002514770021662116,0.006108252797275782,0.01663455367088318,-0.004477653652429581,XArbitraryCorrectedZVertical,-0.6410649113810705,-0.317087244266625,0.3372093384807791,0.6121938589701085,0.04410842061042786,0.9987615346908569,0.02301708236336708,0.3266943693161011,45.39170837402344,19.70627975463867,1,10095.964287125,stationary,1,2016-03-02 02:29:22.547,null,0,0,0,0,null,10095.498741125,0,-0.1894226,97.42572,192.168.1.101,100.78.239.175,2,1,0.44,0
2016-03-02 02:29:22.858,3,234B9614-18C8-49ED-8B56-CAB6C4F40872,my_iOS_device_1,1456907361.999997,40.79925160393193,-96.68575792582396,371.0539,0,-1,3,10,-9999,1456907362.855425,-0.5600519180297852,43.46823120117188,19.807373046875,8.420111656188965,5.142975807189941,25,10096.260270125,0.04547119140625,1.007217407226562,0.0204010009765625,10096.241288125,-0.01368092483584605,0.03931198611509567,-0.008744755755384187,10096.206278125,3.026991429547464,2.064555535343285,-1.520563100284642,0.03075801394879818,7.235650264192373e-05,0.004373798612505198,0.006871784571558237,0.02138776518404484,0.007742421701550484,XArbitraryCorrectedZVertical,-0.6413025879460706,-0.3172219071470403,0.3371533154326121,0.6119059520975785,0.0442146398127079,0.9987385869026184,0.02379749529063702,0.3312819004058838,45.32233810424805,19.86523246765137,1,10095.964287125,stationary,1,2016-03-02 02:29:22.547,null,0,0,0,0,null,10095.498741125,0,-0.1894226,97.42572,192.168.1.101,100.78.239.175,2,1,0.44,0
2016-03-02 02:29:22.890,4,234B9614-18C8-49ED-8B56-CAB6C4F40872,my_iOS_device_1,1456907361.999997,40.79925160393193,-96.68575792582396,371.0539,0,-1,3,10,-9999,1456907362.855425,-0.5600519180297852,43.46823120117188,19.807373046875,8.420111656188965,5.142975807189941,25,10096.290566125,0.050323486328125,1.009780883789062,0.02618408203125,10096.276298125,-0.02755333095406881,0.03824698799517298,-0.005748433212936036,10096.241288125,3.025967375207978,2.063755508374646,-1.520705967484759,0.007452505640685558,0.008544603362679482,-0.002363667357712984,0.001332706771790981,0.00918882992118597,0.002046986948698759,XArbitraryCorrectedZVertical,-0.6412894926609986,-0.3171672771258895,0.3370687372279232,0.6119945843769381,0.04410796612501144,0.9987457394599915,0.02369458973407745,0.3332030773162842,45.33095550537109,19.84552574157715,1,10095.964287125,stationary,1,2016-03-02 02:29:22.547,null,0,0,0,0,null,10095.498741125,0,-0.1894226,97.42572,192.168.1.101,100.78.239.175,2,1,0.44,0
2016-03-02 02:29:22.918,5,234B9614-18C8-49ED-8B56-CAB6C4F40872,my_iOS_device_1,1456907361.999997,40.79925160393193,-96.68575792582396,371.0539,0,-1,3,10,-9999,1456907362.91428,-0.9069728851318359,43.67713928222656,19.47723388671875,9.422236442565918,6.145100593566895,25,10096.320885125,0.0481719970703125,1.013153076171875,0.03192138671875,10096.276298125,-0.02755333095406881,0.03824698799517298,-0.005748433212936036,10096.276298125,3.022635047162817,2.060665263681898,-1.520671563309321,-0.006444838363677263,0.007496357895433903,0.0006343630375340581,0.006615728139877319,0.01091479603201151,-0.002761351643130183,XArbitraryCorrectedZVertical,-0.6413068191162288,-0.3170374327521447,0.3370465952495143,0.6120558982802502,0.04421129822731018,0.998744010925293,0.02357433922588825,0.3217976093292236,45.33429336547852,19.83808326721191,1,10095.964287125,stationary,1,2016-03-02 02:29:22.547,null,0,0,0,0,null,10095.498741125,0,-0.1894226,97.42572,192.168.1.101,100.78.239.175,2,1,0.44,0
2016-03-02 02:29:22.949,6,234B9614-18C8-49ED-8B56-CAB6C4F40872,my_iOS_device_1,1456907361.999997,40.79925160393193,-96.68575792582396,371.0539,0,-1,3,10,-9999,1456907362.91428,-0.9069728851318359,43.67713928222656,19.47723388671875,9.422236442565918,6.145100593566895,25,10096.35107825,0.0505828857421875,1.00921630859375,0.0212860107421875,10096.311294125,-0.01482581778847112,0.02869183232007768,-0.003427222006822972,10096.311294125,3.026719637808867,2.064860418201668,-1.520169470547682,0.006280471570789814,-0.002058500191196799,0.002957442309707403,0.001970547949895263,0.0123896636068821,0.01033487543463707,XArbitraryCorrectedZVertical,-0.641509109853614,-0.3169617670168756,0.337048835252435,0.6118818373504157,0.04455349966883659,0.9987187385559082,0.02399739995598793,0.3251729011535645,45.33495330810547,19.8365306854248,1,10095.964287125,stationary,1,2016-03-02 02:29:22.547,null,0,0,0,0,null,10095.498741125,0,-0.1894226,97.42572,192.168.1.101,100.78.239.175,2,1,0.44,0
2016-03-02 02:29:22.991,7,234B9614-18C8-49ED-8B56-CAB6C4F40872,my_iOS_device_1,1456907361.999997,40.79925160393193,-96.68575792582396,371.0539,0,-1,3,10,-9999,1456907362.972838,-1.18450927734375,43.60749816894531,19.8734130859375,10.10548400878906,6.828347682952881,25,10096.38137225,0.049652099609375,1.009078979492188,0.026336669921875,10096.34623625,-0.01801921425158513,0.02549923480529069,-0.003471963113136303,10096.34623625,3.024159788056684,2.062275090485591,-1.519932018180862,0.003086186479777098,-0.005250912625342607,0.002913849893957376,0.003988397307693958,0.0115319574251771,-0.001121125998906791,XArbitraryCorrectedZVertical,-0.6415465122081048,-0.3168834139742613,0.3371411845474685,0.6118323269520354,0.04482446983456612,0.9987066984176636,0.02399405092000961,0.332545280456543,45.33310317993164,19.84064102172852,1,10095.964287125,stationary,1,2016-03-02 02:29:22.547,null,0,0,0,0,null,10095.498741125,0,-0.1894226,97.42572,192.168.1.101,100.78.239.175,2,1,0.44,0
2016-03-02 02:29:23.009,8,234B9614-18C8-49ED-8B56-CAB6C4F40872,my_iOS_device_1,1456907361.999997,40.79925160393193,-96.68575792582396,371.0539,0,-1,3,10,-9999,1456907362.972838,-1.18450927734375,43.60749816894531,19.8734130859375,10.10548400878906,6.828347682952881,25,10096.41167525,0.05059814453125,1.012054443359375,0.0223388671875,10096.38124525,-0.01482235567905402,0.01380129971711764,-0.004485295907911453,10096.38124525,3.018535394647372,2.05624488242728,-1.519756649812919,0.006282886955887079,-0.01694867946207523,0.001901957322843373,0.004452557303011417,0.01167821791023016,0.003065690631046891,XArbitraryCorrectedZVertical,-0.6414704784495181,-0.3168882195760951,0.3373892233568628,0.6117728283719953,0.04512324929237366,0.9986977577209473,0.02380503714084625,0.3467705249786377,45.32559967041016,19.8575267791748,1,10095.964287125,stationary,1,2016-03-02 02:29:22.547,null,0,0,0,0,null,10095.498741125,0,-0.1894226,97.42572,192.168.1.101,100.78.239.175,2,1,0.44,0
2016-03-02 02:29:23.039,9,234B9614-18C8-49ED-8B56-CAB6C4F40872,my_iOS_device_1,1456907361.999997,40.79925160393193,-96.68575792582396,371.0539,0,-1,3,10,-9999,1456907363.031491,-0.6294345855712891,43.46826171875,20.00555419921875,8.660787582397461,5.383651256561279,25,10096.44196925,0.046417236328125,1.0079345703125,0.0260467529296875,10096.41626125,-0.02122139914629641,0.01060923483454866,-0.00351084526505146,10096.41626125,3.014495158588108,2.051501187198059,-1.519479797850553,-0.0001165817375294864,-0.02014053240418434,0.002877806778997183,0.005117325577884912,0.01337084732949734,-0.001379701658152044,XArbitraryCorrectedZVertical,-0.6413882739073863,-0.3169863821885084,0.3377295033738,0.6116203872926491,0.04548081755638123,0.9986835718154907,0.02371856942772865,0.385617733001709,45.33049011230469,19.84564399719238,1,10095.964287125,stationary,1,2016-03-02 02:29:22.547,null,0,0,0,0,null,10095.498741125,0,-0.1894226,97.42572,192.168.1.101,100.78.239.175,2,1,0.44,0
2016-03-02 02:29:23.074,10,234B9614-18C8-49ED-8B56-CAB6C4F40872,my_iOS_device_1,1456907362.999996,40.79925160393193,-96.68575792582396,371.0376,0,-1,3,10,-9999,1456907363.031491,-0.6294345855712891,43.46826171875,20.00555419921875,8.660787582397461,5.383651256561279,25,10096.47224425,0.047393798828125,1.014389038085938,0.0296783447265625,10096.45127125,-0.02014388416925035,0.009543704082407957,-0.004560397050651688,10096.41626125,3.014495158588108,2.051501187198059,-1.519479797850553,-0.0001165817375294864,-0.02014053240418434,0.002877806778997183,0.005117325577884912,0.01337084732949734,-0.001379701658152044,XArbitraryCorrectedZVertical,-0.6413882739073863,-0.3169863821885084,0.3377295033738,0.6116203872926491,0.04548081755638123,0.9986835718154907,0.02371856942772865,0.385617733001709,45.33049011230469,19.84564399719238,1,10095.964287125,stationary,1,2016-03-02 02:29:22.547,null,0,0,0,0,null,10095.498741125,0,-0.1894226,97.42572,192.168.1.101,100.78.239.175,2,1,0.44,0
2016-03-02 02:29:23.099,11,234B9614-18C8-49ED-8B56-CAB6C4F40872,my_iOS_device_1,1456907362.999996,40.79925160393193,-96.68575792582396,371.0376,0,-1,3,10,-9999,1456907363.090228,-0.8375864028930664,43.39862060546875,20.53387451171875,8.663300514221191,5.38616418838501,25,10096.50254725,0.0428924560546875,1.011001586914062,0.0175018310546875,10096.48627925,-0.007381483593372625,0.007426491015794964,-0.004373975774346141,10096.45127125,3.012461193513268,2.048591294285208,-1.519331889437133,0.0009401204297319055,-0.02118674851953983,0.001833059592172503,0.000736420857720077,0.00925857201218605,0.002392706926912069,XArbitraryCorrectedZVertical,-0.6412607853047545,-0.3171933609789279,0.3380699889049646,0.6114586327651266,0.04568081721663475,0.9986760020256042,0.02365404553711414,0.419013500213623,45.33098602294922,19.84383392333984,1,10095.964287125,stationary,1,2016-03-02 02:29:22.547,null,0,0,0,0,null,10095.498741125,0,-0.1894226,97.42572,192.168.1.101,100.78.239.175,2,1,0.44,0
2016-03-02 02:29:23.152,12,234B9614-18C8-49ED-8B56-CAB6C4F40872,my_iOS_device_1,1456907362.999996,40.79925160393193,-96.68575792582396,371.0376,0,-1,3,10,-9999,1456907363.090228,-0.8375864028930664,43.39862060546875,20.53387451171875,8.663300514221191,5.38616418838501,25,10096.53285125,0.0432891845703125,1.008148193359375,0.026824951171875,10096.52129425,-0.01907861973321865,0.01167130347727226,-0.004546015980765259,10096.48627925,3.009750671918616,2.045096002238234,-1.519219396298733,0.01370132528245449,-0.0233036708086729,0.002019918756559491,0.001271242741495371,0.01741255819797516,-0.002641002181917429,XArbitraryCorrectedZVertical,-0.6411313041466126,-0.3173695361552923,0.3383843615109953,0.6113290867025825,0.04586315527558327,0.998670220375061,0.02354554273188114,0.4307961463928223,45.33049392700195,19.84470176696777,1,10095.964287125,stationary,1,2016-03-02 02:29:22.547,null,0,0,0,0,null,10095.498741125,0,-0.1894226,97.42572,192.168.1.101,100.78.239.175,2,1,0.44,0
2016-03-02 02:29:23.160,13,234B9614-18C8-49ED-8B56-CAB6C4F40872,my_iOS_device_1,1456907362.999996,40.79925160393193,-96.68575792582396,371.0376,0,-1,3,10,-9999,1456907363.150556,-1.04573917388916,43.53790283203125,20.335693359375,8.678990364074707,5.401854515075684,25,10096.56315525,0.046966552734375,1.013168334960938,0.0242919921875,10096.55629425,-0.0126942236519717,0.01486629783704032,-0.00445493587148455,10096.52129425,2.999587141774696,2.034090092291989,-1.519665811474194,0.002005676040425897,-0.01905873231589794,0.001846691942773759,-0.006032573524862528,0.008676875382661819,-0.004376988392323256,XArbitraryCorrectedZVertical,-0.6407567124597299,-0.3175703023845186,0.3387148229322504,0.6114345485881201,0.04572068527340889,0.9986931085586548,0.02284012362360954,0.4559211730957031,45.33767318725586,19.82773971557617,1,10095.964287125,stationary,1,2016-03-02 02:29:22.547,null,0,0,0,0,null,10095.498741125,0,-0.1894226,97.42572,192.168.1.101,100.78.239.175,2,1,0.44,0
2016-03-02 02:29:23.190,14,234B9614-18C8-49ED-8B56-CAB6C4F40872,my_iOS_device_1,1456907362.999996,40.79925160393193,-96.68575792582396,371.0376,0,-1,3,10,-9999,1456907363.150556,-1.04573917388916,43.53790283203125,20.335693359375,8.678990364074707,5.401854515075684,25,10096.59343425,0.0445556640625,1.013076782226562,0.0224151611328125,10096.55629425,-0.0126942236519717,0.01486629783704032,-0.00445493587148455,10096.55629425,2.998110286333412,2.031919330653144,-1.519635955232241,0.00838913582265377,-0.01586343348026276,0.001937192864716053,0.003260147292166948,0.01601787842810154,0.001354798790998757,XArbitraryCorrectedZVertical,-0.6406318273191925,-0.3177544740300566,0.3389648126565841,0.6113311801636007,0.04579686000943184,0.9986916184425354,0.02275408804416656,0.4581491947174072,45.3455924987793,19.8095588684082,1,10095.964287125,stationary,1,2016-03-02 02:29:22.547,null,0,0,0,0,null,10095.498741125,0,-0.1894226,97.42572,192.168.1.101,100.78.239.175,2,1,0.44,0
2016-03-02 02:29:23.231,15,234B9614-18C8-49ED-8B56-CAB6C4F40872,my_iOS_device_1,1456907362.999996,40.79925160393193,-96.68575792582396,371.0376,0,-1,3,10,-9999,1456907363.208096,-0.9763565063476562,43.32901000976562,20.20361328125,8.69792652130127,5.420790672302246,25,10096.62373325,0.0414886474609375,1.013671875,0.015777587890625,10096.59131325,-0.01372460067772335,0.02017664105065832,-0.006604106871178495,10096.59131325,2.998011939847081,2.031428903491605,-1.519735166951909,0.007357783615589142,-0.01055283844470978,-0.0002126327890437096,-0.002811543410643935,0.01518883556127548,0.003618570743128657,XArbitraryCorrectedZVertical,-0.6405367164333747,-0.3178938591981267,0.3390716831320374,0.6112991108147131,0.04571925848722458,0.9986966848373413,0.02268758229911327,0.4769761562347412,45.34683609008789,19.80627632141113,1,10095.964287125,stationary,1,2016-03-02 02:29:22.547,null,0,0,0,0,null,10095.498741125,0,-0.1894226,97.42572,192.168.1.101,100.78.239.175,2,1,0.44,0
2016-03-02 02:29:23.250,16,234B9614-18C8-49ED-8B56-CAB6C4F40872,my_iOS_device_1,1456907362.999996,40.79925160393193,-96.68575792582396,371.0376,0,-1,3,10,-9999,1456907363.208096,-0.9763565063476562,43.32901000976562,20.20361328125,8.69792652130127,5.420790672302246,25,10096.65401725,0.0439605712890625,1.009902954101562,0.02301025390625,10096.62630325,-0.02112898745647066,0.03611619280700058,-0.008851282198987356,10096.62630325,2.993477728652084,2.026829909318883,-1.520132029149064,-6.111039692768827e-05,0.005404553841799498,-0.0024559844750911,-0.003978622145950794,0.01495503634214401,-0.006524943746626377,XArbitraryCorrectedZVertical,-0.6403675074395623,-0.3179319442525135,0.339077462780762,0.6114533575618009,0.04546726867556572,0.9987168312072754,0.0223025307059288,0.4766292572021484,45.35282135009766,19.79257011413574,1,10095.964287125,stationary,1,2016-03-02 02:29:22.547,null,0,0,0,0,null,10095.498741125,0,-0.1894226,97.42572,192.168.1.101,100.78.239.175,2,1,0.44,0
2016-03-02 02:29:23.281,17,234B9614-18C8-49ED-8B56-CAB6C4F40872,my_iOS_device_1,1456907362.999996,40.79925160393193,-96.68575792582396,371.0376,0,-1,3,10,-9999,1456907363.266757,-0.8722801208496094,42.73710632324219,19.7744140625,8.711114883422852,5.433979034423828,25,10096.68433125,0.0472869873046875,1.013046264648438,0.018951416015625,10096.66133525,-0.01372406804550534,0.04038417476996157,-0.005548696131180092,10096.62630325,2.993477728652084,2.026829909318883,-1.520132029149064,-6.111039692768827e-05,0.005404553841799498,-0.0024559844750911,-0.003978622145950794,0.01495503634214401,-0.006524943746626377,XArbitraryCorrectedZVertical,-0.6403675074395623,-0.3179319442525135,0.339077462780762,0.6114533575618009,0.04546726867556572,0.9987168312072754,0.0223025307059288,0.4766292572021484,45.35282135009766,19.79257011413574,1,10095.964287125,stationary,1,2016-03-02 02:29:22.547,null,0,0,0,0,null,10095.498741125,0,-0.1894226,97.42572,192.168.1.101,100.78.239.175,2,1,0.44,0
2016-03-02 02:29:23.312,18,234B9614-18C8-49ED-8B56-CAB6C4F40872,my_iOS_device_1,1456907362.999996,40.79925160393193,-96.68575792582396,371.0376,0,-1,3,10,-9999,1456907363.266757,-0.8722801208496094,42.73710632324219,19.7744140625,8.711114883422852,5.433979034423828,25,10096.71461425,0.0474700927734375,1.013717651367188,0.0275726318359375,10096.69633425,-0.01472754714424719,0.04249845835937548,-0.009827330738501398,10096.69633425,2.983858884155722,2.017835289681338,-1.5205818922107,0.006341168191283941,0.01178721431642771,-0.003432814730331302,0.002132907742634416,0.01456614397466183,-0.0005192475509829819,XArbitraryCorrectedZVertical,-0.6402470743648143,-0.3176993974806377,0.3389229943090569,0.6117858943587194,0.04526089131832123,0.9987395405769348,0.02169844694435596,0.4535012245178223,45.36437225341797,19.76662635803223,1,10095.964287125,stationary,1,2016-03-02 02:29:22.547,null,0,0,0,0,null,10095.498741125,0,-0.1894226,97.42572,192.168.1.101,100.78.239.175,2,1,0.44,0
2016-03-02 02:29:23.341,19,234B9614-18C8-49ED-8B56-CAB6C4F40872,my_iOS_device_1,1456907362.999996,40.79925160393193,-96.68575792582396,371.0376,0,-1,3,10,-9999,1456907363.325079,-1.11512279510498,42.70230102539062,20.07159423828125,8.728870391845703,5.451734066009521,25,10096.74491825,0.0489501953125,1.01153564453125,0.017486572265625,10096.73136225,-0.001966744465023517,0.0382544448462252,-0.009639844197759819,10096.69633425,2.983858884155722,2.017835289681338,-1.5205818922107,0.006341168191283941,0.01178721431642771,-0.003432814730331302,0.002132907742634416,0.01456614397466183,-0.0005192475509829819,XArbitraryCorrectedZVertical,-0.6402470743648143,-0.3176993974806377,0.3389229943090569,0.6117858943587194,0.04526089131832123,0.9987395405769348,0.02169844694435596,0.4535012245178223,45.36437225341797,19.76662635803223,1,10095.964287125,stationary,1,2016-03-02 02:29:22.547,null,0,0,0,0,null,10095.498741125,0,-0.1894226,97.42572,192.168.1.101,100.78.239.175,2,1,0.44,0
2016-03-02 02:29:23.392,20,234B9614-18C8-49ED-8B56-CAB6C4F40872,my_iOS_device_1,1456907362.999996,40.79925160393193,-96.68575792582396,371.0376,0,-1,3,10,-9999,1456907363.38508,-0.9416637420654297,43.22456359863281,19.3121337890625,8.749449729919434,5.472313404083252,25,10096.77519125,0.04583740234375,1.012130737304688,0.0233001708984375,10096.76637125,-0.008350341597943451,0.03612285070972578,-0.009731456939258544,10096.73136225,2.979000172214635,2.013355698409273,-1.520694042595763,0.01910050772130489,0.007543431594967842,-0.003244741121307015,0.003144460264593363,0.0152776837348938,0.004217772278934717,XArbitraryCorrectedZVertical,-0.6402288101395271,-0.3175387003088805,0.3388472671781515,0.6119303669530956,0.04525641724467278,0.9987451434135437,0.02144751138985157,0.4498367309570312,45.36812973022461,19.75809288024902,1,10095.964287125,stationary,1,2016-03-02 02:29:22.547,null,0,0,0,0,null,10095.498741125,0,-0.1894226,97.42572,192.168.1.101,100.78.239.175,2,1,0.44,0
2016-03-02 02:29:23.402,21,234B9614-18C8-49ED-8B56-CAB6C4F40872,my_iOS_device_1,1456907362.999996,40.79925160393193,-96.68575792582396,371.0376,0,-1,3,10,-9999,1456907363.38508,-0.9416637420654297,43.22456359863281,19.3121337890625,8.749449729919434,5.472313404083252,25,10096.80551625,0.0429229736328125,1.0089111328125,0.025665283203125,10096.80138125,-0.01157969073577354,0.04357304385922245,-0.006584932111329924,10096.76637125,2.967942974981892,2.002554369468259,-1.520942050082862,0.01269127149134874,0.005433294456452131,-0.003330694977194071,-0.002306977519765496,0.01424295548349619,0.002034397330135107,XArbitraryCorrectedZVertical,-0.6400860025222365,-0.317359106599768,0.3388686955054303,0.6121610196996602,0.0452604703605175,0.998757541179657,0.02085378579795361,0.4436204433441162,45.38348770141602,19.72291564941406,1,10095.964287125,stationary,1,2016-03-02 02:29:22.547,null,0,0,0,0,null,10095.498741125,0,-0.1894226,97.42572,192.168.1.101,100.78.239.175,2,1,0.44,0
2016-03-02 02:29:23.433,22,234B9614-18C8-49ED-8B56-CAB6C4F40872,my_iOS_device_1,1456907362.999996,40.79925160393193,-96.68575792582396,371.0376,0,-1,3,10,-9999,1456907363.38508,-0.9416637420654297,43.22456359863281,19.3121337890625,8.749449729919434,5.472313404083252,25,10096.83581225,0.0474090576171875,1.011184692382812,0.0211181640625,10096.80138125,-0.01157969073577354,0.04357304385922245,-0.006584932111329924,10096.80138125,2.965607762102105,2.000612433506881,-1.521111702026129,0.009460859932005405,0.01288372837007046,-0.0001845291262725368,-0.001720336615107954,0.01093861646950245,0.0041460613720119,XArbitraryCorrectedZVertical,-0.6400813748639398,-0.3172435296383149,0.3387394048361966,0.6122973069237779,0.04514684900641441,0.9987659454345703,0.02069524675607681,0.4354579448699951,45.3868293762207,19.71541023254395,1,10095.964287125,stationary,1,2016-03-02 02:29:22.547,null,0,0,0,0,null,10096.81225525,0,0,97.42352,192.168.1.101,100.78.239.175,2,1,0.44,0
2016-03-02 02:29:23.472,23,234B9614-18C8-49ED-8B56-CAB6C4F40872,my_iOS_device_1,1456907362.999996,40.79925160393193,-96.68575792582396,371.0376,0,-1,3,10,-9999,1456907363.4451,-0.9069728851318359,42.91120910644531,18.75079345703125,8.768471717834473,5.491335868835449,25,10096.86611025,0.043609619140625,1.012313842773438,0.0237579345703125,10096.83637925,-0.0147445913752237,0.03931118716676864,-0.008760202089706647,10096.83637925,2.963899047830542,1.999280213558767,-1.521220531262059,0.006294785998761654,0.008622169494628906,-0.002360019832849503,0.002333545591682196,0.0124133201315999,0.0005282429046928883,XArbitraryCorrectedZVertical,-0.6400972080395725,-0.3171285620251121,0.338619489736224,0.6124066300903243,0.04507551342248917,0.9987713694572449,0.0205899216234684,0.419360876083374,45.3885498046875,19.7118091583252,1,10095.964287125,stationary,1,2016-03-02 02:29:22.547,null,0,0,0,0,null,10096.81225525,0,0,97.42352,192.168.1.101,100.78.239.175,2,1,0.44,0
2016-03-02 02:29:23.503,24,234B9614-18C8-49ED-8B56-CAB6C4F40872,my_iOS_device_1,1456907362.999996,40.79925160393193,-96.68575792582396,371.0376,0,-1,3,10,-9999,1456907363.4451,-0.9069728851318359,42.91120910644531,18.75079345703125,8.768471717834473,5.491335868835449,25,10096.89639125,0.0469512939453125,1.01171875,0.02044677734375,10096.87140525,-0.02006958197483714,0.04994412413501901,-0.007777229331358399,10096.87140525,2.964639300493977,2.000537938709134,-1.521298962182075,0.00096916250186041,0.01925531774759293,-0.001377098145894706,-0.001368748722597957,0.01353858690708876,0.003143974114209414,XArbitraryCorrectedZVertical,-0.6401714398432954,-0.3169976464052618,0.338426952016077,0.6125032391192499,0.04497836902737617,0.9987752437591553,0.02061396092176437,0.4155116081237793,45.39132690429688,19.70549201965332,1,10095.964287125,stationary,1,2016-03-02 02:29:22.547,null,0,0,0,0,null,10096.81225525,0,0,97.42352,192.168.1.101,100.78.239.175,2,1,0.44,0
2016-03-02 02:29:23.523,25,234B9614-18C8-49ED-8B56-CAB6C4F40872,my_iOS_device_1,1456907362.999996,40.79925160393193,-96.68575792582396,371.0376,0,-1,3,10,-9999,1456907363.504887,-1.149815559387207,43.08528137207031,19.04803466796875,8.797976493835449,5.520840644836426,25,10096.92670425,0.0438690185546875,1.009689331054688,0.0234527587890625,10096.90641525,-0.02861460064846538,0.04143638971665187,-0.005765477443912543,10096.87140525,2.964639300493977,2.000537938709134,-1.521298962182075,0.00096916250186041,0.01925531774759293,-0.001377098145894706,-0.001368748722597957,0.01353858690708876,0.003143974114209414,XArbitraryCorrectedZVertical,-0.6401714398432954,-0.3169976464052618,0.338426952016077,0.6125032391192499,0.04497836902737617,0.9987752437591553,0.02061396092176437,0.4155116081237793,45.39132690429688,19.70549201965332,1,10095.964287125,stationary,1,2016-03-02 02:29:22.547,null,0,0,0,0,null,10096.81225525,0,0,97.42352,192.168.1.101,100.78.239.175,2,1,0.44,0
2016-03-02 02:29:23.553,26,234B9614-18C8-49ED-8B56-CAB6C4F40872,my_iOS_device_1,1456907362.999996,40.79925160393193,-96.68575792582396,371.0376,0,-1,3,10,-9999,1456907363.504887,-1.149815559387207,43.08528137207031,19.04803466796875,8.797976493835449,5.520840644836426,25,10096.95698525,0.0453643798828125,1.01397705078125,0.0205078125,10096.94143025,-0.02539750205164966,0.03717932671416022,-0.007848069416354507,10096.90641525,2.966334520926421,2.002759340232989,-1.521277427579793,-0.007576200645416975,0.01074778847396374,0.0006342609412968159,0.001999296247959137,0.01294456049799919,-0.000276051665423438,XArbitraryCorrectedZVertical,-0.640284451885313,-0.3168552274794362,0.3382396067566256,0.6125622857424222,0.04495199769735336,0.9987741708755493,0.02072282880544662,0.3977646827697754,45.39170837402344,19.70497512817383,1,10095.964287125,stationary,1,2016-03-02 02:29:22.547,null,0,0,0,0,null,10096.81225525,0,0,97.42352,192.168.1.101,100.78.239.175,2,1,0.44,0
2016-03-02 02:29:23.584,27,234B9614-18C8-49ED-8B56-CAB6C4F40872,my_iOS_device_1,1456907362.999996,40.79925160393193,-96.68575792582396,371.0376,0,-1,3,10,-9999,1456907363.56097,-1.149815559387207,43.4334716796875,19.31219482421875,8.83079719543457,5.553660869598389,25,10096.98730125,0.044952392578125,1.012237548828125,0.02490234375,10096.94143025,-0.02539750205164966,0.03717932671416022,-0.007848069416354507,10096.94143025,2.971720588866572,2.008406475071689,-1.521165941031267,-0.004394142888486385,0.006515925750136375,-0.001443160697817802,-0.0005472963093779981,0.01386561244726181,0.000933862931560725,XArbitraryCorrectedZVertical,-0.6404164426483817,-0.3168257363951831,0.3381046487335575,0.612514064530749,0.04493511468172073,0.99876868724823,0.02102353423833847,0.3863697052001953,45.38462829589844,19.72150421142578,1,10095.964287125,stationary,1,2016-03-02 02:29:22.547,null,0,0,0,0,null,10096.81225525,0,0,97.42352,192.168.1.101,100.78.239.175,2,1,0.44,0
2016-03-02 02:29:23.632,28,234B9614-18C8-49ED-8B56-CAB6C4F40872,my_iOS_device_1,1456907362.999996,40.79925160393193,-96.68575792582396,371.0376,0,-1,3,10,-9999,1456907363.623009,-1.080434799194336,43.50309753417969,19.04803466796875,8.867215156555176,5.590079307556152,25,10097.01759325,0.0464630126953125,1.012100219726562,0.019378662109375,10097.01144825,-0.0116153770943806,0.0350717010274715,-0.004449609549304391,10096.97643925,2.970922004304355,2.007890721172767,-1.521048507539948,0.005119305104017258,0.00547161977738142,0.002958537777885795,0.001288729952648282,0.01406980957835913,-0.0009084039484150708,XArbitraryCorrectedZVertical,-0.6404878233243816,-0.3167023064976829,0.3380499331556254,0.6125334602498866,0.04505221173167229,0.998762845993042,0.02105000615119934,0.3839020729064941,45.38166427612305,19.72836685180664,1,10095.964287125,stationary,1,2016-03-02 02:29:22.547,null,0,0,0,0,null,10096.81225525,0,0,97.42352,192.168.1.101,100.78.239.175,2,1,0.44,0
2016-03-02 02:29:23.645,29,234B9614-18C8-49ED-8B56-CAB6C4F40872,my_iOS_device_1,1456907362.999996,40.79925160393193,-96.68575792582396,371.0376,0,-1,3,10,-9999,1456907363.623009,-1.080434799194336,43.50309753417969,19.04803466796875,8.867215156555176,5.590079307556152,25,10097.04789825,0.04412841796875,1.013168334960938,0.021575927734375,10097.01144825,-0.0116153770943806,0.0350717010274715,-0.004449609549304391,10097.01144825,2.970005819546524,2.007133504149906,-1.52101460384257,0.009386654011905193,0.004408784676343203,0.001955063547939062,-0.0004821287584491074,0.01254561636596918,0.002697221003472805,XArbitraryCorrectedZVertical,-0.6405141600066954,-0.3166333981089057,0.3380189683075624,0.6125586331913003,0.04509882628917694,0.9987611174583435,0.02103019505739212,0.3858373165130615,45.38431549072266,19.72223472595215,1,10095.964287125,stationary,1,2016-03-02 02:29:22.547,null,0,0,0,0,null,10096.81225525,0,0,97.42352,192.168.1.101,100.78.239.175,2,1,0.44,0
2016-03-02 02:29:23.675,30,234B9614-18C8-49ED-8B56-CAB6C4F40872,my_iOS_device_1,1456907362.999996,40.79925160393193,-96.68575792582396,371.0376,0,-1,3,10,-9999,1456907363.623009,-1.080434799194336,43.50309753417969,19.04803466796875,8.867215156555176,5.590079307556152,25,10097.07820025,0.0441131591796875,1.013687133789062,0.0257568359375,10097.04646325,-0.01163322027368413,0.03082102961159603,-0.003381948268291625,10097.04646325,2.963214556672685,2.000414513865829,-1.521098764498435,0.009368791244924068,0.0001582984550623223,0.003022490534931421,-0.000713840126991272,0.01481499150395393,0.001860796823166311,XArbitraryCorrectedZVertical,-0.6404305910880916,-0.3165351555270686,0.3380726142617608,0.61266716967715,0.04516269266605377,0.9987653493881226,0.02069169282913208,0.3837926387786865,45.38499069213867,19.72072982788086,1,10095.964287125,stationary,1,2016-03-02 02:29:22.547,null,0,0,0,0,null,10096.81225525,0,0,97.42352,192.168.1.101,100.78.239.175,2,1,0.44,0
2016-03-02 02:29:23.711,31,234B9614-18C8-49ED-8B56-CAB6C4F40872,my_iOS_device_1,1456907362.999996,40.79925160393193,-96.68575792582396,371.0376,0,-1,3,10,-9999,1456907363.678764,-1.18450927734375,42.98080444335938,19.34521484375,8.898633003234863,5.621496677398682,25,10097.10849825,0.049041748046875,1.013092041015625,0.021942138671875,10097.08147325,-0.008424377476247654,0.03507409787245257,-0.004403270546337012,10097.04646325,2.963214556672685,2.000414513865829,-1.521098764498435,0.009368791244924068,0.0001582984550623223,0.003022490534931421,-0.000713840126991272,0.01481499150395393,0.001860796823166311,XArbitraryCorrectedZVertical,-0.6404305910880916,-0.3165351555270686,0.3380726142617608,0.61266716967715,0.04516269266605377,0.9987653493881226,0.02069169282913208,0.3837926387786865,45.38499069213867,19.72072982788086,1,10095.964287125,stationary,1,2016-03-02 02:29:22.547,null,0,0,0,0,null,10096.81225525,0,0,97.42352,192.168.1.101,100.78.239.175,2,1,0.44,0
2016-03-02 02:29:23.736,32,234B9614-18C8-49ED-8B56-CAB6C4F40872,my_iOS_device_1,1456907362.999996,40.79925160393193,-96.68575792582396,371.0376,0,-1,3,10,-9999,1456907363.678764,-1.18450927734375,42.98080444335938,19.34521484375,8.898633003234863,5.621496677398682,25,10097.13879425,0.04205322265625,1.010498046875,0.0184783935546875,10097.11648325,-0.00309139739336398,0.0350751631368886,-0.005391569626865418,10097.08147325,2.959130174140628,1.99641774929708,-1.521251088441994,0.01254388131201267,0.004425173159688711,0.002004191977903247,-0.0009933091932907701,0.01491424813866615,0.005308627150952816,XArbitraryCorrectedZVertical,-0.6403600832146957,-0.3164854944932426,0.3380686148495955,0.6127687224836872,0.04510646685957909,0.9987728595733643,0.02044820971786976,0.3845980167388916,45.39254760742188,19.70330810546875,1,10095.964287125,stationary,1,2016-03-02 02:29:22.547,null,0,0,0,0,null,10096.81225525,0,0,97.42352,192.168.1.101,100.78.239.175,2,1,0.44,0
2016-03-02 02:29:23.793,33,234B9614-18C8-49ED-8B56-CAB6C4F40872,my_iOS_device_1,1456907362.999996,40.79925160393193,-96.68575792582396,371.0376,0,-1,3,10,-9999,1456907363.7732,-1.219198226928711,42.87638854980469,19.378173828125,8.94105339050293,5.663917064666748,25,10097.16907825,0.044921875,1.012832641601562,0.0254669189453125,10097.15149125,-0.01588229379290555,0.03826163538116842,-0.003447462031107574,10097.11648325,2.951621076225142,1.989061431200857,-1.521324443750825,0.01787559874355793,0.004426476079970598,0.001015753950923681,0.003853027475997806,0.0143155250698328,0.001856056274846196,XArbitraryCorrectedZVertical,-0.6402847581814667,-0.316351813038729,0.3381071623215562,0.6128951832201435,0.04518872126936913,0.9987764954566956,0.02008608169853687,0.3825898170471191,45.39619064331055,19.69494819641113,1,10095.964287125,stationary,1,2016-03-02 02:29:22.547,null,0,0,0,0,null,10096.81225525,0,0,97.42352,192.168.1.101,100.78.239.175,2,1,0.44,0
2016-03-02 02:29:23.796,34,234B9614-18C8-49ED-8B56-CAB6C4F40872,my_iOS_device_1,1456907362.999996,40.79925160393193,-96.68575792582396,371.0376,0,-1,3,10,-9999,1456907363.7732,-1.219198226928711,42.87638854980469,19.378173828125,8.94105339050293,5.663917064666748,25,10097.19939525,0.0504608154296875,1.01324462890625,0.0220947265625,10097.15149125,-0.01588229379290555,0.03826163538116842,-0.003447462031107574,10097.15149125,2.946097981403751,1.983784551082989,-1.521564809304171,0.005084346979856491,0.007613235618919134,0.002958886558189988,-0.001739232917316258,0.0115876030176878,0.0006347466260194778,XArbitraryCorrectedZVertical,-0.6402017196979461,-0.3162550487560177,0.3380515867922842,0.6130624983631922,0.04507419466972351,0.9987883567810059,0.01975099556148052,0.3776378631591797,45.40752410888672,19.66889762878418,1,10095.964287125,stationary,1,2016-03-02 02:29:22.547,null,0,0,0,0,null,10096.81225525,0,0,97.42352,192.168.1.101,100.78.239.175,2,1,0.44,0
2016-03-02 02:29:23.826,35,234B9614-18C8-49ED-8B56-CAB6C4F40872,my_iOS_device_1,1456907362.999996,40.79925160393193,-96.68575792582396,371.0376,0,-1,3,10,-9999,1456907363.7732,-1.219198226928711,42.87638854980469,19.378173828125,8.94105339050293,5.663917064666748,25,10097.22969625,0.0424346923828125,1.010543823242188,0.0209503173828125,10097.22149525,-0.007328220371571039,0.03932263875945598,-0.006521016245168022,10097.18650625,2.942470093241949,1.980422206014583,-1.521613546386715,0.01358840335160494,0.002302873646840453,0.003084760857746005,0.00200818432494998,0.01387402415275574,0.002194349654018879,XArbitraryCorrectedZVertical,-0.6401939602638612,-0.3161355159012065,0.3380051083229337,0.6131578716571552,0.04509569704532623,0.9987908005714417,0.0195799432694912,0.3727452754974365,45.41099166870117,19.66098594665527,1,10095.964287125,stationary,1,2016-03-02 02:29:22.547,null,0,0,0,0,null,10096.81225525,0,0,97.42352,192.168.1.101,100.78.239.175,2,1,0.44,0
2016-03-02 02:29:23.872,36,234B9614-18C8-49ED-8B56-CAB6C4F40872,my_iOS_device_1,1456907362.999996,40.79925160393193,-96.68575792582396,371.0376,0,-1,3,10,-9999,1456907363.827015,-1.080434799194336,43.08531188964844,19.24615478515625,8.957287788391113,5.680151462554932,25,10097.25997525,0.043060302734375,1.011550903320312,0.017822265625,10097.22149525,-0.007328220371571039,0.03932263875945598,-0.006521016245168022,10097.22149525,2.938529843416009,1.976694233811309,-1.521483288064469,0.01363593246787786,0.008674737066030502,-0.0001140977256000042,0.001144588110037148,0.01478070486336946,0.004798414185643196,XArbitraryCorrectedZVertical,-0.6402213252188892,-0.3159876342366196,0.3380189079618362,0.6131979187870578,0.04528790712356567,0.9987843632698059,0.0194630604237318,0.3706269264221191,45.41455841064453,19.65278434753418,1,10095.964287125,stationary,1,2016-03-02 02:29:22.547,null,0,0,0,0,null,10096.81225525,0,0,97.42352,192.168.1.101,100.78.239.175,2,1,0.44,0
2016-03-02 02:29:23.894,37,234B9614-18C8-49ED-8B56-CAB6C4F40872,my_iOS_device_1,1456907362.999996,40.79925160393193,-96.68575792582396,371.0376,0,-1,3,10,-9999,1456907363.886644,-0.8029003143310547,43.43350219726562,19.1141357421875,8.972414016723633,5.695277690887451,25,10097.29028525,0.0438690185546875,1.015533447265625,0.0230712890625,10097.25653125,-0.01370702381452883,0.0435714459625684,-0.006615824779974844,10097.25653125,2.933398021149609,1.972084376841403,-1.521864605931929,0.00721757672727108,0.01296289451420307,-0.0002077037206618115,-0.004468684084713459,0.0107489200308919,-0.002076510339975357,XArbitraryCorrectedZVertical,-0.6401517227619726,-0.3158455814137005,0.3378368795214454,0.6134440344330609,0.04502654448151588,0.9988030791282654,0.01910531893372536,0.3662824630737305,45.41905212402344,19.6424732208252,1,10095.964287125,stationary,1,2016-03-02 02:29:22.547,null,0,0,0,0,null,10096.81225525,0,0,97.42352,192.168.1.101,100.78.239.175,2,1,0.44,0
2016-03-02 02:29:23.918,38,234B9614-18C8-49ED-8B56-CAB6C4F40872,my_iOS_device_1,1456907362.999996,40.79925160393193,-96.68575792582396,371.0376,0,-1,3,10,-9999,1456907363.886644,-0.8029003143310547,43.43350219726562,19.1141357421875,8.972414016723633,5.695277690887451,25,10097.32059825,0.0482177734375,1.01361083984375,0.016693115234375,10097.29154025,-0.01588815274730373,0.04996196731432254,-0.002387790233365045,10097.29154025,2.933926871963607,1.973263502504805,-1.52182785009505,0.005035655107349157,0.01935369148850441,0.0040201167576015,-0.001168746501207352,0.01673216372728348,0.003898511873558164,XArbitraryCorrectedZVertical,-0.6402770971878654,-0.3156447804380214,0.3376297611544493,0.6135305662977862,0.04503776505589485,0.9988012909889221,0.01917277649044991,0.3662824630737305,45.41905212402344,19.6424732208252,1,10095.964287125,stationary,1,2016-03-02 02:29:22.547,null,0,0,0,0,null,10096.81225525,0,0,97.42352,192.168.1.101,100.78.239.175,2,1,0.44,0
2016-03-02 02:29:23.952,39,234B9614-18C8-49ED-8B56-CAB6C4F40872,my_iOS_device_1,1456907362.999996,40.79925160393193,-96.68575792582396,371.0376,0,-1,3,10,-9999,1456907363.943413,-1.149821281433105,43.57275390625,19.048095703125,8.989697456359863,5.712561130523682,25,10097.35087525,0.0511322021484375,1.008193969726562,0.0247955322265625,10097.32655125,-0.01372087225219724,0.04463777566303613,-0.005550826660052156,10097.32655125,2.926652090305468,1.96660619953896,-1.52183441606514,0.007203214801847935,0.01402965467423201,0.0008574252715334296,0.003059419570490718,0.01480923499912024,-0.002176880836486816,XArbitraryCorrectedZVertical,-0.6402992829895839,-0.3153598360603924,0.3375276271319139,0.6137101131036257,0.04515835270285606,0.998801589012146,0.01886999607086182,0.3347897529602051,45.42670440673828,19.62534332275391,1,10095.964287125,stationary,1,2016-03-02 02:29:22.547,null,0,0,0,0,null,10096.81225525,0,0,97.42352,192.168.1.101,100.78.239.175,2,1,0.44,0
2016-03-02 02:29:23.984,40,234B9614-18C8-49ED-8B56-CAB6C4F40872,my_iOS_device_1,1456907362.999996,40.79925160393193,-96.68575792582396,371.0376,0,-1,3,10,-9999,1456907363.943413,-1.149821281433105,43.57275390625,19.048095703125,8.989697456359863,5.712561130523682,25,10097.38119725,0.04791259765625,1.01239013671875,0.014068603515625,10097.36153725,-0.008376440576626228,0.04038231055719851,-0.007602525963849202,10097.36153725,2.920545181078194,1.960853060079515,-1.521637915315267,0.01254681497812271,0.009774395264685154,-0.001192457391880453,0.003578799078240991,0.009005272760987282,-0.001167420763522387,XArbitraryCorrectedZVertical,-0.6403426237086017,-0.3151247047417151,0.3375393596350811,0.6137792155331985,0.045447688549757,0.9987919926643372,0.0186845101416111,0.3357062339782715,45.43011093139648,19.61743927001953,1,10095.964287125,stationary,1,2016-03-02 02:29:22.547,null,0,0,0,0,null,10096.81225525,0,0,97.42352,192.168.1.101,100.78.239.175,2,1,0.44,0
2016-03-02 02:29:24.009,41,234B9614-18C8-49ED-8B56-CAB6C4F40872,my_iOS_device_1,1456907362.999996,40.79925160393193,-96.68575792582396,371.0376,0,-1,3,10,-9999,1456907364.002075,-1.11512565612793,43.39866638183594,19.54339599609375,9.004778861999512,5.72764253616333,25,10097.41149925,0.0484771728515625,1.013656616210938,0.0200042724609375,10097.39657425,-0.02120621912808296,0.03081383907665282,-0.003520965277193761,10097.36153725,2.920545181078194,1.960853060079515,-1.521637915315267,0.01254681497812271,0.009774395264685154,-0.001192457391880453,0.003578799078240991,0.009005272760987282,-0.001167420763522387,XArbitraryCorrectedZVertical,-0.6403426237086017,-0.3151247047417151,0.3375393596350811,0.6137792155331985,0.045447688549757,0.9987919926643372,0.0186845101416111,0.3357062339782715,45.43011093139648,19.61743927001953,1,10095.964287125,stationary,1,2016-03-02 02:29:22.547,null,0,0,0,0,null,10096.81225525,0,0,97.42352,192.168.1.101,100.78.239.175,2,1,0.44,0
2016-03-02 02:29:24.038,42,234B9614-18C8-49ED-8B56-CAB6C4F40872,my_iOS_device_1,1456907362.999996,40.79925160393193,-96.68575792582396,371.0376,0,-1,3,10,-9999,1456907364.002075,-1.11512565612793,43.39866638183594,19.54339599609375,9.004778861999512,5.72764253616333,25,10097.44179925,0.0457916259765625,1.013092041015625,0.0178070068359375,10097.43158325,-0.01262125303810353,0.03399578394707949,-0.008726646259971648,10097.39657425,2.913752433566739,1.954241792056699,-1.521715246065461,-0.0003289554442744702,0.0002492393250577152,0.002891432493925095,0.001193298725411296,0.01531861443072557,-5.945353041170165e-05,XArbitraryCorrectedZVertical,-0.6402766481539592,-0.3149971184582901,0.337553764334249,0.6139055997264247,0.04549859464168549,0.998795747756958,0.0183547418564558,0.3385677337646484,45.43770599365234,19.59979057312012,1,10095.964287125,stationary,1,2016-03-02 02:29:22.547,null,0,0,0,0,null,10096.81225525,0,0,97.42352,192.168.1.101,100.78.239.175,2,1,0.44,0
2016-03-02 02:29:24.069,43,234B9614-18C8-49ED-8B56-CAB6C4F40872,my_iOS_device_1,1456907362.999996,40.79925160393193,-96.68575792582396,371.0376,0,-1,3,10,-9999,1456907364.060716,-1.11512279510498,43.67723083496094,19.54345703125,9.025891304016113,5.748754978179932,25,10097.47209425,0.0468902587890625,1.0125732421875,0.022735595703125,10097.43158325,-0.01262125303810353,0.03399578394707949,-0.008726646259971648,10097.43158325,2.908742762213587,1.949253720308218,-1.521713505230375,0.00825542863458395,0.003431399585679173,-0.002313680481165648,0.003053819760680199,0.01190073136240244,0.002425382379442453,XArbitraryCorrectedZVertical,-0.6402240806049851,-0.314924165178164,0.3376131587143693,0.6139651878268194,0.04559120163321495,0.9987956881523132,0.01812820695340633,0.3400375843048096,45.43960189819336,19.59536743164062,1,10095.964287125,stationary,1,2016-03-02 02:29:22.547,null,0,0,0,0,null,10096.81225525,0,0,97.42352,192.168.1.101,100.78.239.175,2,1,0.44,0
2016-03-02 02:29:24.112,44,234B9614-18C8-49ED-8B56-CAB6C4F40872,my_iOS_device_1,1456907363.999997,40.79925160393193,-96.68575792582396,370.8291,0,-1,3,10,-9999,1456907364.060716,-1.11512279510498,43.67723083496094,19.54345703125,9.025891304016113,5.748754978179932,25,10097.50240225,0.0461578369140625,1.012725830078125,0.0112152099609375,10097.46657725,-0.01371581224612609,0.03187404350661336,-0.006609965825576669,10097.46657725,2.90622567147601,1.946811372733352,-1.521829172786089,0.007160199340432882,0.001309929648414254,-0.0001971739256987348,0.0007520252838730812,0.01735770888626575,0.004303453024476767,XArbitraryCorrectedZVertical,-0.6401781230210449,-0.3148954750819659,0.3375959025077667,0.6140373092802259,0.04552788287401199,0.9988013505935669,0.01797437854111195,0.3440015316009521,45.44498062133789,19.58282089233398,1,10095.964287125,stationary,1,2016-03-02 02:29:22.547,null,0,0,0,0,null,10096.81225525,0,0,97.42352,192.168.1.101,100.78.239.175,2,1,0.44,0
2016-03-02 02:29:24.129,45,234B9614-18C8-49ED-8B56-CAB6C4F40872,my_iOS_device_1,1456907363.999997,40.79925160393193,-96.68575792582396,370.8291,0,-1,3,10,-9999,1456907364.12202,-1.149811744689941,43.15496826171875,19.3782958984375,9.044843673706055,5.767707347869873,25,10097.53270325,0.0430908203125,1.013290405273438,0.0243682861328125,10097.50160725,-0.02538285466565423,0.03717639723696112,-0.00891360016849521,10097.50160725,2.903303660474585,1.944030500711365,-1.521982344474244,-0.004507014062255621,0.00661248154938221,-0.002501175506040454,-0.0008032764308154583,0.00906470138579607,-0.005554369185119867,XArbitraryCorrectedZVertical,-0.6401291258481544,-0.3148502204987348,0.3375538677721092,0.6141346979652292,0.04543523490428925,0.9988088607788086,0.01779191754758358,0.3341493606567383,45.4512939453125,19.56833648681641,1,10095.964287125,stationary,1,2016-03-02 02:29:22.547,null,0,0,0,0,null,10096.81225525,0,0,97.42352,192.168.1.101,100.78.239.175,2,1,0.44,0
2016-03-02 02:29:24.160,46,234B9614-18C8-49ED-8B56-CAB6C4F40872,my_iOS_device_1,1456907363.999997,40.79925160393193,-96.68575792582396,370.8291,0,-1,3,10,-9999,1456907364.12202,-1.149811744689941,43.15496826171875,19.3782958984375,9.044843673706055,5.767707347869873,25,10097.56299025,0.0475921630859375,1.013214111328125,0.01727294921875,10097.53661825,-0.02112579166316256,0.04036979370007514,-0.00885341272785942,10097.53661825,2.905723771615733,1.946706712716368,-1.522023679875273,-0.0002502137504052371,0.009806129150092602,-0.002441072138026357,-0.00225823326036334,0.01447955518960953,0.006469994317740202,XArbitraryCorrectedZVertical,-0.6401890631327993,-0.3148128162851048,0.3374309865544617,0.6141589236188384,0.04534905403852463,0.9988108277320862,0.01789829134941101,0.3317036628723145,45.45285797119141,19.56475257873535,1,10095.964287125,stationary,1,2016-03-02 02:29:22.547,null,0,0,0,0,null,10096.81225525,0,0,97.42352,192.168.1.101,100.78.239.175,2,1,0.44,0
2016-03-02 02:29:24.193,47,234B9614-18C8-49ED-8B56-CAB6C4F40872,my_iOS_device_1,1456907363.999997,40.79925160393193,-96.68575792582396,370.8291,0,-1,3,10,-9999,1456907364.177445,-1.739579200744629,43.39866638183594,18.88299560546875,9.102310180664062,5.825174331665039,25,10097.59328825,0.0488739013671875,1.014434814453125,0.0155029296875,10097.57163025,-0.01476083665787319,0.03718731619743045,-0.007693606073129911,10097.53661825,2.905723771615733,1.946706712716368,-1.522023679875273,-0.0002502137504052371,0.009806129150092602,-0.002441072138026357,-0.00225823326036334,0.01447955518960953,0.006469994317740202,XArbitraryCorrectedZVertical,-0.6401890631327993,-0.3148128162851048,0.3374309865544617,0.6141589236188384,0.04534905403852463,0.9988108277320862,0.01789829134941101,0.3317036628723145,45.45285797119141,19.56475257873535,1,10095.964287125,stationary,1,2016-03-02 02:29:22.547,null,0,0,0,0,null,10096.81225525,0,0,97.42352,192.168.1.101,100.78.239.175,2,1,0.44,0
2016-03-02 02:29:24.223,48,234B9614-18C8-49ED-8B56-CAB6C4F40872,my_iOS_device_1,1456907363.999997,40.79925160393193,-96.68575792582396,370.8291,0,-1,3,10,-9999,1456907364.177445,-1.739579200744629,43.39866638183594,18.88299560546875,9.102310180664062,5.825174331665039,25,10097.62360825,0.0511932373046875,1.008712768554688,0.0177001953125,10097.60664225,-0.01154533595771151,0.03080345274840151,-0.009775132781135844,10097.57163025,2.905501996963796,1.946739986035974,-1.52204865739071,0.006065123248845339,0.006645564921200275,-0.0012791728368029,0.002266910625621676,0.01440204400569201,-0.0006176917813718319,XArbitraryCorrectedZVertical,-0.6402231080322064,-0.3147374976744619,0.3373465389910471,0.6142084272703682,0.04532525315880775,0.9988120794296265,0.01789064146578312,0.3197958469390869,45.44743347167969,19.57753372192383,1,10095.964287125,stationary,1,2016-03-02 02:29:22.547,null,0,0,0,0,null,10096.81225525,0,0,97.42352,192.168.1.101,100.78.239.175,2,1,0.44,0
2016-03-02 02:29:24.272,49,234B9614-18C8-49ED-8B56-CAB6C4F40872,my_iOS_device_1,1456907363.999997,40.79925160393193,-96.68575792582396,370.8291,0,-1,3,10,-9999,1456907364.238821,-1.496736526489258,43.71206665039062,18.91595458984375,9.161452293395996,5.884316444396973,25,10097.65391425,0.0464935302734375,1.010910034179688,0.0115509033203125,10097.64165225,-0.01583249268052107,0.02655251501641703,-0.007703726085272212,10097.60664225,2.898225767953587,1.939567935656007,-1.522170270297274,0.009281369857490063,0.0002618888975121081,-0.003360294038429856,0.001596939517185092,0.01493018306791782,0.0004077543271705508,XArbitraryCorrectedZVertical,-0.6401267759548901,-0.3146400675614104,0.3373795910740231,0.6143405815321432,0.04533909633755684,0.9988179802894592,0.0175213236361742,0.3174953460693359,45.4514274597168,19.56829833984375,1,10095.964287125,stationary,1,2016-03-02 02:29:22.547,null,0,0,0,0,null,10096.81225525,0,0,97.42352,192.168.1.101,100.78.239.175,2,1,0.44,0
2016-03-02 02:29:24.281,50,234B9614-18C8-49ED-8B56-CAB6C4F40872,my_iOS_device_1,1456907363.999997,40.79925160393193,-96.68575792582396,370.8291,0,-1,3,10,-9999,1456907364.238821,-1.496736526489258,43.71206665039062,18.91595458984375,9.161452293395996,5.884316444396973,25,10097.68421425,0.0489501953125,1.012496948242188,0.0239410400390625,10097.64165225,-0.01583249268052107,0.02655251501641703,-0.007703726085272212,10097.64165225,2.892598055774487,1.933911126424735,-1.522176248551017,0.004994046408683062,-0.00398888997733593,-0.001288059866055846,0.002389142289757729,0.009146811440587044,-6.579307228093967e-05,XArbitraryCorrectedZVertical,-0.6400561455716579,-0.3145780581791478,0.3374598984314618,0.6144018170373481,0.04543190449476242,0.9988182783126831,0.01726244762539864,0.317131519317627,45.4581184387207,19.55276298522949,1,10095.964287125,stationary,1,2016-03-02 02:29:22.547,null,0,0,0,0,null,10096.81225525,0,0,97.42352,192.168.1.101,100.78.239.175,2,1,0.44,0
2016-03-02 02:29:24.311,51,234B9614-18C8-49ED-8B56-CAB6C4F40872,my_iOS_device_1,1456907363.999997,40.79925160393193,-96.68575792582396,370.8291,0,-1,3,10,-9999,1456907364.295722,-0.9416637420654297,43.29425048828125,19.11407470703125,9.190170288085938,5.913033962249756,25,10097.71451425,0.0420379638671875,1.01422119140625,0.01666259765625,10097.67666025,-0.02862099223508157,0.03292918793050276,-0.005761216386168416,10097.67666025,2.892924712592368,1.93419718491249,-1.522104020687632,-0.007793944329023361,0.002387984888628125,0.0006547402590513229,0.002677603391930461,0.01250725798308849,0.002581114880740643,XArbitraryCorrectedZVertical,-0.6400715376825915,-0.3145774471331994,0.3374854007875486,0.6143720864907904,0.04549439251422882,0.9988147616386414,0.01730108633637428,0.3236634731292725,45.46516799926758,19.53625106811523,1,10095.964287125,stationary,1,2016-03-02 02:29:22.547,null,0,0,0,0,null,10096.81225525,0,0,97.42352,192.168.1.101,100.78.239.175,2,1,0.44,0
2016-03-02 02:29:24.353,52,234B9614-18C8-49ED-8B56-CAB6C4F40872,my_iOS_device_1,1456907363.999997,40.79925160393193,-96.68575792582396,370.8291,0,-1,3,10,-9999,1456907364.295722,-0.9416637420654297,43.29425048828125,19.11407470703125,9.190170288085938,5.913033962249756,25,10097.74481625,0.0452423095703125,1.012542724609375,0.0188751220703125,10097.71165925,-0.01686366865459975,0.03079945800676639,-0.009852364452748142,10097.71165925,2.899359352250932,1.94059289215707,-1.521902834976092,0.003906908445060253,0.0002748669066932052,-0.003434733022004366,0.001838883850723505,0.01546201668679714,0.004766092635691166,XArbitraryCorrectedZVertical,-0.6401902498235694,-0.3146245503793037,0.3374611160686206,0.614237601804998,0.04557017236948013,0.9988049268722534,0.01766432821750641,0.3293755054473877,45.45469665527344,19.56051254272461,1,10095.964287125,stationary,1,2016-03-02 02:29:22.547,null,0,0,0,0,null,10096.81225525,0,0,97.42352,192.168.1.101,100.78.239.175,2,1,0.44,0
2016-03-02 02:29:24.372,53,234B9614-18C8-49ED-8B56-CAB6C4F40872,my_iOS_device_1,1456907363.999997,40.79925160393193,-96.68575792582396,370.8291,0,-1,3,10,-9999,1456907364.354877,-0.8375892639160156,43.18977355957031,19.477294921875,9.184518814086914,5.907382488250732,25,10097.77511125,0.0500335693359375,1.012481689453125,0.018218994140625,10097.74665825,-0.017947575218262,0.02335778697275797,-0.008798551609403788,10097.74665825,2.900556535498196,1.941590131234562,-1.522227851252264,0.002822670387104154,-0.007166522555053234,-0.002381921047344804,-7.657474270672537e-06,0.01372194103896618,0.001282990793697536,XArbitraryCorrectedZVertical,-0.6400863303789037,-0.314778581416887,0.3374350725450795,0.6142812923732216,0.04524996876716614,0.9988207817077637,0.01759213209152222,0.3253967761993408,45.45468902587891,19.56059646606445,1,10095.964287125,stationary,1,2016-03-02 02:29:22.547,null,0,0,0,0,null,10096.81225525,0,0,97.42352,192.168.1.101,100.78.239.175,2,1,0.44,0
2016-03-02 02:29:24.402,54,234B9614-18C8-49ED-8B56-CAB6C4F40872,my_iOS_device_1,1456907363.999997,40.79925160393193,-96.68575792582396,370.8291,0,-1,3,10,-9999,1456907364.354877,-0.8375892639160156,43.18977355957031,19.477294921875,9.184518814086914,5.907382488250732,25,10097.80541625,0.04449462890625,1.012466430664062,0.0246734619140625,10097.78170025,-0.02008795778635869,0.02548591899984029,-0.007764978790344035,10097.74665825,2.900556535498196,1.941590131234562,-1.522227851252264,0.002822670387104154,-0.007166522555053234,-0.002381921047344804,-7.657474270672537e-06,0.01372194103896618,0.001282990793697536,XArbitraryCorrectedZVertical,-0.6400863303789037,-0.314778581416887,0.3374350725450795,0.6142812923732216,0.04524996876716614,0.9988207817077637,0.01759213209152222,0.3253967761993408,45.45468902587891,19.56059646606445,1,10095.964287125,stationary,1,2016-03-02 02:29:22.547,null,0,0,0,0,null,10096.81225525,0,0,97.42352,192.168.1.101,100.78.239.175,2,1,0.44,0
2016-03-02 02:29:24.433,55,234B9614-18C8-49ED-8B56-CAB6C4F40872,my_iOS_device_1,1456907363.999997,40.79925160393193,-96.68575792582396,370.8291,0,-1,3,10,-9999,1456907364.413408,-1.18450927734375,43.53794860839844,18.94891357421875,9.206080436706543,5.92894458770752,25,10097.83571825,0.046844482421875,1.01348876953125,0.021270751953125,10097.81670925,-0.01586018955585789,0.02868517441735248,-0.005573729845426837,10097.78170025,2.896587249816013,1.937425420889374,-1.52213658179828,0.0006820854032412171,-0.005038234405219555,-0.001347389770671725,0.004625625908374786,0.0136653408408165,0.0007827890804037452,XArbitraryCorrectedZVertical,-0.6400317431519372,-0.3147657387362917,0.3375697555535207,0.6142707526907027,0.04540794342756271,0.9988163709640503,0.01743620447814465,0.3206691741943359,45.45599746704102,19.55763244628906,1,10095.964287125,stationary,1,2016-03-02 02:29:22.547,null,0,0,0,0,null,10096.81225525,0,0,97.42352,192.168.1.101,100.78.239.175,2,1,0.44,0
2016-03-02 02:29:24.465,56,234B9614-18C8-49ED-8B56-CAB6C4F40872,my_iOS_device_1,1456907363.999997,40.79925160393193,-96.68575792582396,370.8291,0,-1,3,10,-9999,1456907364.413408,-1.18450927734375,43.53794860839844,18.94891357421875,9.206080436706543,5.92894458770752,25,10097.86602125,0.0429840087890625,1.011184692382812,0.0187225341796875,10097.85169325,-0.009489641912279349,0.03294649847758827,-0.00441765161622344,10097.81670925,2.900436003922582,1.941252397757915,-1.522123400249144,0.004907983355224133,-0.001838635187596083,0.0008435605559498072,-0.001407843665219843,0.01293356064707041,0.003335698740556836,XArbitraryCorrectedZVertical,-0.6400752557715307,-0.3148189579704697,0.3375300892619056,0.6142199357674933,0.04535315558314323,0.9988157153129578,0.01761461794376373,0.3295667171478271,45.45785522460938,19.55316734313965,1,10095.964287125,stationary,1,2016-03-02 02:29:22.547,null,0,0,0,0,null,10096.81225525,0,0,97.42352,192.168.1.101,100.78.239.175,2,1,0.44,0
2016-03-02 02:29:24.513,57,234B9614-18C8-49ED-8B56-CAB6C4F40872,my_iOS_device_1,1456907363.999997,40.79925160393193,-96.68575792582396,370.8291,0,-1,3,10,-9999,1456907364.475813,-1.149821281433105,43.36386108398438,18.849853515625,9.23161792755127,5.954482078552246,25,10097.89630325,0.053802490234375,1.010208129882812,0.0156402587890625,10097.88673325,-0.0254795274132241,0.02549657164420061,-0.002514556701252817,10097.85169325,2.897819280288668,1.938753182232039,-1.5220851405482,0.01127733383327723,0.002422919031232595,0.001999786123633385,0.002891891403123736,0.01427819672971964,0.003832083428278565,XArbitraryCorrectedZVertical,-0.6400751741681898,-0.3147399763273219,0.3375350710036899,0.6142577590535984,0.04543269425630569,0.9988138675689697,0.01751496270298958,0.3275837898254395,45.45443344116211,19.56115341186523,1,10095.964287125,stationary,1,2016-03-02 02:29:22.547,null,0,0,0,0,null,10096.81225525,0,0,97.42352,192.168.1.101,100.78.239.175,2,1,0.44,0
2016-03-02 02:29:24.527,58,234B9614-18C8-49ED-8B56-CAB6C4F40872,my_iOS_device_1,1456907363.999997,40.79925160393193,-96.68575792582396,370.8291,0,-1,3,10,-9999,1456907364.475813,-1.149821281433105,43.36386108398438,18.849853515625,9.23161792755127,5.954482078552246,25,10097.92662225,0.0491180419921875,1.010391235351562,0.022247314453125,10097.92173625,-0.02118491383936232,0.02017397788956824,-0.005646700459295008,10097.88673325,2.891397965021053,1.932259923358591,-1.522146813623702,-0.004776595160365105,-0.005017046350985765,0.003902611089870334,0.003996408078819513,0.01223051734268665,-0.004288868978619576,XArbitraryCorrectedZVertical,-0.6399738000309139,-0.3146941970087206,0.337626460224036,0.6143366104991559,0.04548784345388412,0.9988168478012085,0.01719780452549458,0.3282535076141357,45.46144866943359,19.54483222961426,1,10097.90853825,unknown,1,2016-03-02 02:29:24.486,null,0,0,0,0,null,10096.81225525,0,0,97.42352,192.168.1.101,100.78.239.175,2,1,0.44,0
2016-03-02 02:29:24.555,59,234B9614-18C8-49ED-8B56-CAB6C4F40872,my_iOS_device_1,1456907363.999997,40.79925160393193,-96.68575792582396,370.8291,0,-1,3,10,-9999,1456907364.531237,-0.9416704177856445,43.64239501953125,18.9158935546875,9.249939918518066,5.972803592681885,25,10097.95693825,0.0474700927734375,1.011886596679688,0.018798828125,10097.92173625,-0.02118491383936232,0.02017397788956824,-0.005646700459295008,10097.92173625,2.893428307379378,1.934036855530962,-1.521666385938087,-0.0004826666845474392,-0.01033948361873627,0.0007721484871581197,0.00743896933272481,0.01429867371916771,0.006491939071565866,XArbitraryCorrectedZVertical,-0.6400773669900596,-0.3146831973200443,0.337792550084577,0.6141430148579731,0.04590575769543648,0.998793363571167,0.01744910143315792,0.3417811393737793,45.46205902099609,19.54317855834961,1,10097.90853825,unknown,1,2016-03-02 02:29:24.486,null,0,0,0,0,null,10096.81225525,0,0,97.42352,192.168.1.101,100.78.239.175,2,1,0.44,0
