loggingTime,loggingSample,identifierForVendor,deviceID,locationTimestamp_since1970,locationLatitude,locationLongitude,locationAltitude,locationSpeed,locationCourse,locationVerticalAccuracy,locationHorizontalAccuracy,locationFloor,locationHeadingTimestamp_since1970,locationHeadingX,locationHeadingY,locationHeadingZ,locationTrueHeading,locationMagneticHeading,locationHeadingAccuracy,accelerometerTimestamp_sinceReboot,accelerometerAccelerationX,accelerometerAccelerationY,accelerometerAccelerationZ,gyroTimestamp_sinceReboot,gyroRotationX,gyroRotationY,gyroRotationZ,motionTimestamp_sinceReboot,motionYaw,motionRoll,motionPitch,motionRotationRateX,motionRotationRateY,motionRotationRateZ,motionUserAccelerationX,motionUserAccelerationY,motionUserAccelerationZ,motionAttitudeReferenceFrame,motionQuaternionX,motionQuaternionY,motionQuaternionZ,motionQuaternionW,motionGravityX,motionGravityY,motionGravityZ,motionMagneticFieldX,motionMagneticFieldY,motionMagneticFieldZ,motionMagneticFieldCalibrationAccuracy,activityTimestamp_sinceReboot,activity,activityActivityConfidence,activityActivityStartDate,pedometerStartDate,pedometerNumberofSteps,pedometerDistance,pedometerFloorAscended,pedometerFloorDescended,pedometerEndDate,altimeterTimestamp_sinceReboot,altimeterReset,altimeterRelativeAltitude,altimeterPressure,IP_en0,IP_pdp_ip0,deviceOrientation,batteryState,batteryLevel,state
2016-03-02 02:29:03.238,1,234B9614-18C8-49ED-8B56-CAB6C4F40872,my_iOS_device_1,1456907342.999997,40.79925160393193,-96.68575792582396,371.3382,0,-1,3,10,-9999,1456907343.229501,-1.985820770263672,44.91108703613281,21.5452880859375,10.41015434265137,7.133018016815186,25,10076.6280025,0.0388336181640625,1.026046752929688,-0.0120391845703125,10076.6002695,-0.1219560000107616,0.0381231510044843,-0.0263027105061676,10076.6002695,2.74553952374345,1.777069837484098,-1.53045877240425,-0.1014586687088013,0.007458213716745377,-0.02000254951417446,-0.01569853723049164,0.008030856028199196,0.08062300086021423,XArbitraryCorrectedZVertical,-0.6347673702170374,-0.318119647707839,0.3401071423677119,0.6166014978577624,0.03947173058986664,0.9991865754127502,0.008259449154138565,0.1868280172348022,46.19163513183594,21.01911163330078,1,10076.5744805,stationary,1,2016-03-02 02:29:03.157,null,0,0,0,0,null,10075.796830125,0,-0.3378601,97.42744,192.168.1.101,100.78.239.175,1,1,0.44,0
2016-03-02 02:29:03.255,2,234B9614-18C8-49ED-8B56-CAB6C4F40872,my_iOS_device_1,1456907342.999997,40.79925160393193,-96.68575792582396,371.3382,0,-1,3,10,-9999,1456907343.229501,-1.985820770263672,44.91108703613281,21.5452880859375,10.41015434265137,7.133018016815186,25,10076.6583075,0.0354766845703125,1.008270263671875,0.0254058837890625,10076.6352805,-0.02117532645943804,0.03293478056879192,-0.005653092045911199,10076.6352805,2.711219524910299,1.742629893733471,-1.530538355902259,-0.0006781208794564009,0.00227002939209342,0.0006470304797403514,-0.0008207563078030944,0.02685699611902237,-0.01892100274562836,XArbitraryCorrectedZVertical,-0.6343477137753587,-0.3178740120032446,0.3404283524275743,0.6169826799711351,0.03965437412261963,0.9991897344589233,0.006881819106638432,0.1378073692321777,46.07653427124023,21.27062225341797,1,10076.5744805,stationary,1,2016-03-02 02:29:03.157,null,0,0,0,0,null,10075.796830125,0,-0.3378601,97.42744,192.168.1.101,100.78.239.175,1,1,0.44,0
2016-03-02 02:29:03.285,3,234B9614-18C8-49ED-8B56-CAB6C4F40872,my_iOS_device_1,1456907342.999997,40.79925160393193,-96.68575792582396,371.3382,0,-1,3,10,-9999,1456907343.229501,-1.985820770263672,44.91108703613281,21.5452880859375,10.41015434265137,7.133018016815186,25,10076.6886065,0.0391387939453125,1.01129150390625,0.001678466796875,10076.6703015,-0.001978196057710858,0.04251097521649885,-0.008576443974491178,10076.6352805,2.711219524910299,1.742629893733471,-1.530538355902259,-0.0006781208794564009,0.00227002939209342,0.0006470304797403514,-0.0008207563078030944,0.02685699611902237,-0.01892100274562836,XArbitraryCorrectedZVertical,-0.6343477137753587,-0.3178740120032446,0.3404283524275743,0.6169826799711351,0.03965437412261963,0.9991897344589233,0.006881819106638432,0.1378073692321777,46.07653427124023,21.27062225341797,1,10076.5744805,stationary,1,2016-03-02 02:29:03.157,null,0,0,0,0,null,10075.796830125,0,-0.3378601,97.42744,192.168.1.101,100.78.239.175,1,1,0.44,0
2016-03-02 02:29:03.316,4,234B9614-18C8-49ED-8B56-CAB6C4F40872,my_iOS_device_1,1456907342.999997,40.79925160393193,-96.68575792582396,371.3382,0,-1,3,10,-9999,1456907343.287707,-1.604203224182129,44.73698425292969,20.98394775390625,9.908374786376953,6.63123893737793,25,10076.7189055,0.041839599609375,1.011260986328125,0.0059051513671875,10076.6703015,-0.001978196057710858,0.04251097521649885,-0.008576443974491178,10076.6703015,2.716385500226782,1.748152363480752,-1.530643671817304,0.0185188464820385,0.01184646878391504,-0.002276372164487839,-0.005317239090800285,0.01099888049066067,0.01212867815047503,XArbitraryCorrectedZVertical,-0.6344443120539405,-0.3178387697907917,0.3402412347389952,0.6170047272943233,0.03951218351721764,0.9991939663887024,0.007082137279212475,0.1283813714981079,46.06815338134766,21.288818359375,1,10076.5744805,stationary,1,2016-03-02 02:29:03.157,null,0,0,0,0,null,10075.796830125,0,-0.3378601,97.42744,192.168.1.101,100.78.239.175,1,1,0.44,0
2016-03-02 02:29:03.346,5,234B9614-18C8-49ED-8B56-CAB6C4F40872,my_iOS_device_1,1456907342.999997,40.79925160393193,-96.68575792582396,371.3382,0,-1,3,10,-9999,1456907343.287707,-1.604203224182129,44.73698425292969,20.98394775390625,9.908374786376953,6.63123893737793,25,10076.7492065,0.047027587890625,1.011154174804688,0.0052032470703125,10076.7052995,-0.02649951811072445,0.04463111776031093,-0.004670651919780968,10076.7052995,2.714702167618916,1.74702308766709,-1.530647838306801,-0.006002598442137241,0.01396679319441319,0.001629382371902466,0.0002636039862409234,0.01060198526829481,-0.001787759363651276,XArbitraryCorrectedZVertical,-0.6345188036219694,-0.3176543392860839,0.3400789805858667,0.6171125469041475,0.03951605781912804,0.9991941452026367,0.007036782801151276,0.1128607988357544,46.07486724853516,21.27436828613281,1,10076.5744805,stationary,1,2016-03-02 02:29:03.157,null,0,0,0,0,null,10075.796830125,0,-0.3378601,97.42744,192.168.1.101,100.78.239.175,1,1,0.44,0
2016-03-02 02:29:03.392,6,234B9614-18C8-49ED-8B56-CAB6C4F40872,my_iOS_device_1,1456907342.999997,40.79925160393193,-96.68575792582396,371.3382,0,-1,3,10,-9999,1456907343.346824,-1.326664924621582,45.01553344726562,20.78582763671875,9.403243064880371,6.126106739044189,25,10076.7794955,0.043670654296875,1.011459350585938,0.008514404296875,10076.7402985,-0.03181199185321452,0.03292679108552168,-0.005807555389135795,10076.7402985,2.720011379083343,1.752598826803158,-1.530556804839368,-0.01131523493677378,0.002262713154777884,0.0004924287786707282,0.006164920050650835,0.01210100390017033,-0.005411877296864986,XArbitraryCorrectedZVertical,-0.6346428141334481,-0.3175928575112916,0.3399730577362874,0.6170750321800492,0.03956567123532295,0.9991905093193054,0.007273449562489986,0.1078156232833862,46.07231903076172,21.27992248535156,1,10076.5744805,stationary,1,2016-03-02 02:29:03.157,null,0,0,0,0,null,10075.796830125,0,-0.3378601,97.42744,192.168.1.101,100.78.239.175,1,1,0.44,0
2016-03-02 02:29:03.411,7,234B9614-18C8-49ED-8B56-CAB6C4F40872,my_iOS_device_1,1456907342.999997,40.79925160393193,-96.68575792582396,371.3382,0,-1,3,10,-9999,1456907343.346824,-1.326664924621582,45.01553344726562,20.78582763671875,9.403243064880371,6.126106739044189,25,10076.8097855,0.03912353515625,1.0152587890625,0.01177978515625,10076.7753405,-0.03395130915687517,0.01697418983983804,-0.005830458574510476,10076.7753405,2.733163362561577,1.76553504528068,-1.530309809027395,-0.01345445774495602,-0.0136897275224328,0.0004704465973190963,0.005745531059801579,0.01287391036748886,-0.0005844891420565546,XArbitraryCorrectedZVertical,-0.6348057945788013,-0.3177071137598881,0.339992196654412,0.616837984603434,0.0397104024887085,0.9991805553436279,0.007832413539290428,0.1060272455215454,46.07077407836914,21.28327178955078,1,10076.5744805,stationary,1,2016-03-02 02:29:03.157,null,0,0,0,0,null,10075.796830125,0,-0.3378601,97.42744,192.168.1.101,100.78.239.175,1,1,0.44,0
2016-03-02 02:29:03.441,8,234B9614-18C8-49ED-8B56-CAB6C4F40872,my_iOS_device_1,1456907342.999997,40.79925160393193,-96.68575792582396,371.3382,0,-1,3,10,-9999,1456907343.412073,-1.257279396057129,44.80662536621094,20.7857666015625,9.125948905944824,5.848812580108643,25,10076.8400905,0.0379180908203125,1.014144897460938,0.0067901611328125,10076.8103495,-0.03498488197593492,0.01803093216038148,-0.007977499045332358,10076.8103495,2.748296417534972,1.780200416398647,-1.530207792382209,-0.01448869798332453,-0.01263272017240524,-0.001676613464951515,-0.0005674411659128964,0.01608239114284515,0.003344677155837417,XArbitraryCorrectedZVertical,-0.6349162934128774,-0.3179604604263586,0.340030838422557,0.6165723598134644,0.03969097509980202,0.9991763830184937,0.00843510776758194,0.1186122894287109,46.04957580566406,21.32902526855469,1,10076.5744805,stationary,1,2016-03-02 02:29:03.157,null,0,0,0,0,null,10075.796830125,0,-0.3378601,97.42744,192.168.1.101,100.78.239.175,1,1,0.44,0
2016-03-02 02:29:03.472,9,234B9614-18C8-49ED-8B56-CAB6C4F40872,my_iOS_device_1,1456907342.999997,40.79925160393193,-96.68575792582396,371.3382,0,-1,3,10,-9999,1456907343.463645,-1.396045684814453,44.38874816894531,20.9178466796875,9.401225090026855,6.124089241027832,25,10076.8703975,0.0396575927734375,1.009857177734375,0.00311279296875,10076.8453585,-0.03401389344249203,0.01166890663229119,-0.001565672404857584,10076.8453585,2.75745599651112,1.788729810082851,-1.530149100823144,-0.01351764239370823,-0.01899455673992634,0.004734458401799202,-0.001756752259097993,0.01497088186442852,-0.001995855243876576,XArbitraryCorrectedZVertical,-0.6349228674428897,-0.3182231302697415,0.3401620783404124,0.6163576495984602,0.03967484459280968,0.9991739988327026,0.008786016143858433,0.1306219100952148,46.03742980957031,21.35516357421875,1,10076.5744805,stationary,1,2016-03-02 02:29:03.157,null,0,0,0,0,null,10075.796830125,0,-0.3378601,97.42744,192.168.1.101,100.78.239.175,1,1,0.44,0
2016-03-02 02:29:03.495,10,234B9614-18C8-49ED-8B56-CAB6C4F40872,my_iOS_device_1,1456907342.999997,40.79925160393193,-96.68575792582396,371.3382,0,-1,3,10,-9999,1456907343.463645,-1.396045684814453,44.38874816894531,20.9178466796875,9.401225090026855,6.124089241027832,25,10076.9006805,0.035369873046875,1.014236450195312,0.010955810546875,10076.8803735,-0.03396755443952465,0.01485031887049985,-0.004763862557933742,10076.8453585,2.75745599651112,1.788729810082851,-1.530149100823144,-0.01351764239370823,-0.01899455673992634,0.004734458401799202,-0.001756752259097993,0.01497088186442852,-0.001995855243876576,XArbitraryCorrectedZVertical,-0.6349228674428897,-0.3182231302697415,0.3401620783404124,0.6163576495984602,0.03967484459280968,0.9991739988327026,0.008786016143858433,0.1306219100952148,46.03742980957031,21.35516357421875,1,10076.5744805,stationary,1,2016-03-02 02:29:03.157,null,0,0,0,0,null,10075.796830125,0,-0.3378601,97.42744,192.168.1.101,100.78.239.175,1,1,0.44,0
2016-03-02 02:29:03.529,11,234B9614-18C8-49ED-8B56-CAB6C4F40872,my_iOS_device_1,1456907342.999997,40.79925160393193,-96.68575792582396,371.3382,0,-1,3,10,-9999,1456907343.522456,-1.361351013183594,44.84144592285156,21.2149658203125,9.401580810546875,6.124444961547852,25,10076.9309985,0.033538818359375,1.010223388671875,0.0050506591796875,10076.9153645,-0.02968945246442136,0.02654798764256389,-0.005773466927182781,10076.8803735,2.758104674621205,1.788750579710115,-1.530016349381161,-0.01346867810934782,-0.01581303961575031,0.001536256517283618,-0.000146571226650849,0.01068856567144394,-0.005702728871256113,XArbitraryCorrectedZVertical,-0.6348526353279413,-0.3183863885000639,0.3403907422200607,0.6162194265405074,0.03980416432023048,0.9991686344146729,0.0088155223056674,0.1401365995407104,46.03622436523438,21.35770034790039,1,10076.5744805,stationary,1,2016-03-02 02:29:03.157,null,0,0,0,0,null,10075.796830125,0,-0.3378601,97.42744,192.168.1.101,100.78.239.175,1,1,0.44,0
2016-03-02 02:29:03.561,12,234B9614-18C8-49ED-8B56-CAB6C4F40872,my_iOS_device_1,1456907342.999997,40.79925160393193,-96.68575792582396,371.3382,0,-1,3,10,-9999,1456907343.522456,-1.361351013183594,44.84144592285156,21.2149658203125,9.401580810546875,6.124444961547852,25,10076.9612975,0.0388641357421875,1.009857177734375,0.0055389404296875,10076.9503915,-0.03707093605779399,0.03397447865835886,-0.01014744270152892,10076.9153645,2.770989788215612,1.801289610817886,-1.530319996055355,-0.009190960787236691,-0.004115081857889891,0.0005234297714196146,-0.005902085453271866,0.01429256517440081,0.001344991265796125,XArbitraryCorrectedZVertical,-0.6348662641262365,-0.3186959849422635,0.3402996556973945,0.6160956420786402,0.03939512744545937,0.9991809725761414,0.009244608692824841,0.1529333591461182,46.03105163574219,21.3687572479248,1,10076.5744805,stationary,1,2016-03-02 02:29:03.157,null,0,0,0,0,null,10075.796830125,0,-0.3378601,97.42744,192.168.1.101,100.78.239.175,1,1,0.44,0
2016-03-02 02:29:03.588,13,234B9614-18C8-49ED-8B56-CAB6C4F40872,my_iOS_device_1,1456907342.999997,40.79925160393193,-96.68575792582396,371.3382,0,-1,3,10,-9999,1456907343.580753,-1.465427398681641,44.94590759277344,21.38006591796875,9.404457092285156,6.127321243286133,25,10076.9915955,0.0353851318359375,1.011703491210938,0.0067138671875,10076.9503915,-0.03707093605779399,0.03397447865835886,-0.01014744270152892,10076.9503915,2.775611356419667,1.805799994168277,-1.530681656205932,-0.01657086983323097,0.003311570035293698,-0.003853252157568932,-0.004684579558670521,0.0104175228625536,-0.004851973615586758,XArbitraryCorrectedZVertical,-0.6348151603941494,-0.318871041398554,0.3401965437451678,0.6161146668559146,0.03900159522891045,0.9991955161094666,0.009338057599961758,0.1501806974411011,46.02560424804688,21.38051414489746,1,10076.5744805,stationary,1,2016-03-02 02:29:03.157,null,0,0,0,0,null,10075.796830125,0,-0.3378601,97.42744,192.168.1.101,100.78.239.175,1,1,0.44,0
2016-03-02 02:29:03.632,14,234B9614-18C8-49ED-8B56-CAB6C4F40872,my_iOS_device_1,1456907342.999997,40.79925160393193,-96.68575792582396,371.3382,0,-1,3,10,-9999,1456907343.580753,-1.465427398681641,44.94590759277344,21.38006591796875,9.404457092285156,6.127321243286133,25,10077.0218935,0.0316162109375,1.016357421875,0.0138092041015625,10076.9854065,-0.03494200508238465,0.03610287700155018,-0.01011761529732003,10076.9854065,2.782547431721378,1.8128851171201,-1.530843816893753,-0.01444021705538034,0.005440161097794771,-0.003824222832918167,-0.00134734099265188,0.0133559787645936,-0.002556265564635396,XArbitraryCorrectedZVertical,-0.6348771600743411,-0.3189336072457093,0.3400418216307721,0.6161038105118209,0.03877715021371841,0.9992020130157471,0.009575308300554752,0.1284186840057373,46.02202606201172,21.38835334777832,1,10076.5744805,stationary,1,2016-03-02 02:29:03.157,null,0,0,0,0,null,10075.796830125,0,-0.3378601,97.42744,192.168.1.101,100.78.239.175,1,1,0.44,0
2016-03-02 02:29:03.654,15,234B9614-18C8-49ED-8B56-CAB6C4F40872,my_iOS_device_1,1456907342.999997,40.79925160393193,-96.68575792582396,371.3382,0,-1,3,10,-9999,1456907343.639597,-1.742971420288086,44.59773254394531,21.44610595703125,9.413942337036133,6.136806488037109,25,10077.0521895,0.034210205078125,1.00823974609375,0.003814697265625,10077.0204115,-0.03061996094929505,0.04779175734201697,-0.01432381192299118,10077.0204115,2.798186661404543,1.828945371993366,-1.531196025535286,-0.01011849660426378,0.01712924242019653,-0.008032523095607758,-0.005013945978134871,0.01737029291689396,0.003778524929657578,XArbitraryCorrectedZVertical,-0.6350305895263098,-0.3190448822231914,0.3396694921837219,0.6160934584725688,0.03827810660004616,0.9992160201072693,0.01010697335004807,0.09515869617462158,46.01020050048828,21.4139518737793,1,10076.5744805,stationary,1,2016-03-02 02:29:03.157,null,0,0,0,0,null,10075.796830125,0,-0.3378601,97.42744,192.168.1.101,100.78.239.175,1,1,0.44,0
2016-03-02 02:29:03.679,16,234B9614-18C8-49ED-8B56-CAB6C4F40872,my_iOS_device_1,1456907342.999997,40.79925160393193,-96.68575792582396,371.3382,0,-1,3,10,-9999,1456907343.639597,-1.742971420288086,44.59773254394531,21.44610595703125,9.413942337036133,6.136806488037109,25,10077.0824895,0.0346832275390625,1.01116943359375,0.0138397216796875,10077.0554235,-0.02003362930012107,0.03930133347073535,-0.01096849526560035,10077.0554235,2.801865085607224,1.833096291073902,-1.531744532556095,0.0004678653203882277,0.008639083243906498,-0.004680009558796883,-0.003496281569823623,0.009002170525491238,-0.006308958400040865,XArbitraryCorrectedZVertical,-0.6350203616232485,-0.3190783102649835,0.3393440220016911,0.6162660196489976,0.03770648688077927,0.999237596988678,0.01012365520000458,0.07061123847961426,46.00350952148438,21.42841720581055,1,10076.5744805,stationary,1,2016-03-02 02:29:03.157,null,0,0,0,0,null,10075.796830125,0,-0.3378601,97.42744,192.168.1.101,100.78.239.175,1,1,0.44,0
2016-03-02 02:29:03.713,17,234B9614-18C8-49ED-8B56-CAB6C4F40872,my_iOS_device_1,1456907342.999997,40.79925160393193,-96.68575792582396,371.3382,0,-1,3,10,-9999,1456907343.699669,-1.708279609680176,44.07539367675781,21.545166015625,9.42914867401123,6.152012348175049,25,10077.1127735,0.033233642578125,1.0166015625,0.0193939208984375,10077.0904385,-0.03275954456906471,0.05098328959236793,-0.01329077173614945,10077.0554235,2.801865085607224,1.833096291073902,-1.531744532556095,0.0004678653203882277,0.008639083243906498,-0.004680009558796883,-0.003496281569823623,0.009002170525491238,-0.006308958400040865,XArbitraryCorrectedZVertical,-0.6350203616232485,-0.3190783102649835,0.3393440220016911,0.6162660196489976,0.03770648688077927,0.999237596988678,0.01012365520000458,0.07061123847961426,46.00350952148438,21.42841720581055,1,10076.5744805,stationary,1,2016-03-02 02:29:03.157,null,0,0,0,0,null,10077.1092705,0,-0.2537842,97.42647,192.168.1.101,100.78.239.175,1,1,0.44,0
2016-03-02 02:29:03.739,18,234B9614-18C8-49ED-8B56-CAB6C4F40872,my_iOS_device_1,1456907342.999997,40.79925160393193,-96.68575792582396,371.3382,0,-1,3,10,-9999,1456907343.699669,-1.708279609680176,44.07539367675781,21.545166015625,9.42914867401123,6.152012348175049,25,10077.1430675,0.0389556884765625,1.00531005859375,0.0081329345703125,10077.1254485,-0.01900831228044056,0.04675472241354011,-0.007760185100381892,10077.0904385,2.811159779552397,1.84283390586383,-1.531986947985952,-0.01225778087973595,0.02032121829688549,-0.007003129459917545,-0.002689569024369121,0.01192242279648781,0.003414466977119446,XArbitraryCorrectedZVertical,-0.6351319321279675,-0.3190925509942776,0.339054207706814,0.6163031858814663,0.03737279772758484,0.9992470145225525,0.01042525470256805,0.0383298397064209,46.00631332397461,21.4224739074707,1,10076.5744805,stationary,1,2016-03-02 02:29:03.157,null,0,0,0,0,null,10077.1092705,0,-0.2537842,97.42647,192.168.1.101,100.78.239.175,1,1,0.44,0
2016-03-02 02:29:03.791,19,234B9614-18C8-49ED-8B56-CAB6C4F40872,my_iOS_device_1,1456907342.999997,40.79925160393193,-96.68575792582396,371.3382,0,-1,3,10,-9999,1456907343.758211,-1.60420036315918,44.31912231445312,21.6441650390625,9.434088706970215,6.156952381134033,25,10077.1733895,0.0351104736328125,1.01025390625,0.007598876953125,10077.1604535,-0.04131202009374518,0.05204908666061764,-0.01021828278652503,10077.1254485,2.830927763527711,1.863343532922517,-1.532229365183514,0.001489364774897695,0.01609299890697002,-0.001474932651035488,-0.0005574952811002731,0.01166890561580658,0.005207252688705921,XArbitraryCorrectedZVertical,-0.6353944219323268,-0.3191140146302691,0.3385701819738596,0.616287600168952,0.03691918775439262,0.9992563724517822,0.01111965160816908,-0.002648353576660156,45.99150085449219,21.45429992675781,1,10076.5744805,stationary,1,2016-03-02 02:29:03.157,null,0,0,0,0,null,10077.1092705,0,-0.2537842,97.42647,192.168.1.101,100.78.239.175,1,1,0.44,0
2016-03-02 02:29:03.802,20,234B9614-18C8-49ED-8B56-CAB6C4F40872,my_iOS_device_1,1456907342.999997,40.79925160393193,-96.68575792582396,371.3382,0,-1,3,10,-9999,1456907343.758211,-1.60420036315918,44.31912231445312,21.6441650390625,9.434088706970215,6.156952381134033,25,10077.2036905,0.0423126220703125,1.01446533203125,0.0135498046875,10077.1604535,-0.04131202009374518,0.05204908666061764,-0.01021828278652503,10077.1604535,2.837921816142813,1.871026474754051,-1.532137298555832,-0.02081334590911865,0.02138751186430454,-0.003932233899831772,0.002431865083053708,0.008132421411573887,-0.004685791209340096,XArbitraryCorrectedZVertical,-0.6356012006886058,-0.3189454525371695,0.3383069857365264,0.6163061701710524,0.03692055121064186,0.9992528557777405,0.0114301759749651,-0.01721107959747314,45.9857177734375,21.4666862487793,1,10076.5744805,stationary,1,2016-03-02 02:29:03.157,null,0,0,0,0,null,10077.1092705,0,-0.2537842,97.42647,192.168.1.101,100.78.239.175,1,1,0.44,0
2016-03-02 02:29:03.833,21,234B9614-18C8-49ED-8B56-CAB6C4F40872,my_iOS_device_1,1456907342.999997,40.79925160393193,-96.68575792582396,371.3382,0,-1,3,10,-9999,1456907343.815469,-1.187889099121094,44.66732788085938,21.7762451171875,9.416064262390137,6.138928413391113,25,10077.2339905,0.0426177978515625,1.011383056640625,0.0078582763671875,10077.1954475,-0.03502110096676,0.04781785632069974,-0.003730289738873989,10077.1954475,2.852084716698156,1.885934499187743,-1.532048620619481,-0.01452164631336927,0.01715651340782642,0.002555174753069878,0.0002485554432496428,0.0169249139726162,0.003129955846816301,XArbitraryCorrectedZVertical,-0.6358851914816396,-0.3188313107546856,0.3379541052633308,0.6162658852090153,0.03683030232787132,0.9992493987083435,0.01200676336884499,-0.02437484264373779,45.9822883605957,21.4740161895752,1,10076.5744805,stationary,1,2016-03-02 02:29:03.157,null,0,0,0,0,null,10077.1092705,0,-0.2537842,97.42647,192.168.1.101,100.78.239.175,1,1,0.44,0
2016-03-02 02:29:03.873,22,234B9614-18C8-49ED-8B56-CAB6C4F40872,my_iOS_device_1,1456907342.999997,40.79925160393193,-96.68575792582396,371.3382,0,-1,3,10,-9999,1456907343.815469,-1.187889099121094,44.66732788085938,21.7762451171875,9.416064262390137,6.138928413391113,25,10077.2642915,0.03985595703125,1.012115478515625,0.0136260986328125,10077.2304765,-0.036029373755464,0.04355173857050181,-0.008005728552887198,10077.2304765,2.856708792713166,1.891065849033371,-1.531583925576471,-0.01552887726575136,0.01289052609354258,-0.001717827981337905,0.005469895899295807,0.01346402056515217,-0.006665508728474379,XArbitraryCorrectedZVertical,-0.6361303373007356,-0.3186049013992531,0.3378599286019515,0.6161816123636689,0.03720893710851669,0.9992312788963318,0.01234177872538567,-0.04873800277709961,45.96290969848633,21.51542472839355,1,10076.5744805,stationary,1,2016-03-02 02:29:03.157,null,0,0,0,0,null,10077.1092705,0,-0.2537842,97.42647,192.168.1.101,100.78.239.175,1,1,0.44,0
2016-03-02 02:29:03.893,23,234B9614-18C8-49ED-8B56-CAB6C4F40872,my_iOS_device_1,1456907342.999997,40.79925160393193,-96.68575792582396,371.3382,0,-1,3,10,-9999,1456907343.875085,-1.43073844909668,44.77178955078125,21.6112060546875,9.411555290222168,6.134418964385986,25,10077.2945935,0.0411529541015625,1.010910034179688,0.0036468505859375,10077.2654755,-0.03711487821578029,0.03398326708995612,-0.006950850445106811,10077.2654755,2.868853319292561,1.903425866583431,-1.531306965195832,-0.01660363376140594,0.003359603462740779,-0.0006794286891818047,0.002540826331824064,0.01289508212357759,0.0007350057712756097,XArbitraryCorrectedZVertical,-0.6363524685070762,-0.3185923449645286,0.337735761764281,0.6160267922586127,0.03731513023376465,0.9992203712463379,0.01289109326899052,-0.04198670387268066,45.95653533935547,21.529052734375,1,10076.5744805,stationary,1,2016-03-02 02:29:03.157,null,0,0,0,0,null,10077.1092705,0,-0.2537842,97.42647,192.168.1.101,100.78.239.175,1,1,0.44,0
2016-03-02 02:29:03.924,24,234B9614-18C8-49ED-8B56-CAB6C4F40872,my_iOS_device_1,1456907342.999997,40.79925160393193,-96.68575792582396,371.3382,0,-1,3,10,-9999,1456907343.875085,-1.43073844909668,44.77178955078125,21.6112060546875,9.411555290222168,6.134418964385986,25,10077.3248955,0.0354461669921875,1.009567260742188,0.005126953125,10077.3004885,-0.03818653423842818,0.0233484659089427,-0.006960970457249113,10077.3004885,2.868448948800953,1.902866682724733,-1.531090277664527,-0.01767249219119549,-0.007275112438946962,-0.0006885242182761431,0.003625931451097131,0.01169821619987488,-0.009293959476053715,XArbitraryCorrectedZVertical,-0.6363768418813869,-0.3185826737785555,0.3378409652407599,0.6159489242545623,0.03752702102065086,0.999211847782135,0.01294081006199121,-0.04204082489013672,45.94831085205078,21.54659271240234,1,10076.5744805,stationary,1,2016-03-02 02:29:03.157,null,0,0,0,0,null,10077.1092705,0,-0.2537842,97.42647,192.168.1.101,100.78.239.175,1,1,0.44,0
2016-03-02 02:29:03.954,25,234B9614-18C8-49ED-8B56-CAB6C4F40872,my_iOS_device_1,1456907342.999997,40.79925160393193,-96.68575792582396,371.3382,0,-1,3,10,-9999,1456907343.933388,-1.777664184570312,44.49324035644531,21.281005859375,9.41948127746582,6.142345428466797,25,10077.3551815,0.0367279052734375,1.0125732421875,0.0038909912109375,10077.3355145,-0.05307067525477203,0.03290788264178212,-0.00718201282772569,10077.3004885,2.868448948800953,1.902866682724733,-1.531090277664527,-0.01767249219119549,-0.007275112438946962,-0.0006885242182761431,0.003625931451097131,0.01169821619987488,-0.009293959476053715,XArbitraryCorrectedZVertical,-0.6363768418813869,-0.3185826737785555,0.3378409652407599,0.6159489242545623,0.03752702102065086,0.999211847782135,0.01294081006199121,-0.04204082489013672,45.94831085205078,21.54659271240234,1,10076.5744805,stationary,1,2016-03-02 02:29:03.157,null,0,0,0,0,null,10077.1092705,0,-0.2537842,97.42647,192.168.1.101,100.78.239.175,1,1,0.44,0
2016-03-02 02:29:03.985,26,234B9614-18C8-49ED-8B56-CAB6C4F40872,my_iOS_device_1,1456907342.999997,40.79925160393193,-96.68575792582396,371.3382,0,-1,3,10,-9999,1456907343.933388,-1.777664184570312,44.49324035644531,21.281005859375,9.41948127746582,6.142345428466797,25,10077.3854835,0.0377044677734375,1.01470947265625,0.009429931640625,10077.3705245,-0.0572742087193531,0.04246650042629452,-0.01044518411139978,10077.3355145,2.876587033571803,1.910874021145257,-1.531066664515089,-0.03255240619182587,0.002284403890371323,-0.0009096891153603792,-0.0005944668664596975,0.01121087186038494,-0.01004440803080797,XArbitraryCorrectedZVertical,-0.6364387565815874,-0.3187006210890208,0.3378047310908537,0.6158438007246424,0.03744444251060486,0.9992108941078186,0.01324875373393297,-0.02758693695068359,45.94722747802734,21.54892921447754,1,10076.5744805,stationary,1,2016-03-02 02:29:03.157,null,0,0,0,0,null,10077.1092705,0,-0.2537842,97.42647,192.168.1.101,100.78.239.175,1,1,0.44,0
2016-03-02 02:29:04.032,27,234B9614-18C8-49ED-8B56-CAB6C4F40872,my_iOS_device_1,1456907342.999997,40.79925160393193,-96.68575792582396,371.3382,0,-1,3,10,-9999,1456907343.993116,-1.569507598876953,44.56289672851562,21.14886474609375,9.432306289672852,6.15516996383667,25,10077.4157765,0.03948974609375,1.013671875,0.0072021484375,10077.4055375,-0.04139324650699259,0.04142973181392668,-0.004885302703641355,10077.3705245,2.894353670303237,1.928881596774427,-1.531024641059001,-0.03675271570682526,0.01184309367090464,-0.004173718858510256,-0.002311765216290951,0.01492042746394873,-0.007282737642526627,XArbitraryCorrectedZVertical,-0.6366583066591713,-0.3188008552385844,0.3375533562486179,0.6157028073237114,0.03723913431167603,0.9992092251777649,0.01393556967377663,-0.0296550989151001,45.94114685058594,21.56188774108887,1,10076.5744805,stationary,1,2016-03-02 02:29:03.157,null,0,0,0,0,null,10077.1092705,0,-0.2537842,97.42647,192.168.1.101,100.78.239.175,1,1,0.44,0
2016-03-02 02:29:04.045,28,234B9614-18C8-49ED-8B56-CAB6C4F40872,my_iOS_device_1,1456907342.999997,40.79925160393193,-96.68575792582396,371.3382,0,-1,3,10,-9999,1456907344.03311,-1.742971420288086,44.66734313964844,21.3800048828125,9.440529823303223,6.163393974304199,25,10077.4461005,0.040496826171875,1.013504028320312,0.0116424560546875,10077.4055375,-0.04139324650699259,0.04142973181392668,-0.004885302703641355,10077.4055375,2.911639404315359,1.946615641545469,-1.530853362274111,-0.02088223025202751,0.01081057637929916,0.001379934139549732,0.0007574771880172193,0.01446948945522308,-0.006905094720423222,XArbitraryCorrectedZVertical,-0.6369391641431624,-0.318805239715601,0.3372671119499323,0.6155669057928806,0.03714535385370255,0.9992023706436157,0.01465655956417322,-0.05575060844421387,45.91653442382812,21.61420440673828,1,10076.5744805,stationary,1,2016-03-02 02:29:03.157,null,0,0,0,0,null,10077.1092705,0,-0.2537842,97.42647,192.168.1.101,100.78.239.175,1,1,0.44,0
2016-03-02 02:29:04.074,29,234B9614-18C8-49ED-8B56-CAB6C4F40872,my_iOS_device_1,1456907342.999997,40.79925160393193,-96.68575792582396,371.3382,0,-1,3,10,-9999,1456907344.03311,-1.742971420288086,44.66734313964844,21.3800048828125,9.440529823303223,6.163393974304199,25,10077.4763855,0.0414886474609375,1.014175415039062,0.0151519775390625,10077.4405475,-0.03820704057882179,0.03505172731929591,-0.004835767907365881,10077.4405475,2.917323756284545,1.952574596874631,-1.530605636750958,-0.01769305393099785,0.004432725720107555,0.001430222648195922,0.002950363093987107,0.01302982680499554,-0.004670184105634689,XArbitraryCorrectedZVertical,-0.637102800185656,-0.3187239485012461,0.3371747980302115,0.6154902291837286,0.03728706389665604,0.999192476272583,0.01496986672282219,-0.06034529209136963,45.90752792358398,21.63331031799316,1,10076.5744805,stationary,1,2016-03-02 02:29:03.157,null,0,0,0,0,null,10077.1092705,0,-0.2537842,97.42647,192.168.1.101,100.78.239.175,1,1,0.44,0
2016-03-02 02:29:04.115,30,234B9614-18C8-49ED-8B56-CAB6C4F40872,my_iOS_device_1,1456907343.999996,40.79925160393193,-96.68575792582396,370.3956,0,-1,3,10,-9999,1456907344.080226,-1.534817695617676,44.94593811035156,21.7762451171875,9.44451904296875,6.167382717132568,25,10077.5066865,0.035919189453125,1.012588500976562,0.0104827880859375,10077.4755565,-0.02974404726676799,0.03187670666770344,-0.001514007079710047,10077.4755565,2.924673308848012,1.960013627288977,-1.530145546537813,-0.009229416027665138,0.001257880940102041,0.004753049463033676,0.0032172582577914,0.01677156426012516,-0.0001167093505500816,XArbitraryCorrectedZVertical,-0.6373069461925519,-0.3186698820469208,0.3371697745468631,0.615309601536433,0.03760000318288803,0.9991738796234131,0.01542127504944801,-0.05653691291809082,45.90215682983398,21.64471435546875,1,10076.5744805,stationary,1,2016-03-02 02:29:03.157,null,0,0,0,0,null,10077.1092705,0,-0.2537842,97.42647,192.168.1.101,100.78.239.175,1,1,0.44,0
2016-03-02 02:29:04.134,31,234B9614-18C8-49ED-8B56-CAB6C4F40872,my_iOS_device_1,1456907343.999996,40.79925160393193,-96.68575792582396,370.3956,0,-1,3,10,-9999,1456907344.080226,-1.534817695617676,44.94593811035156,21.7762451171875,9.44451904296875,6.167382717132568,25,10077.5369905,0.038177490234375,1.0123291015625,0.0104217529296875,10077.5105705,-0.0243972187462159,0.03081144223167175,-0.003567304280161139,10077.5105705,2.924058418703265,1.959393403508352,-1.529998097819203,-0.003881583455950022,0.000192824358236976,0.002700008219107985,-0.001826712395995855,0.01342063304036856,-0.004970984067767859,XArbitraryCorrectedZVertical,-0.6373392850761773,-0.3186306979778598,0.3372113144309388,0.615273632967047,0.03774590045213699,0.9991678595542908,0.01545377168804407,-0.04749250411987305,45.89638900756836,21.65696907043457,1,10076.5744805,stationary,1,2016-03-02 02:29:03.157,null,0,0,0,0,null,10077.1092705,0,-0.2537842,97.42647,192.168.1.101,100.78.239.175,1,1,0.44,0
2016-03-02 02:29:04.164,32,234B9614-18C8-49ED-8B56-CAB6C4F40872,my_iOS_device_1,1456907343.999996,40.79925160393193,-96.68575792582396,370.3956,0,-1,3,10,-9999,1456907344.138452,-1.638895034790039,44.56292724609375,21.94134521484375,9.450155258178711,6.173019409179688,25,10077.5672945,0.03411865234375,1.011520385742188,0.0227813720703125,10077.5455705,-0.03289589841687677,0.02548512005151327,-0.00475374254579144,10077.5105705,2.924058418703265,1.959393403508352,-1.529998097819203,-0.003881583455950022,0.000192824358236976,0.002700008219107985,-0.001826712395995855,0.01342063304036856,-0.004970984067767859,XArbitraryCorrectedZVertical,-0.6373392850761773,-0.3186306979778598,0.3372113144309388,0.615273632967047,0.03774590045213699,0.9991678595542908,0.01545377168804407,-0.04749250411987305,45.89638900756836,21.65696907043457,1,10076.5744805,stationary,1,2016-03-02 02:29:03.157,null,0,0,0,0,null,10077.1092705,0,-0.2537842,97.42647,192.168.1.101,100.78.239.175,1,1,0.44,0
2016-03-02 02:29:04.194,33,234B9614-18C8-49ED-8B56-CAB6C4F40872,my_iOS_device_1,1456907343.999996,40.79925160393193,-96.68575792582396,370.3956,0,-1,3,10,-9999,1456907344.138452,-1.638895034790039,44.56292724609375,21.94134521484375,9.450155258178711,6.173019409179688,25,10077.5975675,0.0349578857421875,1.014083862304688,0.0214080810546875,10077.5805695,-0.02333594905181932,0.02762204051019285,-0.003550260049184632,10077.5455705,2.920912865780781,1.956027832664013,-1.5300354364626,-0.01237794198095798,-0.005133414175361395,0.001512600458227098,0.0004143648548051715,0.01315971184521914,-0.004890875890851021,XArbitraryCorrectedZVertical,-0.6372630737401833,-0.318672385593945,0.3373076712337767,0.6152781650878769,0.03776312619447708,0.9991694092750549,0.01531262882053852,-0.0381004810333252,45.89902114868164,21.65140342712402,1,10076.5744805,stationary,1,2016-03-02 02:29:03.157,null,0,0,0,0,null,10077.1092705,0,-0.2537842,97.42647,192.168.1.101,100.78.239.175,1,1,0.44,0
2016-03-02 02:29:04.225,34,234B9614-18C8-49ED-8B56-CAB6C4F40872,my_iOS_device_1,1456907343.999996,40.79925160393193,-96.68575792582396,370.3956,0,-1,3,10,-9999,1456907344.198299,-1.777664184570312,44.35398864746094,21.67724609375,9.460916519165039,6.183780193328857,25,10077.6278715,0.0300445556640625,1.01007080078125,0.025390625,10077.6156045,-0.02114603168744717,0.03292892161439375,-0.007784153550192605,10077.5805695,2.934966674824171,1.970038377540724,-1.529940176196447,-0.002835203893482685,-0.002998813521116972,0.002711857203394175,-0.003681777743622661,0.01320937462151051,0.003333625849336386,XArbitraryCorrectedZVertical,-0.6374110194187289,-0.3188193643464805,0.3371871497704818,0.6151148114546765,0.03763258457183838,0.9991654753684998,0.01587718911468983,-0.03775990009307861,45.8870849609375,21.67669105529785,1,10076.5744805,stationary,1,2016-03-02 02:29:03.157,null,0,0,0,0,null,10077.1092705,0,-0.2537842,97.42647,192.168.1.101,100.78.239.175,1,1,0.44,0
2016-03-02 02:29:04.272,35,234B9614-18C8-49ED-8B56-CAB6C4F40872,my_iOS_device_1,1456907343.999996,40.79925160393193,-96.68575792582396,370.3956,0,-1,3,10,-9999,1456907344.257025,-1.708276748657227,44.70220947265625,21.87542724609375,9.469650268554688,6.192514419555664,25,10077.6581945,0.0377655029296875,1.013015747070312,0.017303466796875,10077.6156045,-0.02114603168744717,0.03292892161439375,-0.007784153550192605,10077.6156045,2.9456798561256,1.980772238788743,-1.52993768461255,-0.0006471333326771855,0.002308294409886003,-0.00152315164450556,-0.003206296823918819,0.01421655621379614,0.007827684283256531,XArbitraryCorrectedZVertical,-0.6375129215257425,-0.3189324004444604,0.3370611458564954,0.6150196604892679,0.03746227920055389,0.999165415763855,0.01628120243549347,-0.04743385314941406,45.87660980224609,21.69883918762207,1,10076.5744805,stationary,1,2016-03-02 02:29:03.157,null,0,0,0,0,null,10077.1092705,0,-0.2537842,97.42647,192.168.1.101,100.78.239.175,1,1,0.44,0
2016-03-02 02:29:04.285,36,234B9614-18C8-49ED-8B56-CAB6C4F40872,my_iOS_device_1,1456907343.999996,40.79925160393193,-96.68575792582396,370.3956,0,-1,3,10,-9999,1456907344.257025,-1.708276748657227,44.70220947265625,21.87542724609375,9.469650268554688,6.192514419555664,25,10077.6884795,0.0363616943359375,1.011428833007812,0.022186279296875,10077.6506135,-0.02329946374488524,0.03718678356521243,-0.005686115243428182,10077.6506135,2.957980136332286,1.993242795320145,-1.530112472056661,-0.00280313310213387,0.006566463969647884,0.0005724242073483765,-0.003695556661114097,0.01402632612735033,9.391155617777258e-05,XArbitraryCorrectedZVertical,-0.6376047795041581,-0.3190578222939647,0.3368302519823382,0.614985879948461,0.03709704428911209,0.9991725087165833,0.01667549833655357,-0.05962133407592773,45.87013244628906,21.71249961853027,1,10076.5744805,stationary,1,2016-03-02 02:29:03.157,null,0,0,0,0,null,10077.1092705,0,-0.2537842,97.42647,192.168.1.101,100.78.239.175,1,1,0.44,0
2016-03-02 02:29:04.315,37,234B9614-18C8-49ED-8B56-CAB6C4F40872,my_iOS_device_1,1456907343.999996,40.79925160393193,-96.68575792582396,370.3956,0,-1,3,10,-9999,1456907344.257025,-1.708276748657227,44.70220947265625,21.87542724609375,9.469650268554688,6.192514419555664,25,10077.7188005,0.0370330810546875,1.008544921875,0.025726318359375,10077.6856225,-0.02650750759399469,0.03399711552762453,-0.00466532559760081,10077.6856225,2.967363387384666,2.002727084560837,-1.529986048420932,-0.006012354046106339,0.003377007320523262,0.001592849148437381,-0.0002782604133244604,0.01122385915368795,0.005473028402775526,XArbitraryCorrectedZVertical,-0.6377392631962699,-0.3191055671709824,0.3367183818038782,0.6148829161179579,0.03705194219946861,0.9991673827171326,0.01707946136593819,-0.06858181953430176,45.86809539794922,21.71677017211914,1,10076.5744805,stationary,1,2016-03-02 02:29:03.157,null,0,0,0,0,null,10077.1092705,0,-0.2537842,97.42647,192.168.1.101,100.78.239.175,1,1,0.44,0
2016-03-02 02:29:04.352,38,234B9614-18C8-49ED-8B56-CAB6C4F40872,my_iOS_device_1,1456907343.999996,40.79925160393193,-96.68575792582396,370.3956,0,-1,3,10,-9999,1456907344.316285,-1.5001220703125,44.9111328125,21.87542724609375,9.470074653625488,6.192938327789307,25,10077.7491005,0.038177490234375,1.009506225585938,0.0187835693359375,10077.7206245,-0.03600487267343527,0.0371654782764918,-0.01013359426386051,10077.7206245,2.985221899373525,2.020750601448841,-1.529680372977087,-0.01552163902670145,0.006538165267556906,-0.00387422856874764,1.995250386244152e-05,0.009390063583850861,0.007849026471376419,XArbitraryCorrectedZVertical,-0.6380072581029543,-0.3191949006070242,0.3365236488158769,0.6146651021670683,0.03701312839984894,0.9991548657417297,0.01787729188799858,-0.07401168346405029,45.85683441162109,21.74052238464355,1,10076.5744805,stationary,1,2016-03-02 02:29:03.157,null,0,0,0,0,null,10077.1092705,0,-0.2537842,97.42647,192.168.1.101,100.78.239.175,1,1,0.44,0
2016-03-02 02:29:04.376,39,234B9614-18C8-49ED-8B56-CAB6C4F40872,my_iOS_device_1,1456907343.999996,40.79925160393193,-96.68575792582396,370.3956,0,-1,3,10,-9999,1456907344.316285,-1.5001220703125,44.9111328125,21.87542724609375,9.470074653625488,6.192938327789307,25,10077.7793915,0.0372314453125,1.009353637695312,0.021331787109375,10077.7556235,-0.0349404071857306,0.03822967744808747,-0.01011868056175606,10077.7556235,3.001509871899374,2.037252604714507,-1.529537493296417,-0.01445882394909859,0.007602591998875141,-0.003859598189592361,0.001336891669780016,0.01035725045949221,0.0002337465120945126,XArbitraryCorrectedZVertical,-0.6382229360994123,-0.3192904559278902,0.3362930699061235,0.6145177456535347,0.03684059903025627,0.999148964881897,0.01854982227087021,-0.0751490592956543,45.84833145141602,21.75844764709473,1,10076.5744805,stationary,1,2016-03-02 02:29:03.157,null,0,0,0,0,null,10077.1092705,0,-0.2537842,97.42647,192.168.1.101,100.78.239.175,1,1,0.44,0
2016-03-02 02:29:04.410,40,234B9614-18C8-49ED-8B56-CAB6C4F40872,my_iOS_device_1,1456907343.999996,40.79925160393193,-96.68575792582396,370.3956,0,-1,3,10,-9999,1456907344.377013,-1.396045684814453,44.66737365722656,21.51220703125,9.467994689941406,6.190858840942383,25,10077.8096845,0.037445068359375,1.0108642578125,0.0229339599609375,10077.7906345,-0.03714177614279009,0.03717932671416022,-0.004821386837479453,10077.7556235,3.001509871899374,2.037252604714507,-1.529537493296417,-0.01445882394909859,0.007602591998875141,-0.003859598189592361,0.001336891669780016,0.01035725045949221,0.0002337465120945126,XArbitraryCorrectedZVertical,-0.6382229360994123,-0.3192904559278902,0.3362930699061235,0.6145177456535347,0.03684059903025627,0.999148964881897,0.01854982227087021,-0.0751490592956543,45.84833145141602,21.75844764709473,1,10076.5744805,stationary,1,2016-03-02 02:29:03.157,null,0,0,0,0,null,10077.1092705,0,-0.2537842,97.42647,192.168.1.101,100.78.239.175,1,1,0.44,0
2016-03-02 02:29:04.436,41,234B9614-18C8-49ED-8B56-CAB6C4F40872,my_iOS_device_1,1456907343.999996,40.79925160393193,-96.68575792582396,370.3956,0,-1,3,10,-9999,1456907344.434159,-1.46543025970459,44.73701477050781,21.51220703125,9.465072631835938,6.187936782836914,25,10077.8399965,0.0342864990234375,1.01263427734375,0.0257720947265625,10077.8256705,-0.04028963255126376,0.03610474121431324,-0.008063785464650926,10077.7906345,3.016126506734868,2.052099163740162,-1.529255966337598,-0.01666076667606831,0.006552496459335089,0.001437538536265492,0.0003141566994599998,0.01056726649403572,0.000672529567964375,XArbitraryCorrectedZVertical,-0.6384644467579667,-0.3193362113816913,0.3361013823533766,0.6143479430311155,0.03681047633290291,0.9991373419761658,0.01922493055462837,-0.09474265575408936,45.82163619995117,21.81452751159668,1,10076.5744805,stationary,1,2016-03-02 02:29:03.157,null,0,0,0,0,null,10077.1092705,0,-0.2537842,97.42647,192.168.1.101,100.78.239.175,1,1,0.44,0
2016-03-02 02:29:04.467,42,234B9614-18C8-49ED-8B56-CAB6C4F40872,my_iOS_device_1,1456907343.999996,40.79925160393193,-96.68575792582396,370.3956,0,-1,3,10,-9999,1456907344.434159,-1.46543025970459,44.73701477050781,21.51220703125,9.465072631835938,6.187936782836914,25,10077.8703035,0.038116455078125,1.01092529296875,0.0266571044921875,10077.8606765,-0.03290335526792899,0.03505865153813011,-0.003693005483612879,10077.8256705,3.034112018928061,2.07030203496247,-1.52883577092015,-0.01980958320200443,0.005478117149323225,-0.001804649480618536,0.001858046860434115,0.01273629441857338,0.003390415804460645,XArbitraryCorrectedZVertical,-0.6387704751200735,-0.319403679316503,0.3358948810486502,0.6141076441791382,0.03682298213243484,0.999119758605957,0.02009285986423492,-0.09944784641265869,45.80265045166016,21.85434150695801,1,10076.5744805,stationary,1,2016-03-02 02:29:03.157,null,0,0,0,0,null,10077.1092705,0,-0.2537842,97.42647,192.168.1.101,100.78.239.175,1,1,0.44,0
2016-03-02 02:29:04.514,43,234B9614-18C8-49ED-8B56-CAB6C4F40872,my_iOS_device_1,1456907343.999996,40.79925160393193,-96.68575792582396,370.3956,0,-1,3,10,-9999,1456907344.476691,-1.46543025970459,44.52809143066406,21.44610595703125,9.465246200561523,6.188109874725342,25,10077.9006035,0.037841796875,1.011688232421875,0.020355224609375,10077.8956885,-0.03924301024286261,0.03291826897003343,-0.006981210481533715,10077.8606765,3.057308690287429,2.093760490138521,-1.528430923982274,-0.01242594420909882,0.004432352725416422,0.00256541115231812,-0.0004676069947890937,0.01347052119672298,0.008616812527179718,XArbitraryCorrectedZVertical,-0.6391204420157579,-0.3195334142989436,0.3355983527233754,0.6138380921654998,0.03669197112321854,0.9991027116775513,0.02115308493375778,-0.1125953197479248,45.77749252319336,21.90693283081055,1,10076.5744805,stationary,1,2016-03-02 02:29:03.157,null,0,0,0,0,null,10077.1092705,0,-0.2537842,97.42647,192.168.1.101,100.78.239.175,1,1,0.44,0
2016-03-02 02:29:04.528,44,234B9614-18C8-49ED-8B56-CAB6C4F40872,my_iOS_device_1,1456907343.999996,40.79925160393193,-96.68575792582396,370.3956,0,-1,3,10,-9999,1456907344.522832,-1.534811973571777,44.38882446289062,21.64422607421875,9.46385383605957,6.186717987060547,25,10077.9308995,0.0362396240234375,1.009521484375,0.0264434814453125,10077.8956885,-0.03924301024286261,0.03291826897003343,-0.006981210481533715,10077.8956885,3.067934671357345,2.104513256096124,-1.528081016210649,-0.018765764310956,0.002265645656734705,-0.0007171754259616137,0.00269585638307035,0.01195952389389277,-0.004725953098386526,XArbitraryCorrectedZVertical,-0.6393291067256573,-0.3195628504227914,0.335487049170056,0.6136662918575398,0.03676337376236916,0.9990878105163574,0.02172424457967281,-0.1137262582778931,45.76612091064453,21.9306640625,1,10076.5744805,stationary,1,2016-03-02 02:29:03.157,null,0,0,0,0,null,10077.1092705,0,-0.2537842,97.42647,192.168.1.101,100.78.239.175,1,1,0.44,0
2016-03-02 02:29:04.558,45,234B9614-18C8-49ED-8B56-CAB6C4F40872,my_iOS_device_1,1456907343.999996,40.79925160393193,-96.68575792582396,370.3956,0,-1,3,10,-9999,1456907344.522832,-1.534811973571777,44.38882446289062,21.64422607421875,9.46385383605957,6.186717987060547,25,10077.9611965,0.039337158203125,1.011306762695312,0.0167236328125,10077.9307025,-0.03391082910830596,0.03185593401120082,-0.007968976929844104,10077.9307025,3.084526020961252,2.12106209021568,-1.527813887784085,-0.01343426015228033,0.001203554682433605,-0.001705550239421427,-0.00241612596437335,0.01238295342773199,0.00324187008664012,XArbitraryCorrectedZVertical,-0.6395315615698302,-0.3197404831182408,0.3353341773690724,0.613446325850565,0.03662633150815964,0.9990764260292053,0.02246918901801109,-0.1130378246307373,45.76094818115234,21.94146156311035,1,10076.5744805,stationary,1,2016-03-02 02:29:03.157,null,0,0,0,0,null,10077.1092705,0,-0.2537842,97.42647,192.168.1.101,100.78.239.175,1,1,0.44,0
2016-03-02 02:29:04.591,46,234B9614-18C8-49ED-8B56-CAB6C4F40872,my_iOS_device_1,1456907343.999996,40.79925160393193,-96.68575792582396,370.3956,0,-1,3,10,-9999,1456907344.580486,-1.534811973571777,43.90132141113281,21.9083251953125,9.464092254638672,6.186956405639648,25,10077.9914895,0.032562255859375,1.0084228515625,0.0290985107421875,10077.9657115,-0.04130855798432807,0.0371585540576576,-0.01127635668761351,10077.9307025,3.084526020961252,2.12106209021568,-1.527813887784085,-0.01343426015228033,0.001203554682433605,-0.001705550239421427,-0.00241612596437335,0.01238295342773199,0.00324187008664012,XArbitraryCorrectedZVertical,-0.6395315615698302,-0.3197404831182408,0.3353341773690724,0.613446325850565,0.03662633150815964,0.9990764260292053,0.02246918901801109,-0.1130378246307373,45.76094818115234,21.94146156311035,1,10076.5744805,stationary,1,2016-03-02 02:29:03.157,null,0,0,0,0,null,10077.1092705,0,-0.2537842,97.42647,192.168.1.101,100.78.239.175,1,1,0.44,0
2016-03-02 02:29:04.618,47,234B9614-18C8-49ED-8B56-CAB6C4F40872,my_iOS_device_1,1456907343.999996,40.79925160393193,-96.68575792582396,370.3956,0,-1,3,10,-9999,1456907344.580486,-1.534811973571777,43.90132141113281,21.9083251953125,9.464092254638672,6.186956405639648,25,10078.0217965,0.0372161865234375,1.012893676757812,0.0216064453125,10078.0007215,-0.03174701072261658,0.04142227496287446,-0.01007393945544273,10078.0007215,3.112094055277529,2.149201357760084,-1.527636635310289,-0.01127047277987003,0.01077034324407578,-0.003811765229329467,-0.003565674414858222,0.009354086592793465,0.005510902032256126,XArbitraryCorrectedZVertical,-0.6398906252658355,-0.3198965333100871,0.3348189793678354,0.6132719190768064,0.03612792864441872,0.9990687370300293,0.02358760870993137,-0.1323503255844116,45.73181533813477,22.00201416015625,1,10076.5744805,stationary,1,2016-03-02 02:29:03.157,null,0,0,0,0,null,10077.1092705,0,-0.2537842,97.42647,192.168.1.101,100.78.239.175,1,1,0.44,0
2016-03-02 02:29:04.672,48,234B9614-18C8-49ED-8B56-CAB6C4F40872,my_iOS_device_1,1456907343.999996,40.79925160393193,-96.68575792582396,370.3956,0,-1,3,10,-9999,1456907344.641343,-1.326658248901367,44.31916809082031,21.71026611328125,9.457450866699219,6.180315017700195,25,10078.0520965,0.0376129150390625,1.0067138671875,0.02203369140625,10078.0357105,-0.02852352053918467,0.04567241374653191,-0.01216079248562883,10078.0007215,3.112094055277529,2.149201357760084,-1.527636635310289,-0.01127047277987003,0.01077034324407578,-0.003811765229329467,-0.003565674414858222,0.009354086592793465,0.005510902032256126,XArbitraryCorrectedZVertical,-0.6398906252658355,-0.3198965333100871,0.3348189793678354,0.6132719190768064,0.03612792864441872,0.9990687370300293,0.02358760870993137,-0.1323503255844116,45.73181533813477,22.00201416015625,1,10076.5744805,stationary,1,2016-03-02 02:29:03.157,null,0,0,0,0,null,10077.1092705,0,-0.2537842,97.42647,192.168.1.101,100.78.239.175,1,1,0.44,0
2016-03-02 02:29:04.679,49,234B9614-18C8-49ED-8B56-CAB6C4F40872,my_iOS_device_1,1456907343.999996,40.79925160393193,-96.68575792582396,370.3956,0,-1,3,10,-9999,1456907344.641343,-1.326658248901367,44.31916809082031,21.71026611328125,9.457450866699219,6.180315017700195,25,10078.0823975,0.0411834716796875,1.010421752929688,0.0240631103515625,10078.0357105,-0.02852352053918467,0.04567241374653191,-0.01216079248562883,10078.0357105,3.120915001889091,2.158456084679991,-1.527465055440757,-0.008047802373766899,0.01502072904258966,-0.00589801836758852,0.003179595107212663,0.01479363348335028,6.238376226974651e-05,XArbitraryCorrectedZVertical,-0.6400805058899806,-0.319851432180817,0.3345910522924184,0.6132216850677572,0.03605075180530548,0.9990613460540771,0.02401598542928696,-0.1576706171035767,45.71352005004883,22.03983688354492,1,10076.5744805,stationary,1,2016-03-02 02:29:03.157,null,0,0,0,0,null,10077.1092705,0,-0.2537842,97.42647,192.168.1.101,100.78.239.175,1,1,0.44,0
2016-03-02 02:29:04.709,50,234B9614-18C8-49ED-8B56-CAB6C4F40872,my_iOS_device_1,1456907343.999996,40.79925160393193,-96.68575792582396,370.3956,0,-1,3,10,-9999,1456907344.701962,-1.534814834594727,44.52809143066406,21.51214599609375,9.460614204406738,6.183478355407715,25,10078.1126815,0.0364990234375,1.011581420898438,0.029205322265625,10078.1057445,-0.03071663369686493,0.03611193174925646,-0.00792476845574879,10078.0707195,3.123954211858628,2.16180530589413,-1.527318567421535,-0.008126083761453629,0.004369623959064484,0.0005082209245301783,0.003428622847422957,0.009825624525547028,-0.003832396352663636,XArbitraryCorrectedZVertical,-0.6401991677537862,-0.3197719419639191,0.3344752256325001,0.6132024577397361,0.0360916405916214,0.9990549683570862,0.02421813830733299,-0.166318416595459,45.70993804931641,22.04720115661621,1,10076.5744805,stationary,1,2016-03-02 02:29:03.157,null,0,0,0,0,null,10077.1092705,0,-0.2537842,97.42647,192.168.1.101,100.78.239.175,1,1,0.44,0
2016-03-02 02:29:04.752,51,234B9614-18C8-49ED-8B56-CAB6C4F40872,my_iOS_device_1,1456907343.999996,40.79925160393193,-96.68575792582396,370.3956,0,-1,3,10,-9999,1456907344.701962,-1.534814834594727,44.52809143066406,21.51214599609375,9.460614204406738,6.183478355407715,25,10078.1429825,0.0395050048828125,1.012466430664062,0.0251922607421875,10078.1057445,-0.03071663369686493,0.03611193174925646,-0.00792476845574879,10078.1057445,3.131847423897677,2.169915393516757,-1.526860121034954,-0.01022403314709663,0.005425800103694201,-0.001652852050028741,-0.0005667167715728283,0.01083747670054436,0.006130724679678679,XArbitraryCorrectedZVertical,-0.6404328138585332,-0.3197342217235023,0.334373748751437,0.6130334693456794,0.03627228364348412,0.9990349411964417,0.02476832270622253,-0.1719449758529663,45.70494079589844,22.0575122833252,1,10076.5744805,stationary,1,2016-03-02 02:29:03.157,null,0,0,0,0,null,10077.1092705,0,-0.2537842,97.42647,192.168.1.101,100.78.239.175,1,1,0.44,0
2016-03-02 02:29:04.770,52,234B9614-18C8-49ED-8B56-CAB6C4F40872,my_iOS_device_1,1456907343.999996,40.79925160393193,-96.68575792582396,370.3956,0,-1,3,10,-9999,1456907344.757235,-1.569507598876953,44.35398864746094,22.073486328125,9.463311195373535,6.186174869537354,25,10078.1732985,0.0348663330078125,1.0087890625,0.030242919921875,10078.1407695,-0.03065724520455616,0.03716361406372874,-0.01218742409652962,10078.1407695,3.140687007145912,2.178921057857005,-1.526647703589608,-0.01016538683325052,0.006477671209722757,-0.005914883688092232,0.001864011050201952,0.01299831829965115,0.0002822234528139234,XArbitraryCorrectedZVertical,-0.6405898054568404,-0.3197691474870263,0.3342332023494496,0.6129278586484723,0.03622192516922951,0.9990255832672119,0.02521521225571632,-0.1696047782897949,45.69186782836914,22.08459663391113,1,10076.5744805,stationary,1,2016-03-02 02:29:03.157,null,0,0,0,0,null,10077.1092705,0,-0.2537842,97.42647,192.168.1.101,100.78.239.175,1,1,0.44,0
2016-03-02 02:29:04.800,53,234B9614-18C8-49ED-8B56-CAB6C4F40872,my_iOS_device_1,1456907343.999996,40.79925160393193,-96.68575792582396,370.3956,0,-1,3,10,-9999,1456907344.757235,-1.569507598876953,44.35398864746094,22.073486328125,9.463311195373535,6.186174869537354,25,10078.2035985,0.0406494140625,1.01324462890625,0.0269622802734375,10078.1757785,-0.02862418802838967,0.0286755870374282,-0.005759085857296353,10078.1757785,-3.133799024317396,2.187668727958462,-1.526480967317615,-0.008133288472890854,-0.002010079799219966,0.0005132649093866348,-0.001269508386030793,0.009770827367901802,0.004615457728505135,XArbitraryCorrectedZVertical,-0.6407115865139259,-0.3198474542374192,0.3341233578301955,0.6128195906438592,0.03613584116101265,0.9990182518959045,0.02562746219336987,-0.175122857093811,45.68124771118164,22.10651779174805,1,10078.1912415,unknown,1,2016-03-02 02:29:04.773,null,0,0,0,0,null,10077.1092705,0,-0.2537842,97.42647,192.168.1.101,100.78.239.175,1,1,0.44,0
2016-03-02 02:29:04.834,54,234B9614-18C8-49ED-8B56-CAB6C4F40872,my_iOS_device_1,1456907343.999996,40.79925160393193,-96.68575792582396,370.3956,0,-1,3,10,-9999,1456907344.82214,-1.708276748657227,44.49327087402344,22.13958740234375,9.473841667175293,6.19670581817627,25,10078.2338985,0.036407470703125,1.012466430664062,0.032135009765625,10078.2107875,-0.02858024587040336,0.02866679860583093,-0.008955678113718462,10078.2107875,-3.128925508023633,2.192475285110133,-1.526072844949385,-0.008055123500525951,-0.002061161678284407,-0.002674640621989965,0.004305734764784575,0.01424455735832453,0.0009239705395884812,XArbitraryCorrectedZVertical,-0.6408609068870368,-0.319869430992897,0.3341403771600048,0.6126426801093409,0.03634367883205414,0.999000072479248,0.02603830955922604,-0.1769415140151978,45.66932678222656,22.13111114501953,1,10078.1912415,unknown,1,2016-03-02 02:29:04.773,null,0,0,0,0,null,10077.1092705,0,-0.2537842,97.42647,192.168.1.101,100.78.239.175,1,1,0.44,0
2016-03-02 02:29:04.861,55,234B9614-18C8-49ED-8B56-CAB6C4F40872,my_iOS_device_1,1456907343.999996,40.79925160393193,-96.68575792582396,370.3956,0,-1,3,10,-9999,1456907344.82214,-1.708276748657227,44.49327087402344,22.13958740234375,9.473841667175293,6.19670581817627,25,10078.2641975,0.036956787109375,1.010650634765625,0.03045654296875,10078.2458015,-0.02754507515468956,0.02973685673182477,-0.006809702907332612,10078.2107875,-3.128925508023633,2.192475285110133,-1.526072844949385,-0.008055123500525951,-0.002061161678284407,-0.002674640621989965,0.004305734764784575,0.01424455735832453,0.0009239705395884812,XArbitraryCorrectedZVertical,-0.6408609068870368,-0.319869430992897,0.3341403771600048,0.6126426801093409,0.03634367883205414,0.999000072479248,0.02603830955922604,-0.1769415140151978,45.66932678222656,22.13111114501953,1,10078.1912415,unknown,1,2016-03-02 02:29:04.773,null,0,0,0,0,null,10077.1092705,0,-0.2537842,97.42647,192.168.1.101,100.78.239.175,1,1,0.44,0
2016-03-02 02:29:04.914,56,234B9614-18C8-49ED-8B56-CAB6C4F40872,my_iOS_device_1,1456907343.999996,40.79925160393193,-96.68575792582396,370.3956,0,-1,3,10,-9999,1456907344.874777,-1.812355995178223,44.3887939453125,21.71026611328125,9.484132766723633,6.206996917724609,25,10078.2944965,0.0388946533203125,1.012313842773438,0.023956298828125,10078.2808005,-0.02972034513306628,0.02442704615042479,-0.003641340158465342,10078.2458015,-3.118431272766082,2.202842925063736,-1.525631726910982,-0.007022113539278507,-0.0009907999774441123,-0.0005280495970509946,0.001475513447076082,0.01194503996521235,0.006849509663879871,XArbitraryCorrectedZVertical,-0.6410506252196541,-0.3199861260403433,0.3340997821664215,0.6124053482812796,0.03642731904983521,0.9989802241325378,0.02667404897511005,-0.1686710119247437,45.6650390625,22.14002990722656,1,10078.1912415,unknown,1,2016-03-02 02:29:04.773,null,0,0,0,0,null,10077.1092705,0,-0.2537842,97.42647,192.168.1.101,100.78.239.175,1,1,0.44,0
2016-03-02 02:29:04.921,57,234B9614-18C8-49ED-8B56-CAB6C4F40872,my_iOS_device_1,1456907343.999996,40.79925160393193,-96.68575792582396,370.3956,0,-1,3,10,-9999,1456907344.874777,-1.812355995178223,44.3887939453125,21.71026611328125,9.484132766723633,6.206996917724609,25,10078.3247945,0.0392608642578125,1.01531982421875,0.0367279052734375,10078.3158105,-0.0424657014779675,0.02973153040964462,-0.004894890083565639,10078.2808005,-3.111399654728896,2.209752775488597,-1.525277594161058,-0.009198549203574657,-0.006300395354628563,0.002640553750097752,0.002933114999905229,0.008131135255098343,0.001138444873504341,XArbitraryCorrectedZVertical,-0.6411897056415847,-0.3200684411754315,0.3340911545791804,0.6122214099284008,0.03652611374855042,0.9989641904830933,0.02713609114289284,-0.1620755195617676,45.64984130859375,22.17139053344727,1,10078.1912415,unknown,1,2016-03-02 02:29:04.773,null,0,0,0,0,null,10077.1092705,0,-0.2537842,97.42647,192.168.1.101,100.78.239.175,1,1,0.44,0
2016-03-02 02:29:04.952,58,234B9614-18C8-49ED-8B56-CAB6C4F40872,my_iOS_device_1,1456907343.999996,40.79925160393193,-96.68575792582396,370.3956,0,-1,3,10,-9999,1456907344.933542,-1.812358856201172,44.59770202636719,21.97442626953125,9.51116943359375,6.234033584594727,25,10078.3550945,0.0370330810546875,1.010574340820312,0.0314483642578125,10078.3158105,-0.0424657014779675,0.02973153040964462,-0.004894890083565639,10078.3158105,-3.102565361730644,2.218440353862157,-1.524795665410329,-0.02194412797689438,-0.0009956770809367299,0.001387415686622262,0.0005737735773436725,0.01421091984957457,0.00665047625079751,XArbitraryCorrectedZVertical,-0.6413770921239731,-0.3201668985409409,0.3340810346663849,0.6119791214195878,0.0366729311645031,0.9989421367645264,0.02774283476173878,-0.1598227024078369,45.64257049560547,22.18637657165527,1,10078.1912415,unknown,1,2016-03-02 02:29:04.773,null,0,0,0,0,null,10077.1092705,0,-0.2537842,97.42647,192.168.1.101,100.78.239.175,1,1,0.44,0
2016-03-02 02:29:04.992,59,234B9614-18C8-49ED-8B56-CAB6C4F40872,my_iOS_device_1,1456907343.999996,40.79925160393193,-96.68575792582396,370.3956,0,-1,3,10,-9999,1456907344.933542,-1.812358856201172,44.59770202636719,21.97442626953125,9.51116943359375,6.234033584594727,25,10078.3853915,0.0387420654296875,1.00732421875,0.0279998779296875,10078.3508355,-0.02334234063843552,0.01911483872404373,-0.003545998991440506,10078.3508355,-3.0927746702287,2.227974488264235,-1.524276534282809,-0.002823127433657646,-0.01161210611462593,0.002736644586548209,0.0006429969216696918,0.01327362284064293,0.00645832996815443,XArbitraryCorrectedZVertical,-0.6415644993901997,-0.3203107782951994,0.3340939986307945,0.6117002521733937,0.03681733086705208,0.9989181756973267,0.02840800397098064,-0.1408883333206177,45.61985015869141,22.23318290710449,1,10078.1912415,unknown,1,2016-03-02 02:29:04.773,null,0,0,0,0,null,10077.1092705,0,-0.2537842,97.42647,192.168.1.101,100.78.239.175,1,1,0.44,0
