loggingTime,loggingSample,identifierForVendor,deviceID,locationTimestamp_since1970,locationLatitude,locationLongitude,locationAltitude,locationSpeed,locationCourse,locationVerticalAccuracy,locationHorizontalAccuracy,locationFloor,locationHeadingTimestamp_since1970,locationHeadingX,locationHeadingY,locationHeadingZ,locationTrueHeading,locationMagneticHeading,locationHeadingAccuracy,accelerometerTimestamp_sinceReboot,accelerometerAccelerationX,accelerometerAccelerationY,accelerometerAccelerationZ,gyroTimestamp_sinceReboot,gyroRotationX,gyroRotationY,gyroRotationZ,motionTimestamp_sinceReboot,motionYaw,motionRoll,motionPitch,motionRotationRateX,motionRotationRateY,motionRotationRateZ,motionUserAccelerationX,motionUserAccelerationY,motionUserAccelerationZ,motionAttitudeReferenceFrame,motionQuaternionX,motionQuaternionY,motionQuaternionZ,motionQuaternionW,motionGravityX,motionGravityY,motionGravityZ,motionMagneticFieldX,motionMagneticFieldY,motionMagneticFieldZ,motionMagneticFieldCalibrationAccuracy,activityTimestamp_sinceReboot,activity,activityActivityConfidence,activityActivityStartDate,pedometerStartDate,pedometerNumberofSteps,pedometerDistance,pedometerFloorAscended,pedometerFloorDescended,pedometerEndDate,altimeterTimestamp_sinceReboot,altimeterReset,altimeterRelativeAltitude,altimeterPressure,IP_en0,IP_pdp_ip0,deviceOrientation,batteryState,batteryLevel,state
2016-03-02 02:30:24.621,1,234B9614-18C8-49ED-8B56-CAB6C4F40872,my_iOS_device_1,1456907423.999996,40.79925160393193,-96.68575792582396,370.6115,0,-1,3,10,-9999,1456907424.617895,-0.3480043411254883,46.97715759277344,11.84197998046875,6.54367208480835,3.266535997390747,25,10158.00460275,0.0194854736328125,1.0029296875,0.043670654296875,10157.99983575,-0.3741030267550279,0.05815305187907925,-0.0246459579920293,10157.99983575,1.226917789382359,0.2622118158115094,-1.469769443865384,-0.3558825552463531,0.02597570605576038,-0.01738009974360466,-0.008702605031430721,-0.002393188886344433,-0.008625537157058716,XArbitraryCorrectedZVertical,-0.599375514218757,-0.303389352183912,0.3517780426465649,0.6518865719188756,0.02614339999854565,0.9949011206626892,-0.09740778803825378,1.263017416000366,46.67171478271484,10.11375904083252,1,10158.00862275,stationary,1,2016-03-02 02:30:24.594,null,0,0,0,0,null,10157.22834975,0,0.1904602,97.4213,192.168.1.101,100.78.239.175,2,1,0.44,0
2016-03-02 02:30:24.637,2,234B9614-18C8-49ED-8B56-CAB6C4F40872,my_iOS_device_1,1456907423.999996,40.79925160393193,-96.68575792582396,370.6115,0,-1,3,10,-9999,1456907424.617895,-0.3480043411254883,46.97715759277344,11.84197998046875,6.54367208480835,3.266535997390747,25,10158.03492375,0.036376953125,1.0162353515625,-0.1435546875,10158.03484775,0.07109308529966527,0.004342284157374198,0.01381914289642117,10157.99983575,1.226917789382359,0.2622118158115094,-1.469769443865384,-0.3558825552463531,0.02597570605576038,-0.01738009974360466,-0.008702605031430721,-0.002393188886344433,-0.008625537157058716,XArbitraryCorrectedZVertical,-0.599375514218757,-0.303389352183912,0.3517780426465649,0.6518865719188756,0.02614339999854565,0.9949011206626892,-0.09740778803825378,1.263017416000366,46.67171478271484,10.11375904083252,1,10158.00862275,stationary,1,2016-03-02 02:30:24.594,null,0,0,0,0,null,10157.22834975,0,0.1904602,97.4213,192.168.1.101,100.78.239.175,2,1,0.44,0
2016-03-02 02:30:24.673,3,234B9614-18C8-49ED-8B56-CAB6C4F40872,my_iOS_device_1,1456907423.999996,40.79925160393193,-96.68575792582396,370.6115,0,-1,3,10,-9999,1456907424.668475,-0.4867668151855469,46.62893676757812,11.3798828125,8.276495933532715,4.999360084533691,25,10158.06520375,0.0436553955078125,0.9976348876953125,-0.080596923828125,10158.03484775,0.07109308529966527,0.004342284157374198,0.01381914289642117,10158.03484775,1.226158824063321,0.2602563531744977,-1.468650534885447,0.08931343257427216,-0.02783486805856228,0.02108495868742466,0.01175506878644228,0.02553705312311649,0.05345991626381874,XArbitraryCorrectedZVertical,-0.5988379243465125,-0.3035225710833238,0.352374617733628,0.6519964094873326,0.02623931691050529,0.9947876334190369,-0.09853437542915344,1.234830975532532,46.55979919433594,10.62037086486816,1,10158.00862275,stationary,1,2016-03-02 02:30:24.594,null,0,0,0,0,null,10157.22834975,0,0.1904602,97.4213,192.168.1.101,100.78.239.175,2,1,0.44,0
2016-03-02 02:30:24.697,4,234B9614-18C8-49ED-8B56-CAB6C4F40872,my_iOS_device_1,1456907423.999996,40.79925160393193,-96.68575792582396,370.6115,0,-1,3,10,-9999,1456907424.668475,-0.4867668151855469,46.62893676757812,11.3798828125,8.276495933532715,4.999360084533691,25,10158.09550075,0.030853271484375,1.000335693359375,-0.11419677734375,10158.06986075,-0.05016996019545773,-0.0414808645068562,0.00995010246475405,10158.06986075,1.234903553277219,0.2668561010021326,-1.469843803890193,-0.03194976970553398,-0.07365772873163223,0.01721585169434547,0.01707939803600311,0.002726267324760556,0.01661703363060951,XArbitraryCorrectedZVertical,-0.5990010152432275,-0.304287372111638,0.3529708751310576,0.6511670601467463,0.02657599747180939,0.9949086308479309,-0.09721396118402481,1.256320714950562,46.5854606628418,10.50469207763672,1,10158.00862275,stationary,1,2016-03-02 02:30:24.594,null,0,0,0,0,null,10157.22834975,0,0.1904602,97.4213,192.168.1.101,100.78.239.175,2,1,0.44,0
2016-03-02 02:30:24.729,5,234B9614-18C8-49ED-8B56-CAB6C4F40872,my_iOS_device_1,1456907423.999996,40.79925160393193,-96.68575792582396,370.6115,0,-1,3,10,-9999,1456907424.668475,-0.4867668151855469,46.62893676757812,11.3798828125,8.276495933532715,4.999360084533691,25,10158.12580775,0.0200347900390625,1.013702392578125,-0.0858306884765625,10158.10486975,-0.06193047956924765,-0.04360473547619439,0.01404338106020584,10158.06986075,1.234903553277219,0.2668561010021326,-1.469843803890193,-0.03194976970553398,-0.07365772873163223,0.01721585169434547,0.01707939803600311,0.002726267324760556,0.01661703363060951,XArbitraryCorrectedZVertical,-0.5990010152432275,-0.304287372111638,0.3529708751310576,0.6511670601467463,0.02657599747180939,0.9949086308479309,-0.09721396118402481,1.256320714950562,46.5854606628418,10.50469207763672,1,10158.00862275,stationary,1,2016-03-02 02:30:24.594,null,0,0,0,0,null,10157.22834975,0,0.1904602,97.4213,192.168.1.101,100.78.239.175,2,1,0.44,0
2016-03-02 02:30:24.775,6,234B9614-18C8-49ED-8B56-CAB6C4F40872,my_iOS_device_1,1456907423.999996,40.79925160393193,-96.68575792582396,370.6115,0,-1,3,10,-9999,1456907424.725236,0.03359317779541016,46.66374206542969,11.47894287109375,6.943402767181396,3.666266679763794,25,10158.15611375,0.0104827880859375,1.007110595703125,-0.0964202880859375,10158.13986675,-0.04060122239880302,-0.02764654159222158,0.01114772600696268,10158.13986675,1.25357837704826,0.2804198294713123,-1.471479063978651,-0.02238128893077374,-0.05982295423746109,0.01841337420046329,-0.01219826005399227,0.01617363467812538,0.01042691711336374,XArbitraryCorrectedZVertical,-0.5989962124106422,-0.3058807219351601,0.3545972995193315,0.6495392802900312,0.02744179032742977,0.995072066783905,-0.09528104215860367,1.34699273109436,46.56622314453125,10.57849311828613,1,10158.00862275,stationary,1,2016-03-02 02:30:24.594,null,0,0,0,0,null,10157.22834975,0,0.1904602,97.4213,192.168.1.101,100.78.239.175,2,1,0.44,0
2016-03-02 02:30:24.789,7,234B9614-18C8-49ED-8B56-CAB6C4F40872,my_iOS_device_1,1456907423.999996,40.79925160393193,-96.68575792582396,370.6115,0,-1,3,10,-9999,1456907424.784616,-0.3480043411254883,46.62893676757812,12.0400390625,7.935142517089844,4.658006191253662,25,10158.18641375,0.0182342529296875,1.010330200195312,-0.0847625732421875,10158.17487775,-0.04796912387061625,-0.002142246780859739,0.006764695484910273,10158.13986675,1.25357837704826,0.2804198294713123,-1.471479063978651,-0.02238128893077374,-0.05982295423746109,0.01841337420046329,-0.01219826005399227,0.01617363467812538,0.01042691711336374,XArbitraryCorrectedZVertical,-0.5989962124106422,-0.3058807219351601,0.3545972995193315,0.6495392802900312,0.02744179032742977,0.995072066783905,-0.09528104215860367,1.34699273109436,46.56622314453125,10.57849311828613,1,10158.00862275,stationary,1,2016-03-02 02:30:24.594,null,0,0,0,0,null,10157.22834975,0,0.1904602,97.4213,192.168.1.101,100.78.239.175,2,1,0.44,0
2016-03-02 02:30:24.834,8,234B9614-18C8-49ED-8B56-CAB6C4F40872,my_iOS_device_1,1456907423.999996,40.79925160393193,-96.68575792582396,370.6115,0,-1,3,10,-9999,1456907424.784616,-0.3480043411254883,46.62893676757812,12.0400390625,7.935142517089844,4.658006191253662,25,10158.21671675,0.027587890625,1.002883911132812,-0.1025543212890625,10158.20988775,-0.04356665227260625,0.01910258818302937,-0.002773948591426535,10158.17487775,1.26160007074217,0.2867973468168056,-1.472129137814311,-0.0297493003308773,-0.0343184657394886,0.01403030008077621,-0.01675749197602272,0.01282874774187803,-0.0008990633068606257,XArbitraryCorrectedZVertical,-0.5990747136972129,-0.3063783181557748,0.3551365373687487,0.648937480346405,0.02786589041352272,0.9951363205909729,-0.0944836288690567,1.44162392616272,46.54293823242188,10.66812801361084,1,10158.00862275,stationary,1,2016-03-02 02:30:24.594,null,0,0,0,0,null,10157.22834975,0,0.1904602,97.4213,192.168.1.101,100.78.239.175,2,1,0.44,0
2016-03-02 02:30:24.849,9,234B9614-18C8-49ED-8B56-CAB6C4F40872,my_iOS_device_1,1456907423.999996,40.79925160393193,-96.68575792582396,370.6115,0,-1,3,10,-9999,1456907424.843203,-0.2439298629760742,46.80302429199219,12.60107421875,7.536383628845215,4.259247303009033,25,10158.24701675,0.0314483642578125,1.0068359375,-0.1017608642578125,10158.24490575,-0.04463671039860009,0.01059458744855322,-0.002785133868004867,10158.20988775,1.266588521008055,0.2910439507765392,-1.472827673895834,-0.02534697204828262,-0.01307337358593941,0.004491597879678011,-0.006903454195708036,0.01149369962513447,-0.000341404287610203,XArbitraryCorrectedZVertical,-0.5992511096680802,-0.3066738515135503,0.3553152503022777,0.6485370685334901,0.02806739509105682,0.9952049255371094,-0.09369850903749466,1.478320240974426,46.53104019165039,10.71490383148193,1,10158.00862275,stationary,1,2016-03-02 02:30:24.594,null,0,0,0,0,null,10157.22834975,0,0.1904602,97.4213,192.168.1.101,100.78.239.175,2,1,0.44,0
2016-03-02 02:30:24.879,10,234B9614-18C8-49ED-8B56-CAB6C4F40872,my_iOS_device_1,1456907423.999996,40.79925160393193,-96.68575792582396,370.6115,0,-1,3,10,-9999,1456907424.843203,-0.2439298629760742,46.80302429199219,12.60107421875,7.536383628845215,4.259247303009033,25,10158.27731775,0.0239105224609375,1.007766723632812,-0.0919342041015625,10158.24490575,-0.04463671039860009,0.01059458744855322,-0.002785133868004867,10158.24490575,1.269603402175949,0.2932123902905401,-1.472960040890299,-0.02641390822827816,-0.02158125676214695,0.004480891395360231,0.003872058819979429,0.00923771969974041,-0.0127814058214426,XArbitraryCorrectedZVertical,-0.5992092898579638,-0.3069080763699382,0.3556112042070217,0.6483026538964761,0.02823243290185928,0.9952178597450256,-0.09351132065057755,1.486334443092346,46.52608489990234,10.73528480529785,1,10158.00862275,stationary,1,2016-03-02 02:30:24.594,null,0,0,0,0,null,10157.22834975,0,0.1904602,97.4213,192.168.1.101,100.78.239.175,2,1,0.44,0
2016-03-02 02:30:24.913,11,234B9614-18C8-49ED-8B56-CAB6C4F40872,my_iOS_device_1,1456907423.999996,40.79925160393193,-96.68575792582396,370.6115,0,-1,3,10,-9999,1456907424.901869,-0.1398563385009766,46.76820373535156,12.3699951171875,7.898529052734375,4.621392726898193,25,10158.30761575,0.0237579345703125,1.004592895507812,-0.102142333984375,10158.27991875,-0.03296886903074494,0.006355633941474102,-0.0004820321573043421,10158.27991875,1.273732003143122,0.2964907247320473,-1.473458900638085,-0.0147454347461462,-0.02582000195980072,0.006783794611692429,-0.004483263939619064,0.0125002721324563,0.001009233994409442,XArbitraryCorrectedZVertical,-0.5992909553962024,-0.3072110540401244,0.3558466016025485,0.6479544082601361,0.02839378640055656,0.9952664375305176,-0.09294343739748001,1.527321338653564,46.51922607421875,10.75923919677734,1,10158.00862275,stationary,1,2016-03-02 02:30:24.594,null,0,0,0,0,null,10157.22834975,0,0.1904602,97.4213,192.168.1.101,100.78.239.175,2,1,0.44,0
2016-03-02 02:30:24.940,12,234B9614-18C8-49ED-8B56-CAB6C4F40872,my_iOS_device_1,1456907423.999996,40.79925160393193,-96.68575792582396,370.6115,0,-1,3,10,-9999,1456907424.901869,-0.1398563385009766,46.76820373535156,12.3699951171875,7.898529052734375,4.621392726898193,25,10158.33792075,0.020782470703125,1.009170532226562,-0.0953826904296875,10158.31493475,-0.02332023640138786,0.0095383777602278,-0.005672266805759769,10158.31493475,1.270998055731533,0.2927834810660697,-1.473459057099258,-0.00502536678686738,-0.02255888842046261,0.001566527294926345,-0.004291048273444176,0.009326428174972534,-0.009094420820474625,XArbitraryCorrectedZVertical,-0.5990513938643676,-0.3075930284059249,0.3560715208472084,0.6478711510993134,0.02804898284375668,0.9952664375305176,-0.09304790943861008,1.525417923927307,46.51655960083008,10.77103042602539,1,10158.00862275,stationary,1,2016-03-02 02:30:24.594,null,0,0,0,0,null,10157.22834975,0,0.1904602,97.4213,192.168.1.101,100.78.239.175,2,1,0.44,0
2016-03-02 02:30:24.992,13,234B9614-18C8-49ED-8B56-CAB6C4F40872,my_iOS_device_1,1456907423.999996,40.79925160393193,-96.68575792582396,370.6115,0,-1,3,10,-9999,1456907424.962549,0.3805074691772461,46.59410095214844,11.8089599609375,7.859436988830566,4.582301139831543,25,10158.36822075,0.0212249755859375,1.011489868164062,-0.093536376953125,10158.34994475,-0.02757756571998853,0.02548911479314839,-0.004676510874179142,10158.34994475,1.265777319155261,0.2870374524425577,-1.473643085744776,-0.009281189180910587,-0.006608285941183567,0.002559354528784752,-0.008205420337617397,0.01463387813419104,-0.00261020939797163,XArbitraryCorrectedZVertical,-0.5988808277545151,-0.307938003324173,0.3560569953183809,0.6478729476846506,0.02746201306581497,0.9952843189239502,-0.09303188323974609,1.518405079841614,46.52024459838867,10.75608539581299,1,10158.00862275,stationary,1,2016-03-02 02:30:24.594,null,0,0,0,0,null,10157.22834975,0,0.1904602,97.4213,192.168.1.101,100.78.239.175,2,1,0.44,0
2016-03-02 02:30:25.000,14,234B9614-18C8-49ED-8B56-CAB6C4F40872,my_iOS_device_1,1456907423.999996,40.79925160393193,-96.68575792582396,370.6115,0,-1,3,10,-9999,1456907424.962549,0.3805074691772461,46.59410095214844,11.8089599609375,7.859436988830566,4.582301139831543,25,10158.39850575,0.0249176025390625,1.003921508789062,-0.0964508056640625,10158.38495075,-0.0126675920410709,0.03081437170887083,-0.005528456106895491,10158.34994475,1.265777319155261,0.2870374524425577,-1.473643085744776,-0.009281189180910587,-0.006608285941183567,0.002559354528784752,-0.008205420337617397,0.01463387813419104,-0.00261020939797163,XArbitraryCorrectedZVertical,-0.5988808277545151,-0.307938003324173,0.3560569953183809,0.6478729476846506,0.02746201306581497,0.9952843189239502,-0.09303188323974609,1.518405079841614,46.52024459838867,10.75608539581299,1,10158.00862275,stationary,1,2016-03-02 02:30:24.594,null,0,0,0,0,null,10157.22834975,0,0.1904602,97.4213,192.168.1.101,100.78.239.175,2,1,0.44,0
2016-03-02 02:30:25.032,15,234B9614-18C8-49ED-8B56-CAB6C4F40872,my_iOS_device_1,1456907423.999996,40.79925160393193,-96.68575792582396,370.6115,0,-1,3,10,-9999,1456907425.0193,0.5886497497558594,46.7333984375,11.87493896484375,7.799330711364746,4.522194385528564,25,10158.42882175,0.023193359375,1.004608154296875,-0.102569580078125,10158.41995275,-0.0136689406109407,0.05526298946412526,-0.008752745238654424,10158.38495075,1.263283747225235,0.2844102395826526,-1.473815817498781,0.005628069862723351,-0.001283061690628529,0.001705240807496011,-0.003838575910776854,0.01174848526716232,0.002057348145172,XArbitraryCorrectedZVertical,-0.5988433631059968,-0.3080864791161487,0.3559946124768707,0.6478712709613843,0.02716926485300064,0.9953010678291321,-0.09293869882822037,1.505539536476135,46.51925659179688,10.76216888427734,1,10158.00862275,stationary,1,2016-03-02 02:30:24.594,null,0,0,0,0,null,10157.22834975,0,0.1904602,97.4213,192.168.1.101,100.78.239.175,2,1,0.44,0
2016-03-02 02:30:25.076,16,234B9614-18C8-49ED-8B56-CAB6C4F40872,my_iOS_device_1,1456907424.999996,40.79925160393193,-96.68575792582396,370.5,0,-1,3,10,-9999,1456907425.0193,0.5886497497558594,46.7333984375,11.87493896484375,7.799330711364746,4.522194385528564,25,10158.45912575,0.0303802490234375,1.00860595703125,-0.090789794921875,10158.45497475,-0.01364230900003991,0.07121106333595577,-0.009826265474065366,10158.41995275,1.258216236694253,0.2798093352812232,-1.473406176368949,0.004627999849617481,0.02316558361053467,-0.001520797028206289,-0.004881317727267742,0.009316310286521912,-0.008443626575171947,XArbitraryCorrectedZVertical,-0.5986951387907744,-0.3079559182954355,0.3558276810918624,0.6481619740033049,0.02685397490859032,0.9952613115310669,-0.09345456957817078,1.488610625267029,46.51896667480469,10.76578044891357,1,10158.00862275,stationary,1,2016-03-02 02:30:24.594,null,0,0,0,0,null,10157.22834975,0,0.1904602,97.4213,192.168.1.101,100.78.239.175,2,1,0.44,0
2016-03-02 02:30:25.102,17,234B9614-18C8-49ED-8B56-CAB6C4F40872,my_iOS_device_1,1456907424.999996,40.79925160393193,-96.68575792582396,370.5,0,-1,3,10,-9999,1456907425.078089,0.4845762252807617,46.76821899414062,12.238037109375,7.748990058898926,4.471854209899902,25,10158.48942775,0.0306854248046875,1.006210327148438,-0.0912322998046875,10158.45497475,-0.01364230900003991,0.07121106333595577,-0.009826265474065366,10158.45497475,1.256325321235814,0.2790379107747172,-1.473206816001179,0.004655524156987667,0.03911376744508743,-0.002594844438135624,0.001911036437377334,0.0136997289955616,0.0003737572988029569,XArbitraryCorrectedZVertical,-0.5987952877919036,-0.3075893471996089,0.3554930011951155,0.6484271145693881,0.02683652192354202,0.9952419400215149,-0.09366599470376968,1.478144764900208,46.52312469482422,10.74924850463867,1,10158.00862275,stationary,1,2016-03-02 02:30:24.594,null,0,0,0,0,null,10157.22834975,0,0.1904602,97.4213,192.168.1.101,100.78.239.175,2,1,0.44,0
2016-03-02 02:30:25.153,18,234B9614-18C8-49ED-8B56-CAB6C4F40872,my_iOS_device_1,1456907424.999996,40.79925160393193,-96.68575792582396,370.5,0,-1,3,10,-9999,1456907425.136597,0.2417392730712891,47.08161926269531,12.799072265625,7.709779739379883,4.432643413543701,25,10158.51972975,0.0442657470703125,1.00250244140625,-0.0937652587890625,10158.48998975,-0.02319799730735322,0.05524701049758479,-0.01208835450397867,10158.48998975,1.257192160629554,0.2811064021031644,-1.473463283498932,-0.004901951178908348,0.02315013855695724,-0.004855876322835684,0.003726024180650711,0.01094344910234213,0.002132750814780593,XArbitraryCorrectedZVertical,-0.5990985278374495,-0.3072432727685508,0.3550937345335148,0.6485298489479692,0.02695940062403679,0.995266854763031,-0.09336505085229874,1.446205258369446,46.52704238891602,10.73662757873535,1,10158.00862275,stationary,1,2016-03-02 02:30:24.594,null,0,0,0,0,null,10157.22834975,0,0.1904602,97.4213,192.168.1.101,100.78.239.175,2,1,0.44,0
2016-03-02 02:30:25.162,19,234B9614-18C8-49ED-8B56-CAB6C4F40872,my_iOS_device_1,1456907424.999996,40.79925160393193,-96.68575792582396,370.5,0,-1,3,10,-9999,1456907425.136597,0.2417392730712891,47.08161926269531,12.799072265625,7.709779739379883,4.432643413543701,25,10158.55003175,0.03271484375,1.004013061523438,-0.0862274169921875,10158.52499875,-0.03721155096335017,0.0223034414971956,-0.0005518069778644182,10158.52499875,1.265687872042696,0.2896546952727475,-1.473515474361028,-0.01891465298831463,-0.009792841970920563,0.006684389431029558,0.0165240652859211,0.007230493240058422,-0.0006838536355644464,XArbitraryCorrectedZVertical,-0.5993259454499981,-0.3070304684015524,0.355274578974077,0.6483214296306622,0.0277416817843914,0.9952719211578369,-0.09308140724897385,1.458237051963806,46.52352905273438,10.75020599365234,1,10158.00862275,stationary,1,2016-03-02 02:30:24.594,null,0,0,0,0,null,10158.54228375,0,0.1904602,97.4213,192.168.1.101,100.78.239.175,2,1,0.44,0
2016-03-02 02:30:25.188,20,234B9614-18C8-49ED-8B56-CAB6C4F40872,my_iOS_device_1,1456907424.999996,40.79925160393193,-96.68575792582396,370.5,0,-1,3,10,-9999,1456907425.136597,0.2417392730712891,47.08161926269531,12.799072265625,7.709779739379883,4.432643413543701,25,10158.58033175,0.02313232421875,1.0103759765625,-0.0956268310546875,10158.56000875,-0.04051147387006736,0.01381434920645902,0.006864830341897252,10158.56000875,1.278906778208822,0.3026037955983227,-1.474525726116392,-0.02221706509590149,-0.01828133873641491,0.01410362310707569,0.004069854505360126,0.008643497712910175,0.00552712706848979,XArbitraryCorrectedZVertical,-0.5998651380039676,-0.3070578839642097,0.355431673654893,0.6477233957992783,0.02864499017596245,0.995369553565979,-0.09175454080104828,1.494061231613159,46.5164680480957,10.77581310272217,1,10158.00862275,stationary,1,2016-03-02 02:30:24.594,null,0,0,0,0,null,10158.54228375,0,0.1904602,97.4213,192.168.1.101,100.78.239.175,2,1,0.44,0
2016-03-02 02:30:25.233,21,234B9614-18C8-49ED-8B56-CAB6C4F40872,my_iOS_device_1,1456907424.999996,40.79925160393193,-96.68575792582396,370.5,0,-1,3,10,-9999,1456907425.201602,0.7967929840087891,46.7333984375,12.9310302734375,7.642022132873535,4.364885807037354,25,10158.61062975,0.02392578125,1.005020141601562,-0.09222412109375,10158.59502275,-0.04683248671737043,0.01698803827750645,0.002508431430745635,10158.56000875,1.278906778208822,0.3026037955983227,-1.474525726116392,-0.02221706509590149,-0.01828133873641491,0.01410362310707569,0.004069854505360126,0.008643497712910175,0.00552712706848979,XArbitraryCorrectedZVertical,-0.5998651380039676,-0.3070578839642097,0.355431673654893,0.6477233957992783,0.02864499017596245,0.995369553565979,-0.09175454080104828,1.494061231613159,46.5164680480957,10.77581310272217,1,10158.00862275,stationary,1,2016-03-02 02:30:24.594,null,0,0,0,0,null,10158.54228375,0,0.1904602,97.4213,192.168.1.101,100.78.239.175,2,1,0.44,0
2016-03-02 02:30:25.243,22,234B9614-18C8-49ED-8B56-CAB6C4F40872,my_iOS_device_1,1456907424.999996,40.79925160393193,-96.68575792582396,370.5,0,-1,3,10,-9999,1456907425.201602,0.7967929840087891,46.7333984375,12.9310302734375,7.642022132873535,4.364885807037354,25,10158.64093375,0.0224609375,1.007522583007812,-0.0877532958984375,10158.63003175,-0.04355626594435495,0.03292679108552168,-0.002780872810260741,10158.59502275,1.28267625876546,0.3058743132359742,-1.475283579506612,-0.02847142517566681,-0.01503596361726522,0.009724169969558716,-0.006623032037168741,0.01401832513511181,-0.003510891459882259,XArbitraryCorrectedZVertical,-0.6000666636667598,-0.3073263619000559,0.35548647638903,0.6473792331714041,0.02871775813400745,0.9954421520233154,-0.09094101190567017,1.532073020935059,46.50106048583984,10.83681583404541,1,10158.00862275,stationary,1,2016-03-02 02:30:24.594,null,0,0,0,0,null,10158.54228375,0,0.1904602,97.4213,192.168.1.101,100.78.239.175,2,1,0.44,0
2016-03-02 02:30:25.273,23,234B9614-18C8-49ED-8B56-CAB6C4F40872,my_iOS_device_1,1456907424.999996,40.79925160393193,-96.68575792582396,370.5,0,-1,3,10,-9999,1456907425.254066,1.074319839477539,47.15126037597656,12.6669921875,7.569501876831055,4.292366027832031,25,10158.67123675,0.028564453125,1.006820678710938,-0.090850830078125,10158.66504075,-0.03827308697385576,0.04463697671470911,0.0004870921633754927,10158.63003175,1.283796343928173,0.3067764541524655,-1.476284977459688,-0.02519503608345985,0.0009027656051330268,0.004432896617799997,-0.008616541512310505,0.008048689924180508,-0.002946037100628018,XArbitraryCorrectedZVertical,-0.6003173342832845,-0.3076308395318283,0.3553337127547087,0.6470860200219685,0.02849874272942543,0.9955371022224426,-0.08996473252773285,1.530410408973694,46.48987579345703,10.88491439819336,1,10158.00862275,stationary,1,2016-03-02 02:30:24.594,null,0,0,0,0,null,10158.54228375,0,0.1904602,97.4213,192.168.1.101,100.78.239.175,2,1,0.44,0
2016-03-02 02:30:25.314,24,234B9614-18C8-49ED-8B56-CAB6C4F40872,my_iOS_device_1,1456907424.999996,40.79925160393193,-96.68575792582396,370.5,0,-1,3,10,-9999,1456907425.254066,1.074319839477539,47.15126037597656,12.6669921875,7.569501876831055,4.292366027832031,25,10158.70151875,0.02569580078125,1.007415771484375,-0.0929718017578125,10158.66504075,-0.03827308697385576,0.04463697671470911,0.0004870921633754927,10158.66504075,1.284946483004048,0.3081946273148594,-1.477043892024554,-0.01991241239011288,0.01261303015053272,0.007699023466557264,-0.00141957204323262,0.01344000361859798,-0.001493974472396076,XArbitraryCorrectedZVertical,-0.6005909387095377,-0.3077147875138436,0.3550944316049459,0.6469235492146118,0.02839711122214794,0.9956084489822388,-0.08920426666736603,1.515944004058838,46.47942352294922,10.93148040771484,1,10158.00862275,stationary,1,2016-03-02 02:30:24.594,null,0,0,0,0,null,10158.54228375,0,0.1904602,97.4213,192.168.1.101,100.78.239.175,2,1,0.44,0
2016-03-02 02:30:25.339,25,234B9614-18C8-49ED-8B56-CAB6C4F40872,my_iOS_device_1,1456907424.999996,40.79925160393193,-96.68575792582396,370.5,0,-1,3,10,-9999,1456907425.315316,1.074319839477539,47.08158874511719,12.6669921875,7.475772857666016,4.198637008666992,25,10158.73181975,0.0312957763671875,1.008041381835938,-0.084808349609375,10158.70003575,-0.04245371725306214,0.04568253375867421,-0.004902879566835877,10158.70003575,1.287140049370453,0.3108817400406347,-1.477508115687876,-0.02409233897924423,0.01365871354937553,0.002308557275682688,-0.001182093052193522,0.009459884837269783,-0.00626784423366189,XArbitraryCorrectedZVertical,-0.6008516977414866,-0.3076254820922165,0.354883059531494,0.6468398674681655,0.02849532477557659,0.9956517815589905,-0.08868759870529175,1.518501996994019,46.47624969482422,10.94461822509766,1,10158.00862275,stationary,1,2016-03-02 02:30:24.594,null,0,0,0,0,null,10158.54228375,0,0.1904602,97.4213,192.168.1.101,100.78.239.175,2,1,0.44,0
2016-03-02 02:30:25.364,26,234B9614-18C8-49ED-8B56-CAB6C4F40872,my_iOS_device_1,1456907424.999996,40.79925160393193,-96.68575792582396,370.5,0,-1,3,10,-9999,1456907425.315316,1.074319839477539,47.08158874511719,12.6669921875,7.475772857666016,4.198637008666992,25,10158.76213275,0.0312347412109375,1.009719848632812,-0.0889129638671875,10158.73505475,-0.03718651724910343,0.03612471492248884,-0.001624261948839327,10158.73505475,1.291566160127504,0.3155038154071321,-1.47846060589716,-0.01882623508572578,0.004101123195141554,0.005586672108620405,0.002685117302462459,0.01230129692703485,0.002845017937943339,XArbitraryCorrectedZVertical,-0.6012385969223638,-0.3077100353293316,0.354690901248188,0.6465454727242014,0.02861065976321697,0.9957400560379028,-0.08765336871147156,1.514109253883362,46.47317504882812,10.95828533172607,1,10158.00862275,stationary,1,2016-03-02 02:30:24.594,null,0,0,0,0,null,10158.54228375,0,0.1904602,97.4213,192.168.1.101,100.78.239.175,2,1,0.44,0
2016-03-02 02:30:25.401,27,234B9614-18C8-49ED-8B56-CAB6C4F40872,my_iOS_device_1,1456907424.999996,40.79925160393193,-96.68575792582396,370.5,0,-1,3,10,-9999,1456907425.371796,1.074319839477539,47.4298095703125,12.9310302734375,7.388942718505859,4.111806392669678,25,10158.79242775,0.025177001953125,1.00750732421875,-0.0848846435546875,10158.77006675,-0.03289137104302363,0.05100965488715972,-0.003700994966883117,10158.77006675,1.296251600837697,0.3205813499468246,-1.478870539933034,-0.014494264498353,0.01902484148740768,0.003501496510580182,0.002308019669726491,0.01394204888492823,-0.001793396193534136,XArbitraryCorrectedZVertical,-0.6015243403800755,-0.3075852468822253,0.3545773092081389,0.6464013580008906,0.02892672084271908,0.9957777857780457,-0.08711956441402435,1.516032218933105,46.4603385925293,11.01229095458984,1,10158.00862275,stationary,1,2016-03-02 02:30:24.594,null,0,0,0,0,null,10158.54228375,0,0.1904602,97.4213,192.168.1.101,100.78.239.175,2,1,0.44,0
2016-03-02 02:30:25.425,28,234B9614-18C8-49ED-8B56-CAB6C4F40872,my_iOS_device_1,1456907424.999996,40.79925160393193,-96.68575792582396,370.5,0,-1,3,10,-9999,1456907425.371796,1.074319839477539,47.4298095703125,12.9310302734375,7.388942718505859,4.111806392669678,25,10158.82272475,0.0334320068359375,1.006118774414062,-0.0961761474609375,10158.80508675,-0.01379890287213656,0.03827202170941973,-0.0002199771060405451,10158.77006675,1.296251600837697,0.3205813499468246,-1.478870539933034,-0.014494264498353,0.01902484148740768,0.003501496510580182,0.002308019669726491,0.01394204888492823,-0.001793396193534136,XArbitraryCorrectedZVertical,-0.6015243403800755,-0.3075852468822253,0.3545773092081389,0.6464013580008906,0.02892672084271908,0.9957777857780457,-0.08711956441402435,1.516032218933105,46.4603385925293,11.01229095458984,1,10158.00862275,stationary,1,2016-03-02 02:30:24.594,null,0,0,0,0,null,10158.54228375,0,0.1904602,97.4213,192.168.1.101,100.78.239.175,2,1,0.44,0
2016-03-02 02:30:25.474,29,234B9614-18C8-49ED-8B56-CAB6C4F40872,my_iOS_device_1,1456907424.999996,40.79925160393193,-96.68575792582396,370.5,0,-1,3,10,-9999,1456907425.430451,0.727412223815918,47.15126037597656,12.20489501953125,7.32235050201416,4.045214653015137,25,10158.85302175,0.036346435546875,1.005889892578125,-0.08782958984375,10158.84006975,-0.02337190172653539,0.03826483117447651,-0.0003589941149426813,10158.80508675,1.297037699102751,0.3217554266961574,-1.479023609432937,0.004597009625285864,0.00628737173974514,0.006981282960623503,0.001155323348939419,0.01217324938625097,-0.002795995213091373,XArbitraryCorrectedZVertical,-0.6016510874022497,-0.3074825155685161,0.3544402720825234,0.6464074297015612,0.02898078598082066,0.9957918524742126,-0.0869409441947937,1.522400856018066,46.45721054077148,11.02461528778076,1,10158.00862275,stationary,1,2016-03-02 02:30:24.594,null,0,0,0,0,null,10158.54228375,0,0.1904602,97.4213,192.168.1.101,100.78.239.175,2,1,0.44,0
2016-03-02 02:30:25.485,30,234B9614-18C8-49ED-8B56-CAB6C4F40872,my_iOS_device_1,1456907424.999996,40.79925160393193,-96.68575792582396,370.5,0,-1,3,10,-9999,1456907425.430451,0.727412223815918,47.15126037597656,12.20489501953125,7.32235050201416,4.045214653015137,25,10158.88331975,0.04180908203125,1.005599975585938,-0.08465576171875,10158.87508275,-0.03194142148219237,0.03614335705011939,0.003780623483476487,10158.84006975,1.29936257081182,0.3243133842148256,-1.478764802440947,-0.00497471122071147,0.006280394271016121,0.006842776201665401,0.001262891571968794,0.01173923630267382,-0.003617952344939113,XArbitraryCorrectedZVertical,-0.6016804270625281,-0.3072869342939258,0.354486458658227,0.6464477970648573,0.02928520366549492,0.9957680702209473,-0.08711080998182297,1.51767361164093,46.451416015625,11.04965877532959,1,10158.00862275,stationary,1,2016-03-02 02:30:24.594,null,0,0,0,0,null,10158.54228375,0,0.1904602,97.4213,192.168.1.101,100.78.239.175,2,1,0.44,0
2016-03-02 02:30:25.518,31,234B9614-18C8-49ED-8B56-CAB6C4F40872,my_iOS_device_1,1456907424.999996,40.79925160393193,-96.68575792582396,370.5,0,-1,3,10,-9999,1456907425.488839,0.3111209869384766,46.87269592285156,12.27093505859375,7.290064811706543,4.012928485870361,25,10158.91361375,0.0397186279296875,1.008071899414062,-0.086029052734375,10158.91010775,-0.04150616453721195,0.02762603525182797,0.002580336780177774,10158.87508275,1.309301250222461,0.3345681231020471,-1.479013287555582,-0.01354458834975958,0.004159423522651196,0.01098473556339741,0.008448001928627491,0.008390014991164207,0.001214537769556046,XArbitraryCorrectedZVertical,-0.6020354393579822,-0.3070296856834107,0.3545502375028736,0.6462044807588437,0.03009569831192493,0.9957908987998962,-0.08657220005989075,1.542339444160461,46.45102691650391,11.04786586761475,1,10158.00862275,stationary,1,2016-03-02 02:30:24.594,null,0,0,0,0,null,10158.54228375,0,0.1904602,97.4213,192.168.1.101,100.78.239.175,2,1,0.44,0
2016-03-02 02:30:25.554,32,234B9614-18C8-49ED-8B56-CAB6C4F40872,my_iOS_device_1,1456907424.999996,40.79925160393193,-96.68575792582396,370.5,0,-1,3,10,-9999,1456907425.549513,0.2417392730712891,46.59410095214844,12.799072265625,7.251688003540039,3.974551916122437,25,10158.94389675,0.0393829345703125,1.007125854492188,-0.0870819091796875,10158.91010775,-0.04150616453721195,0.02762603525182797,0.002580336780177774,10158.91010775,1.320904628219709,0.3461737872071922,-1.479414467133657,-0.02306148782372475,-0.004292125348001719,0.009775098413228989,0.007901309058070183,0.01225957553833723,-8.09396369731985e-05,XArbitraryCorrectedZVertical,-0.6024140139387639,-0.30688223315201,0.3547023442724101,0.6458381358772819,0.03096282668411732,0.9958275556564331,-0.08584129810333252,1.590080976486206,46.44152069091797,11.08100986480713,1,10158.00862275,stationary,1,2016-03-02 02:30:24.594,null,0,0,0,0,null,10158.54228375,0,0.1904602,97.4213,192.168.1.101,100.78.239.175,2,1,0.44,0
2016-03-02 02:30:25.579,33,234B9614-18C8-49ED-8B56-CAB6C4F40872,my_iOS_device_1,1456907424.999996,40.79925160393193,-96.68575792582396,370.5,0,-1,3,10,-9999,1456907425.549513,0.2417392730712891,46.59410095214844,12.799072265625,7.251688003540039,3.974551916122437,25,10158.97420075,0.029754638671875,1.005905151367188,-0.0804443359375,10158.94512875,-0.04463777566303613,0.02867532072131919,-0.001728657863570433,10158.94512875,1.332596288445528,0.3576177819761696,-1.479832788985817,-0.02619277313351631,-0.003242285689339042,0.005469249095767736,0.007585611660033464,0.01126018539071083,-0.001990787917748094,XArbitraryCorrectedZVertical,-0.6027550863380027,-0.3068236386520835,0.35492182217871,0.6454270375489942,0.03179732337594032,0.9958656430244446,-0.08509112149477005,1.612561464309692,46.43548202514648,11.10305500030518,1,10158.97776975,unknown,1,2016-03-02 02:30:25.564,null,0,0,0,0,null,10158.54228375,0,0.1904602,97.4213,192.168.1.101,100.78.239.175,2,1,0.44,0
2016-03-02 02:30:25.633,34,234B9614-18C8-49ED-8B56-CAB6C4F40872,my_iOS_device_1,1456907424.999996,40.79925160393193,-96.68575792582396,370.5,0,-1,3,10,-9999,1456907425.609554,0.3458108901977539,46.69856262207031,12.8980712890625,7.227590560913086,3.950454711914062,25,10159.00449675,0.030792236328125,1.0074462890625,-0.085693359375,10158.98013775,-0.04256823317993555,0.02975203675003823,0.002563825181419282,10158.98013775,1.339012780812727,0.3639583357343636,-1.480740172648345,-0.0241240281611681,-0.002165379468351603,0.009761413559317589,-0.002259881468489766,0.009957467205822468,0.003598988987505436,XArbitraryCorrectedZVertical,-0.6031203294553478,-0.3069596158355928,0.3548468343399487,0.6450623121858999,0.03201451897621155,0.9959476590156555,-0.08404332399368286,1.650410532951355,46.42392349243164,11.14575099945068,1,10158.97776975,unknown,1,2016-03-02 02:30:25.564,null,0,0,0,0,null,10158.54228375,0,0.1904602,97.4213,192.168.1.101,100.78.239.175,2,1,0.44,0
2016-03-02 02:30:25.639,35,234B9614-18C8-49ED-8B56-CAB6C4F40872,my_iOS_device_1,1456907424.999996,40.79925160393193,-96.68575792582396,370.5,0,-1,3,10,-9999,1456907425.609554,0.3458108901977539,46.69856262207031,12.8980712890625,7.227590560913086,3.950454711914062,25,10159.03478375,0.0355377197265625,1.012176513671875,-0.08612060546875,10159.01515175,-0.0297879894247543,0.03188549509930071,0.001682585176712063,10159.01515175,1.343609096637868,0.3685260796082993,-1.481260264996576,-0.01134426053613424,-3.171825301251374e-05,0.008879452012479305,-0.002884077141061425,0.0107500609010458,-0.008902677334845066,XArbitraryCorrectedZVertical,-0.6033532197964808,-0.307015299336329,0.3548167146939381,0.6448345501819891,0.03221147134900093,0.9959943294525146,-0.08341299742460251,1.654178023338318,46.41669464111328,11.17526149749756,1,10158.97776975,unknown,1,2016-03-02 02:30:25.564,null,0,0,0,0,null,10158.54228375,0,0.1904602,97.4213,192.168.1.101,100.78.239.175,2,1,0.44,0
2016-03-02 02:30:25.669,36,234B9614-18C8-49ED-8B56-CAB6C4F40872,my_iOS_device_1,1456907424.999996,40.79925160393193,-96.68575792582396,370.5,0,-1,3,10,-9999,1456907425.609554,0.3458108901977539,46.69856262207031,12.8980712890625,7.227590560913086,3.950454711914062,25,10159.06509475,0.038177490234375,1.008148193359375,-0.0819244384765625,10159.05016075,-0.02762230682630186,0.02443450300147701,-0.001479385985539017,10159.01515175,1.343609096637868,0.3685260796082993,-1.481260264996576,-0.01134426053613424,-3.171825301251374e-05,0.008879452012479305,-0.002884077141061425,0.0107500609010458,-0.008902677334845066,XArbitraryCorrectedZVertical,-0.6033532197964808,-0.307015299336329,0.3548167146939381,0.6448345501819891,0.03221147134900093,0.9959943294525146,-0.08341299742460251,1.654178023338318,46.41669464111328,11.17526149749756,1,10158.97776975,unknown,1,2016-03-02 02:30:25.564,null,0,0,0,0,null,10158.54228375,0,0.1904602,97.4213,192.168.1.101,100.78.239.175,2,1,0.44,0
2016-03-02 02:30:25.713,37,234B9614-18C8-49ED-8B56-CAB6C4F40872,my_iOS_device_1,1456907424.999996,40.79925160393193,-96.68575792582396,370.5,0,-1,3,10,-9999,1456907425.707707,0.03359603881835938,46.73336791992188,12.53497314453125,7.22337818145752,3.946242094039917,25,10159.09538375,0.0316314697265625,1.005142211914062,-0.08721923828125,10159.08516975,-0.0244475524908184,0.02231302887711989,-0.0003664509659949032,10159.05016075,1.349959676520162,0.3747188815584053,-1.481464109430105,-0.009178249165415764,-0.007482442539185286,0.005718366242945194,0.007416482549160719,0.01308170799165964,0.001846219412982464,XArbitraryCorrectedZVertical,-0.6035271095283542,-0.30699110650044,0.3549423925882714,0.6446141377115945,0.03265309706330299,0.9960125088691711,-0.08302297443151474,1.676975250244141,46.40569305419922,11.21745872497559,1,10158.97776975,unknown,1,2016-03-02 02:30:25.564,null,0,0,0,0,null,10158.54228375,0,0.1904602,97.4213,192.168.1.101,100.78.239.175,2,1,0.44,0
2016-03-02 02:30:25.728,38,234B9614-18C8-49ED-8B56-CAB6C4F40872,my_iOS_device_1,1456907424.999996,40.79925160393193,-96.68575792582396,370.5,0,-1,3,10,-9999,1456907425.707707,0.03359603881835938,46.73336791992188,12.53497314453125,7.22337818145752,3.946242094039917,25,10159.12568675,0.03375244140625,1.009063720703125,-0.0827178955078125,10159.12015975,-0.0372626836562797,0.01274162791937511,0.002649578968519834,10159.08516975,1.355466235108386,0.3798928503017647,-1.481615406261245,-0.005953323096036911,-0.009533016011118889,0.00681955274194479,0.001031280844472349,0.01177122443914413,-0.001057782093994319,XArbitraryCorrectedZVertical,-0.6036370525921311,-0.3070273990999082,0.3551158873034928,0.6443983174438361,0.03302633762359619,0.9960260391235352,-0.08271297067403793,1.693448901176453,46.40111923217773,11.23390007019043,1,10158.97776975,unknown,1,2016-03-02 02:30:25.564,null,0,0,0,0,null,10158.54228375,0,0.1904602,97.4213,192.168.1.101,100.78.239.175,2,1,0.44,0
2016-03-02 02:30:25.757,39,234B9614-18C8-49ED-8B56-CAB6C4F40872,my_iOS_device_1,1456907424.999996,40.79925160393193,-96.68575792582396,370.5,0,-1,3,10,-9999,1456907425.75386,0.172358512878418,46.17623901367188,12.40289306640625,7.224730491638184,3.947594165802002,25,10159.15599075,0.031158447265625,1.00982666015625,-0.0868682861328125,10159.12015975,-0.0372626836562797,0.01274162791937511,0.002649578968519834,10159.12015975,1.358913923519558,0.3828169261973238,-1.481773759937179,-0.01876780018210411,-0.01910422369837761,0.009835165925323963,0.0002991629880852997,0.0117266159504652,-0.003238881938159466,XArbitraryCorrectedZVertical,-0.6036652910583774,-0.3071699013218669,0.3553024442013425,0.6442010875788978,0.03320913761854172,0.9960401058197021,-0.08246973901987076,1.713293075561523,46.39789581298828,11.24419689178467,1,10158.97776975,unknown,1,2016-03-02 02:30:25.564,null,0,0,0,0,null,10158.54228375,0,0.1904602,97.4213,192.168.1.101,100.78.239.175,2,1,0.44,0
2016-03-02 02:30:25.793,40,234B9614-18C8-49ED-8B56-CAB6C4F40872,my_iOS_device_1,1456907424.999996,40.79925160393193,-96.68575792582396,370.5,0,-1,3,10,-9999,1456907425.75386,0.172358512878418,46.17623901367188,12.40289306640625,7.224730491638184,3.947594165802002,25,10159.18629375,0.0303192138671875,1.0084228515625,-0.0840911865234375,10159.15518875,-0.02443849774311213,0.01486629783704032,-0.001428253292609495,10159.15518875,1.362291800999094,0.3855192307454311,-1.482003275588942,-0.005943106021732092,-0.01697941496968269,0.005756971426308155,-0.002935141790658236,0.01573455706238747,-0.006500959396362305,XArbitraryCorrectedZVertical,-0.6036818410985726,-0.3073829903057909,0.3555142137358671,0.6439670611376331,0.03334590792655945,0.9960604906082153,-0.0821678638458252,1.723429441452026,46.39573669433594,11.25155735015869,1,10158.97776975,unknown,1,2016-03-02 02:30:25.564,null,0,0,0,0,null,10158.54228375,0,0.1904602,97.4213,192.168.1.101,100.78.239.175,2,1,0.44,0
2016-03-02 02:30:25.818,41,234B9614-18C8-49ED-8B56-CAB6C4F40872,my_iOS_device_1,1456907424.999996,40.79925160393193,-96.68575792582396,370.5,0,-1,3,10,-9999,1456907425.812626,0.5886497497558594,45.96730041503906,13.12890625,7.188500881195068,3.911364793777466,25,10159.21656675,0.032135009765625,1.004669189453125,-0.081146240234375,10159.19020175,-0.01484925360606382,0.01699735934132173,-0.002355832300284094,10159.19020175,1.361556791231795,0.3842251464250676,-1.481971821421957,0.003646560944616795,-0.0148482471704483,0.00482796598225832,-0.002932078205049038,0.01236515492200851,-0.001851193024776876,XArbitraryCorrectedZVertical,-0.6035571839989647,-0.3075690636171557,0.3556764154130804,0.6439054932734865,0.03325129300355911,0.9960576891899109,-0.08223999291658401,1.743126749992371,46.39102935791016,11.26792907714844,1,10158.97776975,unknown,1,2016-03-02 02:30:25.564,null,0,0,0,0,null,10158.54228375,0,0.1904602,97.4213,192.168.1.101,100.78.239.175,2,1,0.44,0
2016-03-02 02:30:25.874,42,234B9614-18C8-49ED-8B56-CAB6C4F40872,my_iOS_device_1,1456907424.999996,40.79925160393193,-96.68575792582396,370.5,0,-1,3,10,-9999,1456907425.870998,1.109009742736816,46.35035705566406,13.29400634765625,7.123967170715332,3.84683084487915,25,10159.24687075,0.0288543701171875,1.008285522460938,-0.0777130126953125,10159.22520075,-0.02018223368894749,0.0169962940768857,-0.001367533219755689,10159.22520075,1.36197527353596,0.3841000177495036,-1.481956135453096,-0.001625527627766132,-0.01477452646940947,0.005800251383334398,-0.001111846300773323,0.00861288420855999,0.001112399040721357,XArbitraryCorrectedZVertical,-0.6034667753306372,-0.3077312649990517,0.3558530254160752,0.6438151473181692,0.03324685618281364,0.9960563182830811,-0.08225864171981812,1.75162661075592,46.39214706420898,11.26200866699219,1,10158.97776975,unknown,1,2016-03-02 02:30:25.564,null,0,0,0,0,null,10158.54228375,0,0.1904602,97.4213,192.168.1.101,100.78.239.175,2,1,0.44,0
2016-03-02 02:30:25.879,43,234B9614-18C8-49ED-8B56-CAB6C4F40872,my_iOS_device_1,1456907424.999996,40.79925160393193,-96.68575792582396,370.5,0,-1,3,10,-9999,1456907425.870998,1.109009742736816,46.35035705566406,13.29400634765625,7.123967170715332,3.84683084487915,25,10159.27718475,0.0308685302734375,1.012451171875,-0.0866851806640625,10159.26020075,-0.02339214175082,0.03082395908879512,0.0007102650627241328,10159.22520075,1.36197527353596,0.3841000177495036,-1.481956135453096,-0.001625527627766132,-0.01477452646940947,0.005800251383334398,-0.001111846300773323,0.00861288420855999,0.001112399040721357,XArbitraryCorrectedZVertical,-0.6034667753306372,-0.3077312649990517,0.3558530254160752,0.6438151473181692,0.03324685618281364,0.9960563182830811,-0.08225864171981812,1.75162661075592,46.39214706420898,11.26200866699219,1,10158.97776975,unknown,1,2016-03-02 02:30:25.564,null,0,0,0,0,null,10158.54228375,0,0.1904602,97.4213,192.168.1.101,100.78.239.175,2,1,0.44,0
2016-03-02 02:30:25.909,44,234B9614-18C8-49ED-8B56-CAB6C4F40872,my_iOS_device_1,1456907424.999996,40.79925160393193,-96.68575792582396,370.5,0,-1,3,10,-9999,1456907425.870998,1.109009742736816,46.35035705566406,13.29400634765625,7.123967170715332,3.84683084487915,25,10159.30747875,0.0297698974609375,1.004959106445312,-0.0790557861328125,10159.29522875,-0.01907808710100064,0.03187883719657551,-0.003490605240766857,10159.26020075,1.363728455710221,0.3856288408397671,-1.482368648686913,-0.004837275482714176,-0.0009466690826229751,0.007876782678067684,-0.006347293965518475,0.01606843434274197,0.004602264147251844,XArbitraryCorrectedZVertical,-0.6035681967656628,-0.3078829874318352,0.3558472892075959,0.6436506852840795,0.03321802243590355,0.9960927963256836,-0.08182699233293533,1.758873105049133,46.39078521728516,11.26648330688477,1,10158.97776975,unknown,1,2016-03-02 02:30:25.564,null,0,0,0,0,null,10158.54228375,0,0.1904602,97.4213,192.168.1.101,100.78.239.175,2,1,0.44,0
2016-03-02 02:30:25.954,45,234B9614-18C8-49ED-8B56-CAB6C4F40872,my_iOS_device_1,1456907424.999996,40.79925160393193,-96.68575792582396,370.5,0,-1,3,10,-9999,1456907425.931155,1.21308422088623,46.17625427246094,12.86492919921875,7.048627853393555,3.771491527557373,25,10159.33777775,0.0324859619140625,1.006607055664062,-0.08135986328125,10159.33024875,-0.01696060771827864,0.03826376591004048,-0.00239737761328933,10159.29522875,1.363791936012007,0.3857099597773948,-1.482266000896934,-0.0005231424001976848,0.0001083314782590605,0.003675177926197648,-0.001372256898321211,0.01398705132305622,-0.0005699783796444535,XArbitraryCorrectedZVertical,-0.6035481937660627,-0.3078474624619491,0.3558703065461445,0.6436737081597946,0.03326312452554703,0.9960837364196777,-0.08191903680562973,1.758755683898926,46.38665771484375,11.2834939956665,1,10158.97776975,unknown,1,2016-03-02 02:30:25.564,null,0,0,0,0,null,10158.54228375,0,0.1904602,97.4213,192.168.1.101,100.78.239.175,2,1,0.44,0
2016-03-02 02:30:25.970,46,234B9614-18C8-49ED-8B56-CAB6C4F40872,my_iOS_device_1,1456907424.999996,40.79925160393193,-96.68575792582396,370.5,0,-1,3,10,-9999,1456907425.931155,1.21308422088623,46.17625427246094,12.86492919921875,7.048627853393555,3.771491527557373,25,10159.36805075,0.0302581787109375,1.0123291015625,-0.0823211669921875,10159.33024875,-0.01696060771827864,0.03826376591004048,-0.00239737761328933,10159.33024875,1.364937862258111,0.3870295659697729,-1.482458514311329,0.00159275543410331,0.006493492051959038,0.004767701961100101,0.001201302395202219,0.01149812527000904,0.003633527550846338,XArbitraryCorrectedZVertical,-0.6036528164601148,-0.3078222392550742,0.3557900448276668,0.6436320301237777,0.03329882025718689,0.9961007237434387,-0.0816974937915802,1.758947014808655,46.38767623901367,11.27925872802734,1,10158.97776975,unknown,1,2016-03-02 02:30:25.564,null,0,0,0,0,null,10158.54228375,0,0.1904602,97.4213,192.168.1.101,100.78.239.175,2,1,0.44,0
2016-03-02 02:30:26.034,47,234B9614-18C8-49ED-8B56-CAB6C4F40872,my_iOS_device_1,1456907424.999996,40.79925160393193,-96.68575792582396,370.5,0,-1,3,10,-9999,1456907425.989008,1.559988975524902,46.52447509765625,13.06298828125,6.944648742675781,3.667512655258179,25,10159.39837175,0.0320281982421875,1.006484985351562,-0.0854949951171875,10159.40026675,-0.01374856912753407,0.04677043506397158,-0.003420830420206781,10159.36525775,1.365566858933249,0.3879941021175393,-1.482357857211789,-0.003721445798873901,0.01180666126310825,0.004687481094151735,-0.001295786583796144,0.01237676106393337,-0.003965728916227818,XArbitraryCorrectedZVertical,-0.6037034617953276,-0.3076736196316665,0.355727921946669,0.6436899250000402,0.033415537327528,0.9960918426513672,-0.08175814896821976,1.758913636207581,46.38568115234375,11.28746795654297,1,10158.97776975,unknown,1,2016-03-02 02:30:25.564,null,0,0,0,0,null,10158.54228375,0,0.1904602,97.4213,192.168.1.101,100.78.239.175,2,1,0.44,0
2016-03-02 02:30:26.036,48,234B9614-18C8-49ED-8B56-CAB6C4F40872,my_iOS_device_1,1456907424.999996,40.79925160393193,-96.68575792582396,370.5,0,-1,3,10,-9999,1456907425.989008,1.559988975524902,46.52447509765625,13.06298828125,6.944648742675781,3.667512655258179,25,10159.42866675,0.0300140380859375,1.006607055664062,-0.087554931640625,10159.40026675,-0.01374856912753407,0.04677043506397158,-0.003420830420206781,10159.40026675,1.365025734609103,0.3878361034964525,-1.482416098518835,0.004879308864474297,0.01505426969379187,0.003723539412021637,-0.001352481194771826,0.01038797665387392,-0.00378527375869453,XArbitraryCorrectedZVertical,-0.6037725611528649,-0.3075773620904435,0.3555860673086528,0.6437494927876275,0.03338067978620529,0.9960970282554626,-0.08170972019433975,1.758913636207581,46.38568115234375,11.28746795654297,1,10158.97776975,unknown,1,2016-03-02 02:30:25.564,null,0,0,0,0,null,10158.54228375,0,0.1904602,97.4213,192.168.1.101,100.78.239.175,2,1,0.44,0
2016-03-02 02:30:26.062,49,234B9614-18C8-49ED-8B56-CAB6C4F40872,my_iOS_device_1,1456907424.999996,40.79925160393193,-96.68575792582396,370.5,0,-1,3,10,-9999,1456907426.048313,1.525298118591309,46.62890625,12.699951171875,6.846094131469727,3.568957805633545,25,10159.45896475,0.035888671875,1.011077880859375,-0.079132080078125,10159.43527975,-0.02007357671647226,0.04462712301867581,-0.00777456617026832,10159.40026675,1.365025734609103,0.3878361034964525,-1.482416098518835,0.004879308864474297,0.01505426969379187,0.003723539412021637,-0.001352481194771826,0.01038797665387392,-0.00378527375869453,XArbitraryCorrectedZVertical,-0.6037725611528649,-0.3075773620904435,0.3555860673086528,0.6437494927876275,0.03338067978620529,0.9960970282554626,-0.08170972019433975,1.758913636207581,46.38568115234375,11.28746795654297,1,10158.97776975,unknown,1,2016-03-02 02:30:25.564,null,0,0,0,0,null,10158.54228375,0,0.1904602,97.4213,192.168.1.101,100.78.239.175,2,1,0.44,0
2016-03-02 02:30:26.112,50,234B9614-18C8-49ED-8B56-CAB6C4F40872,my_iOS_device_1,1456907425.999996,40.79925160393193,-96.68575792582396,370.4393,0,-1,3,10,-9999,1456907426.106621,1.004935264587402,46.66374206542969,12.66693115234375,6.775052070617676,3.497915983200073,25,10159.48925975,0.0376129150390625,1.005020141601562,-0.0820159912109375,10159.47028975,-0.01801442056162299,0.03187963614490253,-0.003475158906444398,10159.43527975,1.361626651200462,0.3849225960955397,-1.482122942005951,-0.001444134395569563,0.01291101984679699,-0.0006312414188869298,-0.00323808379471302,0.01053596474230289,-0.005477660801261663,XArbitraryCorrectedZVertical,-0.6037068225237228,-0.3074076072281643,0.3554486157684181,0.6439681024746857,0.03325212001800537,0.9960711002349854,-0.0820772722363472,1.746414303779602,46.38770294189453,11.28110122680664,1,10158.97776975,unknown,1,2016-03-02 02:30:25.564,null,0,0,0,0,null,10158.54228375,0,0.1904602,97.4213,192.168.1.101,100.78.239.175,2,1,0.44,0
2016-03-02 02:30:26.122,51,234B9614-18C8-49ED-8B56-CAB6C4F40872,my_iOS_device_1,1456907425.999996,40.79925160393193,-96.68575792582396,370.4393,0,-1,3,10,-9999,1456907426.106621,1.004935264587402,46.66374206542969,12.66693115234375,6.775052070617676,3.497915983200073,25,10159.51955575,0.037750244140625,1.007369995117188,-0.08697509765625,10159.50529875,-0.01058739691361001,0.02657115714404758,-0.002298840652956398,10159.47028975,1.363306531185496,0.386765239796812,-1.482287718766529,0.0006142419297248125,0.0001638035755604506,0.003668128047138453,0.005019200500100851,0.01293227449059486,0.003036948619410396,XArbitraryCorrectedZVertical,-0.6038157131058863,-0.3073673017127055,0.3553898012524722,0.6439177087252499,0.03334139660000801,0.9960856437683105,-0.08186385035514832,1.73776376247406,46.39020156860352,11.27216148376465,1,10158.97776975,unknown,1,2016-03-02 02:30:25.564,null,0,0,0,0,null,10158.54228375,0,0.1904602,97.4213,192.168.1.101,100.78.239.175,2,1,0.44,0
2016-03-02 02:30:26.164,52,234B9614-18C8-49ED-8B56-CAB6C4F40872,my_iOS_device_1,1456907425.999996,40.79925160393193,-96.68575792582396,370.4393,0,-1,3,10,-9999,1456907426.106621,1.004935264587402,46.66374206542969,12.66693115234375,6.775052070617676,3.497915983200073,25,10159.54984775,0.0309600830078125,1.010360717773438,-0.0789794921875,10159.54031375,-0.02011165992006039,0.03293557951711894,-0.005637645711588739,10159.54031375,1.366411015613565,0.3895659259262646,-1.48150670499901,-0.001481650862842798,0.001220288337208331,0.001507156295701861,-0.003256855765357614,0.01083486713469028,-0.00268476502969861,XArbitraryCorrectedZVertical,-0.6036493270555435,-0.3071849477865967,0.3557501623589624,0.6439617378231985,0.03386598825454712,0.9960163235664368,-0.08248979598283768,1.751215577125549,46.38782119750977,11.27985954284668,1,10158.97776975,unknown,1,2016-03-02 02:30:25.564,null,0,0,0,0,null,10158.54228375,0,0.1904602,97.4213,192.168.1.101,100.78.239.175,2,1,0.44,0
2016-03-02 02:30:26.192,53,234B9614-18C8-49ED-8B56-CAB6C4F40872,my_iOS_device_1,1456907425.999996,40.79925160393193,-96.68575792582396,370.4393,0,-1,3,10,-9999,1456907426.16471,0.9008646011352539,46.76820373535156,12.43585205078125,6.727871894836426,3.450736045837402,25,10159.58014075,0.031646728515625,1.009628295898438,-0.0763092041015625,10159.54031375,-0.02011165992006039,0.03293557951711894,-0.005637645711588739,10159.54031375,1.366411015613565,0.3895659259262646,-1.48150670499901,-0.001481650862842798,0.001220288337208331,0.001507156295701861,-0.003256855765357614,0.01083486713469028,-0.00268476502969861,XArbitraryCorrectedZVertical,-0.6036493270555435,-0.3071849477865967,0.3557501623589624,0.6439617378231985,0.03386598825454712,0.9960163235664368,-0.08248979598283768,1.751215577125549,46.38782119750977,11.27985954284668,1,10158.97776975,unknown,1,2016-03-02 02:30:25.564,null,0,0,0,0,null,10158.54228375,0,0.1904602,97.4213,192.168.1.101,100.78.239.175,2,1,0.44,0
2016-03-02 02:30:26.213,54,234B9614-18C8-49ED-8B56-CAB6C4F40872,my_iOS_device_1,1456907425.999996,40.79925160393193,-96.68575792582396,370.4393,0,-1,3,10,-9999,1456907426.16471,0.9008646011352539,46.76820373535156,12.43585205078125,6.727871894836426,3.450736045837402,25,10159.61043275,0.0347137451171875,1.00518798828125,-0.0816497802734375,10159.57532275,-0.009473396629629866,0.03507036944692647,-0.005484247632800175,10159.57532275,1.366835440848457,0.3900071582864972,-1.481913295178262,0.009235842153429985,0.003381433198228478,0.001636307570151985,-0.003505490021780133,0.01493382453918457,0.01039922889322042,XArbitraryCorrectedZVertical,-0.603759952348294,-0.3072845274595511,0.3556461053373156,0.6438679887078649,0.03374841064214706,0.9960525035858154,-0.0821002796292305,1.767516136169434,46.3921012878418,11.25970935821533,1,10158.97776975,unknown,1,2016-03-02 02:30:25.564,null,0,0,0,0,null,10158.54228375,0,0.1904602,97.4213,192.168.1.101,100.78.239.175,2,1,0.44,0
2016-03-02 02:30:26.244,55,234B9614-18C8-49ED-8B56-CAB6C4F40872,my_iOS_device_1,1456907425.999996,40.79925160393193,-96.68575792582396,370.4393,0,-1,3,10,-9999,1456907426.2228,0.7621021270751953,46.90750122070312,13.02996826171875,6.683497428894043,3.406361103057861,25,10159.64070975,0.0359344482421875,1.0084228515625,-0.0863189697265625,10159.61033175,-0.007305317186196358,0.03080957801890869,-0.008647816691705302,10159.61033175,1.365161687189141,0.3884044788123043,-1.481653427010789,0.01140293572098017,-0.0008791219443082809,-0.001527372049167752,0.001090486068278551,0.01222560275346041,0.0004998993244953454,XArbitraryCorrectedZVertical,-0.6036698259136978,-0.3072227712408254,0.3556596881346325,0.6439744531799187,0.03371481224894524,0.9960293769836426,-0.0823938176035881,1.760420083999634,46.39102935791016,11.26523208618164,1,10158.97776975,unknown,1,2016-03-02 02:30:25.564,null,0,0,0,0,null,10158.54228375,0,0.1904602,97.4213,192.168.1.101,100.78.239.175,2,1,0.44,0
2016-03-02 02:30:26.274,56,234B9614-18C8-49ED-8B56-CAB6C4F40872,my_iOS_device_1,1456907425.999996,40.79925160393193,-96.68575792582396,370.4393,0,-1,3,10,-9999,1456907426.2228,0.7621021270751953,46.90750122070312,13.02996826171875,6.683497428894043,3.406361103057861,25,10159.67100675,0.0387115478515625,1.005020141601562,-0.0793609619140625,10159.64533775,-0.02113857483639495,0.0233553901277769,-0.008844890612371165,10159.61033175,1.365161687189141,0.3884044788123043,-1.481653427010789,0.01140293572098017,-0.0008791219443082809,-0.001527372049167752,0.001090486068278551,0.01222560275346041,0.0004998993244953454,XArbitraryCorrectedZVertical,-0.6036698259136978,-0.3072227712408254,0.3556596881346325,0.6439744531799187,0.03371481224894524,0.9960293769836426,-0.0823938176035881,1.760420083999634,46.39102935791016,11.26523208618164,1,10159.64738675,stationary,1,2016-03-02 02:30:26.210,null,0,0,0,0,null,10158.54228375,0,0.1904602,97.4213,192.168.1.101,100.78.239.175,2,1,0.44,0
2016-03-02 02:30:26.313,57,234B9614-18C8-49ED-8B56-CAB6C4F40872,my_iOS_device_1,1456907425.999996,40.79925160393193,-96.68575792582396,370.4393,0,-1,3,10,-9999,1456907426.282485,0.9008674621582031,46.83786010742188,13.3599853515625,6.631409168243408,3.354273080825806,25,10159.70131575,0.034820556640625,1.007400512695312,-0.087188720703125,10159.68035375,-0.01374510701811696,0.03187990246101154,-0.004478904321295263,10159.68035375,1.367527881810251,0.3904034204130878,-1.481562681613069,0.004962423350661993,0.0001917629560921341,0.00264263991266489,0.004797705914825201,0.008998822420835495,0.003048883518204093,XArbitraryCorrectedZVertical,-0.6036401503079083,-0.3072680363960258,0.3558421697675925,0.6438798591046583,0.03391384333372116,0.9960213303565979,-0.08240984380245209,1.766507983207703,46.39484024047852,11.24857139587402,1,10159.64738675,stationary,1,2016-03-02 02:30:26.210,null,0,0,0,0,null,10158.54228375,0,0.1904602,97.4213,192.168.1.101,100.78.239.175,2,1,0.44,0
2016-03-02 02:30:26.354,58,234B9614-18C8-49ED-8B56-CAB6C4F40872,my_iOS_device_1,1456907425.999996,40.79925160393193,-96.68575792582396,370.4393,0,-1,3,10,-9999,1456907426.34258,0.6233434677124023,46.90750122070312,13.095947265625,6.598039150238037,3.320903062820435,25,10159.73160675,0.0364837646484375,1.00750732421875,-0.0847625732421875,10159.71536375,-0.01483300832341433,0.01912123031065992,-0.003422428316860829,10159.68035375,1.367527881810251,0.3904034204130878,-1.481562681613069,0.004962423350661993,0.0001917629560921341,0.00264263991266489,0.004797705914825201,0.008998822420835495,0.003048883518204093,XArbitraryCorrectedZVertical,-0.6036401503079083,-0.3072680363960258,0.3558421697675925,0.6438798591046583,0.03391384333372116,0.9960213303565979,-0.08240984380245209,1.766507983207703,46.39484024047852,11.24857139587402,1,10159.64738675,stationary,1,2016-03-02 02:30:26.210,null,0,0,0,0,null,10158.54228375,0,0.1904602,97.4213,192.168.1.101,100.78.239.175,2,1,0.44,0
2016-03-02 02:30:26.364,59,234B9614-18C8-49ED-8B56-CAB6C4F40872,my_iOS_device_1,1456907425.999996,40.79925160393193,-96.68575792582396,370.4393,0,-1,3,10,-9999,1456907426.34258,0.6233434677124023,46.90750122070312,13.095947265625,6.598039150238037,3.320903062820435,25,10159.76190275,0.03118896484375,1.007034301757812,-0.0916748046875,10159.71536375,-0.01483300832341433,0.01912123031065992,-0.003422428316860829,10159.71536375,1.368093469435802,0.3906971730787347,-1.481080475948712,0.003972491249442101,-0.01250076480209827,0.003669381607323885,0.001950823701918125,0.01102555263787508,-0.002620513085275888,XArbitraryCorrectedZVertical,-0.6034901899917664,-0.3072093883747707,0.3560632123614942,0.6439262155564721,0.03412095457315445,0.9959782361984253,-0.08284396678209305,1.773975610733032,46.39233016967773,11.25774383544922,1,10159.64738675,stationary,1,2016-03-02 02:30:26.210,null,0,0,0,0,null,10158.54228375,0,0.1904602,97.4213,192.168.1.101,100.78.239.175,2,1,0.44,0
