loggingTime,loggingSample,identifierForVendor,deviceID,locationTimestamp_since1970,locationLatitude,locationLongitude,locationAltitude,locationSpeed,locationCourse,locationVerticalAccuracy,locationHorizontalAccuracy,locationFloor,locationHeadingTimestamp_since1970,locationHeadingX,locationHeadingY,locationHeadingZ,locationTrueHeading,locationMagneticHeading,locationHeadingAccuracy,accelerometerTimestamp_sinceReboot,accelerometerAccelerationX,accelerometerAccelerationY,accelerometerAccelerationZ,gyroTimestamp_sinceReboot,gyroRotationX,gyroRotationY,gyroRotationZ,motionTimestamp_sinceReboot,motionYaw,motionRoll,motionPitch,motionRotationRateX,motionRotationRateY,motionRotationRateZ,motionUserAccelerationX,motionUserAccelerationY,motionUserAccelerationZ,motionAttitudeReferenceFrame,motionQuaternionX,motionQuaternionY,motionQuaternionZ,motionQuaternionW,motionGravityX,motionGravityY,motionGravityZ,motionMagneticFieldX,motionMagneticFieldY,motionMagneticFieldZ,motionMagneticFieldCalibrationAccuracy,activityTimestamp_sinceReboot,activity,activityActivityConfidence,activityActivityStartDate,pedometerStartDate,pedometerNumberofSteps,pedometerDistance,pedometerFloorAscended,pedometerFloorDescended,pedometerEndDate,altimeterTimestamp_sinceReboot,altimeterReset,altimeterRelativeAltitude,altimeterPressure,IP_en0,IP_pdp_ip0,deviceOrientation,batteryState,batteryLevel,state
2016-03-02 02:35:41.464,1,234B9614-18C8-49ED-8B56-CAB6C4F40872,my_iOS_device_1,1456907741.000057,40.79924779016599,-96.68573118755285,370.8965,0,267.5390625,3,10,-9999,1456907741.438474,0.7418251037597656,44.76255798339844,-6.08447265625,7.601702690124512,4.324566841125488,25,10474.84751679167,0.0878448486328125,0.8518524169921875,-0.537811279296875,10474.84116879167,-0.0360765117067584,0.03930692610902452,-0.004807005767593025,10474.80615779167,0.1314484996863773,0.1595110961926337,-0.9918360439395387,0.01516694389283657,0.01814469508826733,0.001835850300267339,0.00144090096000582,0.006214472465217113,-0.009490008465945721,XArbitraryCorrectedZVertical,-0.4779047846449344,0.03876961385302126,0.01975261567195389,0.8773333277775749,0.08690749108791351,0.8370319604873657,-0.5402078628540039,-0.9638700485229492,48.82302474975586,-5.840400695800781,1,10474.71741479167,stationary,1,2016-03-02 02:35:41.300,null,0,0,0,0,null,10474.78290579167,0,0.7261353,97.40585,192.168.1.101,100.78.239.175,2,1,0.41,0
2016-03-02 02:35:41.468,2,234B9614-18C8-49ED-8B56-CAB6C4F40872,my_iOS_device_1,1456907741.000057,40.79924779016599,-96.68573118755285,370.8965,0,267.5390625,3,10,-9999,1456907741.438474,0.7418251037597656,44.76255798339844,-6.08447265625,7.601702690124512,4.324566841125488,25,10474.87781479167,0.08636474609375,0.85333251953125,-0.5340423583984375,10474.84116879167,-0.0360765117067584,0.03930692610902452,-0.004807005767593025,10474.84116879167,0.1313517506381136,0.1600457742403366,-0.9921632441467526,-0.01674565300345421,0.00854968000203371,0.001376864034682512,-0.006494702771306038,0.0005728417891077697,0.005024584010243416,XArbitraryCorrectedZVertical,-0.4780508679221621,0.03901165330344789,0.01956584180006425,0.877247192312432,0.08715265989303589,0.8372109532356262,-0.5398909449577332,-0.9605038166046143,48.81246948242188,-5.928524017333984,1,10474.71741479167,stationary,1,2016-03-02 02:35:41.300,null,0,0,0,0,null,10474.78290579167,0,0.7261353,97.40585,192.168.1.101,100.78.239.175,2,1,0.41,0
2016-03-02 02:35:41.499,3,234B9614-18C8-49ED-8B56-CAB6C4F40872,my_iOS_device_1,1456907741.000057,40.79924779016599,-96.68573118755285,370.8965,0,267.5390625,3,10,-9999,1456907741.487126,1.227499008178711,45.18022155761719,-5.88623046875,7.605648994445801,4.328512668609619,25,10474.90811779167,0.08575439453125,0.839385986328125,-0.5453033447265625,10474.87617979167,0.007583617520109638,0.02763056262568111,-0.008429970114536821,10474.87617979167,0.1314361501881081,0.160285496586773,-0.9926909274105297,0.02690996788442135,-0.003126215189695358,-0.002246372634544969,0.0004349216178525239,0.02265376411378384,0.004002906382083893,XArbitraryCorrectedZVertical,-0.4782849757098143,0.03907140445950787,0.01951880386366237,0.877117964506227,0.08721156418323517,0.8374994397163391,-0.5394338369369507,-0.960993766784668,48.81705856323242,-5.890562057495117,1,10474.71741479167,stationary,1,2016-03-02 02:35:41.300,null,0,0,0,0,null,10474.78290579167,0,0.7261353,97.40585,192.168.1.101,100.78.239.175,2,1,0.41,0
2016-03-02 02:35:41.542,4,234B9614-18C8-49ED-8B56-CAB6C4F40872,my_iOS_device_1,1456907741.000057,40.79924779016599,-96.68573118755285,370.8965,0,267.5390625,3,10,-9999,1456907741.487126,1.227499008178711,45.18022155761719,-5.88623046875,7.605648994445801,4.328512668609619,25,10474.93842579167,0.0838470458984375,0.8376617431640625,-0.5492095947265625,10474.91119579167,0.02783482708129018,0.02444675354249138,-0.01133148412217815,10474.91119579167,0.1306930993874191,0.1594403083118521,-0.9914921887282274,0.04715845361351967,-0.006309862714260817,-0.005148472730070353,-0.001160543295554817,0.002542190020903945,-0.004805190954357386,XArbitraryCorrectedZVertical,-0.4777394240434932,0.03893540677812651,0.01945550116704529,0.8774226805183142,0.08691493421792984,0.8368437886238098,-0.5404981374740601,-0.9669666290283203,48.81693267822266,-5.890602111816406,1,10474.71741479167,stationary,1,2016-03-02 02:35:41.300,null,0,0,0,0,null,10474.78290579167,0,0.7261353,97.40585,192.168.1.101,100.78.239.175,2,1,0.41,0
2016-03-02 02:35:41.560,5,234B9614-18C8-49ED-8B56-CAB6C4F40872,my_iOS_device_1,1456907741.000057,40.79924779016599,-96.68573118755285,370.8965,0,267.5390625,3,10,-9999,1456907741.546017,1.331571578979492,44.86697387695312,-6.38165283203125,7.601619720458984,4.324483394622803,25,10474.96872079167,0.087799072265625,0.8496246337890625,-0.5480499267578125,10474.94618279167,0.002209092124220728,0.03082848646264826,-0.004246676674240353,10474.91119579167,0.1306930993874191,0.1594403083118521,-0.9914921887282274,0.04715845361351967,-0.006309862714260817,-0.005148472730070353,-0.001160543295554817,0.002542190020903945,-0.004805190954357386,XArbitraryCorrectedZVertical,-0.4777394240434932,0.03893540677812651,0.01945550116704529,0.8774226805183142,0.08691493421792984,0.8368437886238098,-0.5404981374740601,-0.9669666290283203,48.81693267822266,-5.890602111816406,1,10474.71741479167,stationary,1,2016-03-02 02:35:41.300,null,0,0,0,0,null,10474.78290579167,0,0.7261353,97.40585,192.168.1.101,100.78.239.175,2,1,0.41,0
2016-03-02 02:35:41.612,6,234B9614-18C8-49ED-8B56-CAB6C4F40872,my_iOS_device_1,1456907741.000057,40.79924779016599,-96.68573118755285,370.8965,0,267.5390625,3,10,-9999,1456907741.604763,1.470335006713867,44.72776794433594,-6.31561279296875,7.586460113525391,4.309323787689209,25,10474.99901779167,0.0909881591796875,0.842803955078125,-0.5473785400390625,10474.98121879167,-0.007451791046150716,0.03083887279089956,0.00200749082970173,10474.94618279167,0.1298737680661997,0.1585819106619374,-0.9899683609062599,0.02166038192808628,9.82380734058097e-05,0.001940217334777117,-0.002805175259709358,0.001653125043958426,-0.007378455717116594,XArbitraryCorrectedZVertical,-0.4770502413026436,0.03882650984243902,0.01937749789700552,0.8778041250653745,0.08665221929550171,0.836008608341217,-0.5418311357498169,-0.9830968379974365,48.8044319152832,-5.990667343139648,1,10474.71741479167,stationary,1,2016-03-02 02:35:41.300,null,0,0,0,0,null,10474.78290579167,0,0.7261353,97.40585,192.168.1.101,100.78.239.175,2,1,0.41,0
2016-03-02 02:35:41.621,7,234B9614-18C8-49ED-8B56-CAB6C4F40872,my_iOS_device_1,1456907741.000057,40.79924779016599,-96.68573118755285,370.8965,0,267.5390625,3,10,-9999,1456907741.604763,1.470335006713867,44.72776794433594,-6.31561279296875,7.586460113525391,4.309323787689209,25,10475.02931279167,0.0875244140625,0.835174560546875,-0.5494232177734375,10474.98121879167,-0.007451791046150716,0.03083887279089956,0.00200749082970173,10474.98121879167,0.1299946139691102,0.1586408557837186,-0.9894874873111361,0.01199911907315254,0.0001084604009520262,0.008193662390112877,-0.002244484145194292,0.01140805147588253,-0.00732235424220562,XArbitraryCorrectedZVertical,-0.4768432648623318,0.03884628482131177,0.01944060126846422,0.8779143067141153,0.0867476612329483,0.8357446789741516,-0.5422229170799255,-0.9853973388671875,48.80080795288086,-6.019737243652344,1,10474.71741479167,stationary,1,2016-03-02 02:35:41.300,null,0,0,0,0,null,10474.78290579167,0,0.7261353,97.40585,192.168.1.101,100.78.239.175,2,1,0.41,0
2016-03-02 02:35:41.650,8,234B9614-18C8-49ED-8B56-CAB6C4F40872,my_iOS_device_1,1456907741.000057,40.79924779016599,-96.68573118755285,370.8965,0,267.5390625,3,10,-9999,1456907741.604763,1.470335006713867,44.72776794433594,-6.31561279296875,7.586460113525391,4.309323787689209,25,10475.05958879167,0.089080810546875,0.840667724609375,-0.5509185791015625,10475.05121779167,-0.02218865925421319,0.04143239497501676,-0.008869391694399894,10475.01623479167,0.1302944349772605,0.1589878292705028,-0.9889163915775779,0.01214846316725016,0.003269993467256427,-0.002462500473484397,0.004831311758607626,0.002673325128853321,-0.005401201080530882,XArbitraryCorrectedZVertical,-0.476603169891592,0.03895415674314556,0.01951819415786137,0.8780381724153705,0.08701133728027344,0.835430920124054,-0.5426639914512634,-0.980201244354248,48.79953002929688,-6.030960083007812,1,10474.71741479167,stationary,1,2016-03-02 02:35:41.300,null,0,0,0,0,null,10474.78290579167,0,0.7261353,97.40585,192.168.1.101,100.78.239.175,2,1,0.41,0
2016-03-02 02:35:41.696,9,234B9614-18C8-49ED-8B56-CAB6C4F40872,my_iOS_device_1,1456907741.000057,40.79924779016599,-96.68573118755285,370.8965,0,267.5390625,3,10,-9999,1456907741.666723,1.366260528564453,44.76255798339844,-6.21649169921875,7.575982093811035,4.298845767974854,25,10475.08990179167,0.0841217041015625,0.8463592529296875,-0.5464630126953125,10475.05121779167,-0.02218865925421319,0.04143239497501676,-0.008869391694399894,10475.05121779167,0.1299314448570416,0.1588935143623957,-0.9883632195162182,-0.002735009882599115,0.01070278789848089,-0.0026822614017874,-0.001751894480548799,0.002107722917571664,-0.01010949444025755,XArbitraryCorrectedZVertical,-0.4763536583300274,0.03902539979817377,0.01940908362252995,0.8781728177523583,0.08703326433897018,0.8351267576217651,-0.5431284308433533,-0.9651696681976318,48.79386520385742,-6.079023361206055,1,10475.06458279167,unknown,2,2016-03-02 02:35:41.623,null,0,0,0,0,null,10474.78290579167,0,0.7261353,97.40585,192.168.1.101,100.78.239.175,2,1,0.41,0
2016-03-02 02:35:41.711,10,234B9614-18C8-49ED-8B56-CAB6C4F40872,my_iOS_device_1,1456907741.000057,40.79924779016599,-96.68573118755285,370.8965,0,267.5390625,3,10,-9999,1456907741.666723,1.366260528564453,44.76255798339844,-6.21649169921875,7.575982093811035,4.298845767974854,25,10475.12019679167,0.088958740234375,0.843597412109375,-0.5452117919921875,10475.08623479167,-0.0189593101163831,0.03398220182552009,-0.01201591652232852,10475.08623479167,0.1293805668446735,0.1585383014148445,-0.9883434585172252,0.0004948699497617781,0.003252556314691901,-0.005829065106809139,-0.00159208569675684,0.007291322108358145,-0.005698303692042828,XArbitraryCorrectedZVertical,-0.4763308504608231,0.03900156482085163,0.0192527904722964,0.8781896884499466,0.08684293925762177,0.835115909576416,-0.5431755781173706,-0.9767651557922363,48.79168319702148,-6.094650268554688,1,10475.06458279167,unknown,2,2016-03-02 02:35:41.623,null,0,0,0,0,null,10474.78290579167,0,0.7261353,97.40585,192.168.1.101,100.78.239.175,2,1,0.41,0
2016-03-02 02:35:41.742,11,234B9614-18C8-49ED-8B56-CAB6C4F40872,my_iOS_device_1,1456907741.000057,40.79924779016599,-96.68573118755285,370.8965,0,267.5390625,3,10,-9999,1456907741.72377,1.262191772460938,44.86697387695312,-6.64569091796875,7.578866004943848,4.301730155944824,25,10475.15049579167,0.0876007080078125,0.8404083251953125,-0.54986572265625,10475.12127379167,-0.007335410906514254,0.02975203675003823,-0.00651622255520588,10475.08623479167,0.1293805668446735,0.1585383014148445,-0.9883434585172252,0.0004948699497617781,0.003252556314691901,-0.005829065106809139,-0.00159208569675684,0.007291322108358145,-0.005698303692042828,XArbitraryCorrectedZVertical,-0.4763308504608231,0.03900156482085163,0.0192527904722964,0.8781896884499466,0.08684293925762177,0.835115909576416,-0.5431755781173706,-0.9767651557922363,48.79168319702148,-6.094650268554688,1,10475.06458279167,unknown,2,2016-03-02 02:35:41.623,null,0,0,0,0,null,10474.78290579167,0,0.7261353,97.40585,192.168.1.101,100.78.239.175,2,1,0.41,0
2016-03-02 02:35:41.772,12,234B9614-18C8-49ED-8B56-CAB6C4F40872,my_iOS_device_1,1456907741.000057,40.79924779016599,-96.68573118755285,370.8965,0,267.5390625,3,10,-9999,1456907741.72377,1.262191772460938,44.86697387695312,-6.64569091796875,7.578866004943848,4.301730155944824,25,10475.18079579167,0.089202880859375,0.8390045166015625,-0.546875,10475.15625879167,-0.01689056658160955,0.03399551763097048,-0.007722900845120783,10475.12127379167,0.1290994969968027,0.1582382053544313,-0.9882893091683691,0.01211741752922535,-0.0009774953359737992,-0.0003298021329101175,0.00227168295532465,0.008511294610798359,-0.00196550227701664,XArbitraryCorrectedZVertical,-0.4762988428214519,0.03893927960399342,0.01920355113006598,0.8782108906491959,0.08668705821037292,0.8350861072540283,-0.5432462692260742,-0.98752760887146,48.79169464111328,-6.092805862426758,1,10475.06458279167,unknown,2,2016-03-02 02:35:41.623,null,0,0,0,0,null,10474.78290579167,0,0.7261353,97.40585,192.168.1.101,100.78.239.175,2,1,0.41,0
2016-03-02 02:35:41.802,13,234B9614-18C8-49ED-8B56-CAB6C4F40872,my_iOS_device_1,1456907741.000057,40.79924779016599,-96.68573118755285,370.8965,0,267.5390625,3,10,-9999,1456907741.780955,1.019353866577148,44.76255798339844,-6.8109130859375,7.589118957519531,4.31198263168335,25,10475.21107779167,0.0877227783203125,0.845428466796875,-0.5467071533203125,10475.19129579167,-0.02751018774440952,0.03717479934030708,-0.00894449283714013,10475.15625879167,0.129072317761636,0.1583389426694011,-0.9880467812162607,0.002562000416219234,0.003266360843554139,-0.001536244759336114,0.0008269937825389206,0.00545565178617835,-0.006428186316043139,XArbitraryCorrectedZVertical,-0.4761933676993074,0.03900138873203697,0.01917974892704533,0.8782658512473609,0.08677371591329575,0.8349526524543762,-0.5434375405311584,-0.9888684749603271,48.79044342041016,-6.102605819702148,1,10475.06458279167,unknown,2,2016-03-02 02:35:41.623,null,0,0,0,0,null,10474.78290579167,0,0.7261353,97.40585,192.168.1.101,100.78.239.175,2,1,0.41,0
2016-03-02 02:35:41.854,14,234B9614-18C8-49ED-8B56-CAB6C4F40872,my_iOS_device_1,1456907741.000057,40.79924779016599,-96.68573118755285,370.8965,0,267.5390625,3,10,-9999,1456907741.842877,0.8805885314941406,44.41450500488281,-7.00909423828125,7.618853569030762,4.341717720031738,25,10475.24136979167,0.087799072265625,0.84552001953125,-0.5477752685546875,10475.22631179167,-0.0211135411221482,0.03717666355307014,-0.009917345583346076,10475.22631179167,0.1290398055853137,0.15881673406561,-0.988468629549962,-0.001661480171605945,0.006448319647461176,-0.003730231197550893,0.0006535833817906678,0.01147967763245106,-0.003521648468449712,XArbitraryCorrectedZVertical,-0.476381510536141,0.03919908907427909,0.01903058193105669,0.8781582572557224,0.08697764575481415,0.8351847529411316,-0.5430482029914856,-0.9869041442871094,48.78993606567383,-6.10698127746582,1,10475.06458279167,unknown,2,2016-03-02 02:35:41.623,null,0,0,0,0,null,10474.78290579167,0,0.7261353,97.40585,192.168.1.101,100.78.239.175,2,1,0.41,0
2016-03-02 02:35:41.863,15,234B9614-18C8-49ED-8B56-CAB6C4F40872,my_iOS_device_1,1456907741.000057,40.79924779016599,-96.68573118755285,370.8965,0,267.5390625,3,10,-9999,1456907741.842877,0.8805885314941406,44.41450500488281,-7.00909423828125,7.618853569030762,4.341717720031738,25,10475.27168979167,0.0850067138671875,0.84295654296875,-0.5457000732421875,10475.22631179167,-0.0211135411221482,0.03717666355307014,-0.009917345583346076,10475.22631179167,0.1290398055853137,0.15881673406561,-0.988468629549962,-0.001661480171605945,0.006448319647461176,-0.003730231197550893,0.0006535833817906678,0.01147967763245106,-0.003521648468449712,XArbitraryCorrectedZVertical,-0.476381510536141,0.03919908907427909,0.01903058193105669,0.8781582572557224,0.08697764575481415,0.8351847529411316,-0.5430482029914856,-0.9869041442871094,48.78993606567383,-6.10698127746582,1,10475.06458279167,unknown,2,2016-03-02 02:35:41.623,null,0,0,0,0,null,10474.78290579167,0,0.7261353,97.40585,192.168.1.101,100.78.239.175,2,1,0.41,0
2016-03-02 02:35:41.893,16,234B9614-18C8-49ED-8B56-CAB6C4F40872,my_iOS_device_1,1456907741.000057,40.79924779016599,-96.68573118755285,370.8965,0,267.5390625,3,10,-9999,1456907741.842877,0.8805885314941406,44.41450500488281,-7.00909423828125,7.618853569030762,4.341717720031738,25,10475.30198779167,0.0849151611328125,0.840118408203125,-0.547088623046875,10475.26130079167,-0.01160312655336623,0.0318785708804665,-0.005513542404791047,10475.26130079167,0.1290114535520341,0.1589595479558665,-0.9884801984556646,0.007847817614674568,0.001150536700151861,0.000673521775752306,0.001783003215678036,0.01107658632099628,-0.001575232250615954,XArbitraryCorrectedZVertical,-0.4763873631697159,0.03926800416307278,0.01898353640619225,0.8781530216350451,0.08705366402864456,0.8351911306381226,-0.5430262088775635,-0.9910619258880615,48.79183197021484,-6.091144561767578,1,10475.06458279167,unknown,2,2016-03-02 02:35:41.623,null,0,0,0,0,null,10474.78290579167,0,0.7261353,97.40585,192.168.1.101,100.78.239.175,2,1,0.41,0
2016-03-02 02:35:41.935,17,234B9614-18C8-49ED-8B56-CAB6C4F40872,my_iOS_device_1,1456907741.000057,40.79924779016599,-96.68573118755285,370.8965,0,267.5390625,3,10,-9999,1456907741.900873,1.227497100830078,44.41450500488281,-7.00909423828125,7.634712219238281,4.357576370239258,25,10475.33228479167,0.0860748291015625,0.8447265625,-0.54241943359375,10475.29631779167,-0.0180282689992914,0.03294596584537025,-0.002410160786521711,10475.29631779167,0.128955660885606,0.158889712672099,-0.9883603860448448,0.001421990687958896,0.00221772794611752,0.00377608323469758,-0.0003006191400345415,0.006870023440569639,-0.004949356429278851,XArbitraryCorrectedZVertical,-0.4763332880952663,0.03925626831562268,0.01898167522503726,0.8781829194740278,0.08703157305717468,0.835125207901001,-0.5431311130523682,-0.9906425476074219,48.79180908203125,-6.091377258300781,1,10475.06458279167,unknown,2,2016-03-02 02:35:41.623,null,0,0,0,0,null,10474.78290579167,0,0.7261353,97.40585,192.168.1.101,100.78.239.175,2,1,0.41,0
2016-03-02 02:35:41.954,18,234B9614-18C8-49ED-8B56-CAB6C4F40872,my_iOS_device_1,1456907741.000057,40.79924779016599,-96.68573118755285,370.8965,0,267.5390625,3,10,-9999,1456907741.900873,1.227497100830078,44.41450500488281,-7.00909423828125,7.634712219238281,4.357576370239258,25,10475.36258179167,0.0885009765625,0.84576416015625,-0.5469512939453125,10475.33133179167,-0.01374510701811696,0.03187990246101154,-0.004478904321295263,10475.29631779167,0.128955660885606,0.158889712672099,-0.9883603860448448,0.001421990687958896,0.00221772794611752,0.00377608323469758,-0.0003006191400345415,0.006870023440569639,-0.004949356429278851,XArbitraryCorrectedZVertical,-0.4763332880952663,0.03925626831562268,0.01898167522503726,0.8781829194740278,0.08703157305717468,0.835125207901001,-0.5431311130523682,-0.9906425476074219,48.79180908203125,-6.091377258300781,1,10475.06458279167,unknown,2,2016-03-02 02:35:41.623,null,0,0,0,0,null,10474.78290579167,0,0.7261353,97.40585,192.168.1.101,100.78.239.175,2,1,0.41,0
2016-03-02 02:35:42.013,19,234B9614-18C8-49ED-8B56-CAB6C4F40872,my_iOS_device_1,1456907741.000057,40.79924779016599,-96.68573118755285,370.8965,0,267.5390625,3,10,-9999,1456907741.95773,1.539718627929688,45.0758056640625,-6.77789306640625,7.624080657958984,4.346944808959961,25,10475.39287979167,0.0886993408203125,0.844390869140625,-0.553253173828125,10475.36635779167,0.008602542953173956,0.02657674978233675,-0.005217398891574235,10475.36635779167,0.1287411084542299,0.1587353372706544,-0.9880225161178746,0.02804992906749249,-0.004151183646172285,0.0009681666269898415,0.001508650952018797,0.01082484051585197,-0.003528191475197673,XArbitraryCorrectedZVertical,-0.4761800686503274,0.03925545794394041,0.018941138469695,0.8782669209956877,0.08699232339859009,0.8349393010139465,-0.5434231162071228,-0.9904038906097412,48.79123687744141,-6.096027374267578,1,10475.06458279167,unknown,2,2016-03-02 02:35:41.623,null,0,0,0,0,null,10474.78290579167,0,0.7261353,97.40585,192.168.1.101,100.78.239.175,2,1,0.41,0
2016-03-02 02:35:42.015,20,234B9614-18C8-49ED-8B56-CAB6C4F40872,my_iOS_device_1,1456907741.000057,40.79924779016599,-96.68573118755285,370.8965,0,267.5390625,3,10,-9999,1456907741.95773,1.539718627929688,45.0758056640625,-6.77789306640625,7.624080657958984,4.346944808959961,25,10475.42317579167,0.086181640625,0.8402099609375,-0.5503692626953125,10475.40136479167,0.00427783565899428,0.03084180226809865,4.633900296737874e-05,10475.40136479167,0.1287448076759597,0.1586352521989232,-0.9870338342607684,0.02372546680271626,0.0001141184620792046,0.006232025567442179,0.001631043502129614,0.009996070526540279,-0.009006508626043797,XArbitraryCorrectedZVertical,-0.4757473597563237,0.03925706538959082,0.01901603505208366,0.8784997000072197,0.08706829696893692,0.8343948125839233,-0.5442466735839844,-0.9932456016540527,48.78806304931641,-6.120893478393555,1,10475.06458279167,unknown,2,2016-03-02 02:35:41.623,null,0,0,0,0,null,10474.78290579167,0,0.7261353,97.40585,192.168.1.101,100.78.239.175,2,1,0.41,0
2016-03-02 02:35:42.045,21,234B9614-18C8-49ED-8B56-CAB6C4F40872,my_iOS_device_1,1456907741.000057,40.79924779016599,-96.68573118755285,370.8965,0,267.5390625,3,10,-9999,1456907742.01651,1.505023956298828,45.24981689453125,-6.8109130859375,7.609332084655762,4.332196235656738,25,10475.45347379167,0.08758544921875,0.8422088623046875,-0.5489349365234375,10475.40136479167,0.00427783565899428,0.03084180226809865,4.633900296737874e-05,10475.40136479167,0.1287448076759597,0.1586352521989232,-0.9870338342607684,0.02372546680271626,0.0001141184620792046,0.006232025567442179,0.001631043502129614,0.009996070526540279,-0.009006508626043797,XArbitraryCorrectedZVertical,-0.4757473597563237,0.03925706538959082,0.01901603505208366,0.8784997000072197,0.08706829696893692,0.8343948125839233,-0.5442466735839844,-0.9932456016540527,48.78806304931641,-6.120893478393555,1,10475.06458279167,unknown,2,2016-03-02 02:35:41.623,null,0,0,0,0,null,10474.78290579167,0,0.7261353,97.40585,192.168.1.101,100.78.239.175,2,1,0.41,0
2016-03-02 02:35:42.095,22,234B9614-18C8-49ED-8B56-CAB6C4F40872,my_iOS_device_1,1456907742.000058,40.79924779016599,-96.68573118755285,371.0493,0,267.5390625,3,10,-9999,1456907742.077358,1.123422622680664,45.14540100097656,-6.77777099609375,7.615903854370117,4.338768005371094,25,10475.48377379167,0.087615966796875,0.8412628173828125,-0.5518035888671875,10475.47139779167,-0.004124171264096708,0.03719530568070069,-0.007539142729905315,10475.43638779167,0.1288259521325047,0.1587791945928653,-0.9863430100108038,0.009932614862918854,0.006478190422058105,0.003896544920280576,-0.00101033819373697,0.00502119492739439,-0.005169368349015713,XArbitraryCorrectedZVertical,-0.4754485210816016,0.03933345630128807,0.01905201032000586,0.8786572732979967,0.08723775297403336,0.834013819694519,-0.5448031425476074,-0.978585958480835,48.779541015625,-6.190801620483398,1,10475.06458279167,unknown,2,2016-03-02 02:35:41.623,null,0,0,0,0,null,10474.78290579167,0,0.7261353,97.40585,192.168.1.101,100.78.239.175,2,1,0.41,0
2016-03-02 02:35:42.106,23,234B9614-18C8-49ED-8B56-CAB6C4F40872,my_iOS_device_1,1456907742.000058,40.79924779016599,-96.68573118755285,371.0493,0,267.5390625,3,10,-9999,1456907742.077358,1.123422622680664,45.14540100097656,-6.77777099609375,7.615903854370117,4.338768005371094,25,10475.51407079167,0.0885162353515625,0.841064453125,-0.55413818359375,10475.50639579167,-0.006294647552511287,0.03826589643891254,-0.004373975774346141,10475.47139779167,0.1286078329131143,0.1587945530188962,-0.9859127588812531,0.01544052641838789,0.006491632200777531,-0.001349334022961557,-0.00138061516918242,0.006464104633778334,-0.002298737643286586,XArbitraryCorrectedZVertical,-0.4752563792382494,0.03941225404866906,0.01897405477243865,0.8787593717677414,0.08730285614728928,0.8337763547897339,-0.5451561212539673,-0.9774012565612793,48.77792358398438,-6.203714370727539,1,10475.06458279167,unknown,2,2016-03-02 02:35:41.623,null,0,0,0,0,null,10474.78290579167,0,0.7261353,97.40585,192.168.1.101,100.78.239.175,2,1,0.41,0
2016-03-02 02:35:42.135,24,234B9614-18C8-49ED-8B56-CAB6C4F40872,my_iOS_device_1,1456907742.000058,40.79924779016599,-96.68573118755285,371.0493,0,267.5390625,3,10,-9999,1456907742.077358,1.123422622680664,45.14540100097656,-6.77777099609375,7.615903854370117,4.338768005371094,25,10475.54435279167,0.0900726318359375,0.8424224853515625,-0.5477752685546875,10475.50639579167,-0.006294647552511287,0.03826589643891254,-0.004373975774346141,10475.50639579167,0.1283916420641851,0.1588158677075196,-0.9852851102974672,0.01327048428356647,0.007562241517007351,0.00181552697904408,0.0004171097243670374,0.006581913214176893,-0.008101112209260464,XArbitraryCorrectedZVertical,-0.4749780289003347,0.03950242601332778,0.01890538105830819,0.8789072857634332,0.08739721775054932,0.8334296941757202,-0.5456708669662476,-0.9809939861297607,48.77422332763672,-6.232170104980469,1,10475.06458279167,unknown,2,2016-03-02 02:35:41.623,null,0,0,0,0,null,10474.78290579167,0,0.7261353,97.40585,192.168.1.101,100.78.239.175,2,1,0.41,0
2016-03-02 02:35:42.172,25,234B9614-18C8-49ED-8B56-CAB6C4F40872,my_iOS_device_1,1456907742.000058,40.79924779016599,-96.68573118755285,371.0493,0,267.5390625,3,10,-9999,1456907742.135963,1.609094619750977,44.86695861816406,-6.77777099609375,7.605086326599121,4.327950477600098,25,10475.57466079167,0.08966064453125,0.836700439453125,-0.546173095703125,10475.54142879167,-0.003139334292985406,0.02976695045214267,-0.002192314209353229,10475.54142879167,0.1285272653982411,0.1590804081784786,-0.9847362145886754,0.01642589829862118,-0.0009363606804981828,0.003997426014393568,0.002779041882604361,0.01047118753194809,-0.005689001176506281,XArbitraryCorrectedZVertical,-0.4747433052274629,0.03961224035945959,0.01892963778651366,0.8790286305739251,0.0876140221953392,0.8331262469291687,-0.5460993051528931,-0.9785468578338623,48.77185821533203,-6.25105094909668,1,10475.06458279167,unknown,2,2016-03-02 02:35:41.623,null,0,0,0,0,null,10474.78290579167,0,0.7261353,97.40585,192.168.1.101,100.78.239.175,2,1,0.41,0
2016-03-02 02:35:42.196,26,234B9614-18C8-49ED-8B56-CAB6C4F40872,my_iOS_device_1,1456907742.000058,40.79924779016599,-96.68573118755285,371.0493,0,267.5390625,3,10,-9999,1456907742.192986,1.574405670166016,45.45867919921875,-6.7447509765625,7.585356712341309,4.308220863342285,25,10475.60496679167,0.0870361328125,0.8384246826171875,-0.5504608154296875,10475.57643879167,0.00751038059013246,0.02764521001167654,-0.003102316353833305,10475.57643879167,0.1288001610413688,0.1592533647649449,-0.9841532432287816,0.02707392163574696,-0.003057290334254503,0.003088004188612103,0.001875163870863616,0.003896788228303194,0.0003905218036379665,XArbitraryCorrectedZVertical,-0.4744955194317827,0.03965089265317174,0.01903775132550459,0.8791583320286671,0.08778548240661621,0.8328036665916443,-0.5465636253356934,-0.9680733680725098,48.76826477050781,-6.280603408813477,1,10475.06458279167,unknown,2,2016-03-02 02:35:41.623,null,0,0,0,0,null,10474.78290579167,0,0.7261353,97.40585,192.168.1.101,100.78.239.175,2,1,0.41,0
2016-03-02 02:35:42.229,27,234B9614-18C8-49ED-8B56-CAB6C4F40872,my_iOS_device_1,1456907742.000058,40.79924779016599,-96.68573118755285,371.0493,0,267.5390625,3,10,-9999,1456907742.192986,1.574405670166016,45.45867919921875,-6.7447509765625,7.585356712341309,4.308220863342285,25,10475.63526579167,0.0834197998046875,0.84014892578125,-0.5540771484375,10475.61144979167,0.006476008822745683,0.02763855210895134,-0.00524882419243717,10475.61144979167,0.1286677647485802,0.1590432060049782,-0.983209264432792,0.02610207535326481,-0.003056959249079227,0.0009453415405005217,-0.0007589469314552844,0.006143959239125252,-0.003102777525782585,XArbitraryCorrectedZVertical,-0.4740781654657405,0.03963425393933646,0.0190766776875241,0.8793833631083241,0.08779507875442505,0.832280695438385,-0.5473580360412598,-0.9610426425933838,48.76642608642578,-6.295955657958984,1,10475.06458279167,unknown,2,2016-03-02 02:35:41.623,null,0,0,0,0,null,10474.78290579167,0,0.7261353,97.40585,192.168.1.101,100.78.239.175,2,1,0.41,0
2016-03-02 02:35:42.256,28,234B9614-18C8-49ED-8B56-CAB6C4F40872,my_iOS_device_1,1456907742.000058,40.79924779016599,-96.68573118755285,371.0493,0,267.5390625,3,10,-9999,1456907742.251882,1.609100341796875,45.354248046875,-6.64569091796875,7.563521385192871,4.286385536193848,25,10475.66556479167,0.0849761962890625,0.839080810546875,-0.5523529052734375,10475.64646779167,0.006407032950512631,0.01382606711525537,-0.0009797769650401517,10475.61144979167,0.1286677647485802,0.1590432060049782,-0.983209264432792,0.02610207535326481,-0.003056959249079227,0.0009453415405005217,-0.0007589469314552844,0.006143959239125252,-0.003102777525782585,XArbitraryCorrectedZVertical,-0.4740781654657405,0.03963425393933646,0.0190766776875241,0.8793833631083241,0.08779507875442505,0.832280695438385,-0.5473580360412598,-0.9610426425933838,48.76642608642578,-6.295955657958984,1,10475.06458279167,unknown,2,2016-03-02 02:35:41.623,null,0,0,0,0,null,10474.78290579167,0,0.7261353,97.40585,192.168.1.101,100.78.239.175,2,1,0.41,0
2016-03-02 02:35:42.290,29,234B9614-18C8-49ED-8B56-CAB6C4F40872,my_iOS_device_1,1456907742.000058,40.79924779016599,-96.68573118755285,371.0493,0,267.5390625,3,10,-9999,1456907742.28628,1.574409484863281,45.59788513183594,-6.7447509765625,7.55571174621582,4.278575897216797,25,10475.69584779167,0.0890960693359375,0.8377532958984375,-0.5531463623046875,10475.68146479167,0.007244597113342552,0.005363606435419586,0.01502289170913698,10475.64646779167,0.1281861390973394,0.1581644743284492,-0.9823755046171435,0.02603278309106827,-0.01687016524374485,0.005212834570556879,-0.004674918483942747,0.007842408493161201,-0.003546214429661632,XArbitraryCorrectedZVertical,-0.4736956167507943,0.03940101590119139,0.01911473464098792,0.8795991413914827,0.08742333203554153,0.8318182229995728,-0.5481200218200684,-0.9600474834442139,48.75687789916992,-6.369640350341797,1,10475.68463879167,stationary,1,2016-03-02 02:35:42.270,null,0,0,0,0,null,10474.78290579167,0,0.7261353,97.40585,192.168.1.101,100.78.239.175,2,1,0.41,0
2016-03-02 02:35:42.332,30,234B9614-18C8-49ED-8B56-CAB6C4F40872,my_iOS_device_1,1456907742.000058,40.79924779016599,-96.68573118755285,371.0493,0,267.5390625,3,10,-9999,1456907742.28628,1.574409484863281,45.59788513183594,-6.7447509765625,7.55571174621582,4.278575897216797,25,10475.72616379167,0.09246826171875,0.837799072265625,-0.5564117431640625,10475.71648879167,-0.008717058880047363,0.01598855392039971,0.01585140112426063,10475.68146479167,0.1285604253301137,0.1575780324838687,-0.9814864922807194,0.02686985023319721,-0.02533305808901787,0.02121446281671524,-0.002745232079178095,0.006276245694607496,-0.001666289521381259,XArbitraryCorrectedZVertical,-0.4733083911125137,0.0390960122642919,0.01946245413878843,0.8798135493423596,0.08721788972616196,0.8313244581222534,-0.5489013195037842,-0.9600474834442139,48.75687789916992,-6.369640350341797,1,10475.68463879167,stationary,1,2016-03-02 02:35:42.270,null,0,0,0,0,null,10474.78290579167,0,0.7261353,97.40585,192.168.1.101,100.78.239.175,2,1,0.41,0
2016-03-02 02:35:42.347,31,234B9614-18C8-49ED-8B56-CAB6C4F40872,my_iOS_device_1,1456907742.000058,40.79924779016599,-96.68573118755285,371.0493,0,267.5390625,3,10,-9999,1456907742.339506,1.435644149780273,44.97138977050781,-6.81085205078125,7.549245834350586,4.272109508514404,25,10475.75646379167,0.0885467529296875,0.8341522216796875,-0.551177978515625,10475.71648879167,-0.008717058880047363,0.01598855392039971,0.01585140112426063,10475.71648879167,0.1300278355367582,0.158183729153198,-0.980663170522572,0.01090810727328062,-0.01470739766955376,0.02204365096986294,0.003864089027047157,0.005299793090671301,-0.004263106267899275,XArbitraryCorrectedZVertical,-0.4729827942481625,0.03905398441147039,0.02000581152618043,0.879978312319093,0.08765812963247299,0.8308665752410889,-0.5495241284370422,-0.9434208869934082,48.74778747558594,-6.441326141357422,1,10475.68463879167,stationary,1,2016-03-02 02:35:42.270,null,0,0,0,0,null,10474.78290579167,0,0.7261353,97.40585,192.168.1.101,100.78.239.175,2,1,0.41,0
2016-03-02 02:35:42.378,32,234B9614-18C8-49ED-8B56-CAB6C4F40872,my_iOS_device_1,1456907742.000058,40.79924779016599,-96.68573118755285,371.0493,0,267.5390625,3,10,-9999,1456907742.339506,1.435644149780273,44.97138977050781,-6.81085205078125,7.549245834350586,4.272109508514404,25,10475.78676079167,0.0865478515625,0.84112548828125,-0.557830810546875,10475.75149779167,-0.02763535631564325,0.02656423292521338,-0.0004149204978343453,10475.75149779167,0.1310743037915997,0.1589168261018587,-0.980668942371891,-0.008009609766304493,-0.004131087101995945,0.005778079386800528,0.0008680228493176401,0.005220287479460239,-0.002546972595155239,XArbitraryCorrectedZVertical,-0.4730131593219006,0.03912877270265908,0.02029257312292666,0.8799521019527937,0.08806020021438599,0.8308697938919067,-0.5494549870491028,-0.8970704078674316,48.74550247192383,-6.465183258056641,1,10475.68463879167,stationary,1,2016-03-02 02:35:42.270,null,0,0,0,0,null,10474.78290579167,0,0.7261353,97.40585,192.168.1.101,100.78.239.175,2,1,0.41,0
2016-03-02 02:35:42.418,33,234B9614-18C8-49ED-8B56-CAB6C4F40872,my_iOS_device_1,1456907742.000058,40.79924779016599,-96.68573118755285,371.0493,0,267.5390625,3,10,-9999,1456907742.407758,1.539712905883789,44.86697387695312,-6.84381103515625,7.542545318603516,4.265409469604492,25,10475.81704779167,0.0877838134765625,0.8410186767578125,-0.5589599609375,10475.78649679167,-0.01587004325189119,0.03506850523416341,-0.00451139488659423,10475.78649679167,0.1313150545081768,0.1590319380534023,-0.9806579692123631,0.003802972612902522,0.004373196512460709,0.001686466624960303,0.000330308306729421,0.01105525065213442,-0.005721938796341419,XArbitraryCorrectedZVertical,-0.473014238328875,0.03912300093571983,0.0203718251045726,0.8799499473707797,0.08812489360570908,0.8308637142181396,-0.5494538545608521,-0.8857924938201904,48.74684906005859,-6.456567764282227,1,10475.68463879167,stationary,1,2016-03-02 02:35:42.270,null,0,0,0,0,null,10474.78290579167,0,0.7261353,97.40585,192.168.1.101,100.78.239.175,2,1,0.41,0
2016-03-02 02:35:42.440,34,234B9614-18C8-49ED-8B56-CAB6C4F40872,my_iOS_device_1,1456907742.000058,40.79924779016599,-96.68573118755285,371.0493,0,267.5390625,3,10,-9999,1456907742.407758,1.539712905883789,44.86697387695312,-6.84381103515625,7.542545318603516,4.265409469604492,25,10475.84736179167,0.0905609130859375,0.8358306884765625,-0.553985595703125,10475.82152179167,-0.01793638994168367,0.03824539009851893,-0.008806008460456009,10475.82152179167,0.1309280413520298,0.1588519409104558,-0.9803555108579587,0.001737309852614999,0.007549695204943419,-0.00260903243906796,-0.0002819249348249286,0.01032333076000214,-0.00924215279519558,XArbitraryCorrectedZVertical,-0.4728724975244049,0.03914967461657599,0.02025932480861456,0.8800275358309753,0.0880657359957695,0.8306953310966492,-0.5497177839279175,-0.8811647891998291,48.74667739868164,-6.458520889282227,1,10475.68463879167,stationary,1,2016-03-02 02:35:42.270,null,0,0,0,0,null,10474.78290579167,0,0.7261353,97.40585,192.168.1.101,100.78.239.175,2,1,0.41,0
2016-03-02 02:35:42.469,35,234B9614-18C8-49ED-8B56-CAB6C4F40872,my_iOS_device_1,1456907742.000058,40.79924779016599,-96.68573118755285,371.0493,0,267.5390625,3,10,-9999,1456907742.458889,1.192806243896484,44.79737854003906,-6.90997314453125,7.549653053283691,4.272517204284668,25,10475.87764679167,0.0898284912109375,0.833282470703125,-0.553466796875,10475.85654479167,-0.02539909994830371,0.03505252626762293,-0.007847004151918476,10475.82152179167,0.1309280413520298,0.1588519409104558,-0.9803555108579587,0.001737309852614999,0.007549695204943419,-0.00260903243906796,-0.0002819249348249286,0.01032333076000214,-0.00924215279519558,XArbitraryCorrectedZVertical,-0.4728724975244049,0.03914967461657599,0.02025932480861456,0.8800275358309753,0.0880657359957695,0.8306953310966492,-0.5497177839279175,-0.8811647891998291,48.74667739868164,-6.458520889282227,1,10475.68463879167,stationary,1,2016-03-02 02:35:42.270,null,0,0,0,0,null,10474.78290579167,0,0.7261353,97.40585,192.168.1.101,100.78.239.175,2,1,0.41,0
2016-03-02 02:35:42.498,36,234B9614-18C8-49ED-8B56-CAB6C4F40872,my_iOS_device_1,1456907742.000058,40.79924779016599,-96.68573118755285,371.0493,0,267.5390625,3,10,-9999,1456907742.458889,1.192806243896484,44.79737854003906,-6.90997314453125,7.549653053283691,4.272517204284668,25,10475.90796079167,0.0884857177734375,0.84210205078125,-0.550689697265625,10475.89153879167,-0.03603576534208019,0.0350445367843527,-0.008001467495143071,10475.85654479167,0.1307717293481473,0.1589370124295277,-0.9803926200026697,-0.005725282710045576,0.004356912337243557,-0.001650185091421008,0.002453288529068232,0.005114683881402016,-0.004305719863623381,XArbitraryCorrectedZVertical,-0.4728865325242697,0.03922230681404124,0.02016856574764993,0.8800188446624495,0.08810762315988541,0.8307160139083862,-0.5496798753738403,-0.8887171745300293,48.74459075927734,-6.473215103149414,1,10475.68463879167,stationary,1,2016-03-02 02:35:42.270,null,0,0,0,0,null,10474.78290579167,0,0.7261353,97.40585,192.168.1.101,100.78.239.175,2,1,0.41,0
2016-03-02 02:35:42.529,37,234B9614-18C8-49ED-8B56-CAB6C4F40872,my_iOS_device_1,1456907742.000058,40.79924779016599,-96.68573118755285,371.0493,0,267.5390625,3,10,-9999,1456907742.507342,1.539714813232422,45.00619506835938,-7.1741943359375,7.549857139587402,4.272721290588379,25,10475.93826479167,0.0886688232421875,0.8468780517578125,-0.55389404296875,10475.92656679167,-0.01587323904519928,0.03081490434108885,-0.004509264357722166,10475.89153879167,0.1311425128372249,0.1594812082861584,-0.980740634195483,-0.01636168546974659,0.00434983940795064,-0.001803618739359081,0.003878551302477717,0.00524143036454916,-0.001999443862587214,XArbitraryCorrectedZVertical,-0.4730515752797219,0.03935754645268746,0.02018548608371329,0.8799237107921084,0.08836083114147186,0.8309096693992615,-0.549346387386322,-0.8844599723815918,48.74544143676758,-6.467370986938477,1,10475.68463879167,stationary,1,2016-03-02 02:35:42.270,null,0,0,0,0,null,10474.78290579167,0,0.7261353,97.40585,192.168.1.101,100.78.239.175,2,1,0.41,0
2016-03-02 02:35:42.572,38,234B9614-18C8-49ED-8B56-CAB6C4F40872,my_iOS_device_1,1456907742.000058,40.79924779016599,-96.68573118755285,371.0493,0,267.5390625,3,10,-9999,1456907742.549339,0.9846591949462891,44.86700439453125,-7.24029541015625,7.563286781311035,4.286150932312012,25,10475.96856279167,0.089385986328125,0.8381195068359375,-0.55279541015625,10475.92656679167,-0.01587323904519928,0.03081490434108885,-0.004509264357722166,10475.92656679167,0.1313427149974699,0.159718919504615,-0.981251710611635,0.003835212672129273,0.0001142419132520445,0.001694291713647544,0.001648769481107593,0.01319691818207502,-0.0008070983458310366,XArbitraryCorrectedZVertical,-0.4732814958353049,0.03939044926222102,0.02019152428997378,0.8797984545074261,0.08842386305332184,0.8311939239501953,-0.5489060282707214,-0.8844599723815918,48.74544143676758,-6.467370986938477,1,10475.68463879167,stationary,1,2016-03-02 02:35:42.270,null,0,0,0,0,null,10474.78290579167,0,0.7261353,97.40585,192.168.1.101,100.78.239.175,2,1,0.41,0
2016-03-02 02:35:42.590,39,234B9614-18C8-49ED-8B56-CAB6C4F40872,my_iOS_device_1,1456907742.000058,40.79924779016599,-96.68573118755285,371.0493,0,267.5390625,3,10,-9999,1456907742.549339,0.9846591949462891,44.86700439453125,-7.24029541015625,7.563286781311035,4.286150932312012,25,10475.99887279167,0.086334228515625,0.837615966796875,-0.5536346435546875,10475.96158079167,-0.01154214016440342,0.03505705364147606,-0.009777263310007908,10475.96158079167,0.1311794711279242,0.15963984276312,-0.9811946272754321,0.008164987899363041,0.004356598947197199,-0.003573994617909193,-0.0007109966827556491,0.009001972153782845,-0.004384856671094894,XArbitraryCorrectedZVertical,-0.4732525126260844,0.03939700813643933,0.02014130762887409,0.8798149025618885,0.08838799595832825,0.8311622142791748,-0.5489598512649536,-0.880150318145752,48.75067138671875,-6.428426742553711,1,10475.68463879167,stationary,1,2016-03-02 02:35:42.270,null,0,0,0,0,null,10474.78290579167,0,0.7261353,97.40585,192.168.1.101,100.78.239.175,2,1,0.41,0
2016-03-02 02:35:42.621,40,234B9614-18C8-49ED-8B56-CAB6C4F40872,my_iOS_device_1,1456907742.000058,40.79924779016599,-96.68573118755285,371.0493,0,267.5390625,3,10,-9999,1456907742.594383,0.9846572875976562,44.86700439453125,-7.30633544921875,7.596621513366699,4.319485664367676,25,10476.02915979167,0.0885009765625,0.83892822265625,-0.552581787109375,10475.99657479167,-0.01472168818984902,0.03079812642622135,-0.01088700253624393,10475.99657479167,0.1308062908327399,0.1593442161563651,-0.9809262021563445,0.004985206294804811,9.770031465450302e-05,-0.004684027750045061,-0.00201842887327075,0.007167612202465534,-0.003818057477474213,XArbitraryCorrectedZVertical,-0.4731247653212282,0.03936799648797749,0.02006061535925116,0.8798867478281819,0.08826110512018204,0.8310129046440125,-0.5492062568664551,-0.8837747573852539,48.74958801269531,-6.436115264892578,1,10475.68463879167,stationary,1,2016-03-02 02:35:42.270,null,0,0,0,0,null,10474.78290579167,0,0.7261353,97.40585,192.168.1.101,100.78.239.175,2,1,0.41,0
2016-03-02 02:35:42.653,41,234B9614-18C8-49ED-8B56-CAB6C4F40872,my_iOS_device_1,1456907742.000058,40.79924779016599,-96.68573118755285,371.0493,0,267.5390625,3,10,-9999,1456907742.594383,0.9846572875976562,44.86700439453125,-7.30633544921875,7.596621513366699,4.319485664367676,25,10476.05946379167,0.0894775390625,0.839874267578125,-0.5522003173828125,10476.03160579167,-0.01268703311702848,0.02443689984645808,-0.004459729561446692,10476.03160579167,0.1306194799511431,0.1590523695914636,-0.9808225723836368,0.007019348442554474,-0.006263419520109892,0.00174292828887701,0.0003865205508191139,0.007972941733896732,-0.003264789469540119,XArbitraryCorrectedZVertical,-0.4730728265362532,0.03928870036274212,0.0200526793320826,0.8799183989827709,0.08811445534229279,0.8309552669525146,-0.5493170022964478,-0.8896245956420898,48.74834823608398,-6.444700241088867,1,10475.68463879167,stationary,1,2016-03-02 02:35:42.270,null,0,0,0,0,null,10474.78290579167,0,0.7261353,97.40585,192.168.1.101,100.78.239.175,2,1,0.41,0
2016-03-02 02:35:42.682,42,234B9614-18C8-49ED-8B56-CAB6C4F40872,my_iOS_device_1,1456907742.000058,40.79924779016599,-96.68573118755285,371.0493,0,267.5390625,3,10,-9999,1456907742.654489,0.5336761474609375,44.83218383789062,-7.4053955078125,7.64424991607666,4.367113590240479,25,10476.08976479167,0.0919952392578125,0.83917236328125,-0.55462646484375,10476.06662179167,-0.008460862783181739,0.02550935481743299,-0.002267415352093463,10476.06662179167,0.130889511138112,0.1591102918853556,-0.9805923997190686,0.01124473661184311,-0.005190565250813961,0.003935432061553001,0.001300964155234396,0.009047063067555428,-0.002699591685086489,XArbitraryCorrectedZVertical,-0.4729780049606626,0.03926122770721804,0.02016936529698841,0.8799679309644536,0.08817657828330994,0.8308271765708923,-0.5495007038116455,-0.8958451747894287,48.7473258972168,-6.451581954956055,1,10475.68463879167,stationary,1,2016-03-02 02:35:42.270,null,0,0,0,0,null,10474.78290579167,0,0.7261353,97.40585,192.168.1.101,100.78.239.175,2,1,0.41,0
2016-03-02 02:35:42.732,43,234B9614-18C8-49ED-8B56-CAB6C4F40872,my_iOS_device_1,1456907742.000058,40.79924779016599,-96.68573118755285,371.0493,0,267.5390625,3,10,-9999,1456907742.713423,1.262186050415039,44.72776794433594,-6.77789306640625,7.652766227722168,4.375629901885986,25,10476.12006779167,0.0868377685546875,0.8410797119140625,-0.55322265625,10476.10162079167,-0.008446215397186305,0.0255064253402339,-0.003332946104234167,10476.06662179167,0.130889511138112,0.1591102918853556,-0.9805923997190686,0.01124473661184311,-0.005190565250813961,0.003935432061553001,0.001300964155234396,0.009047063067555428,-0.002699591685086489,XArbitraryCorrectedZVertical,-0.4729780049606626,0.03926122770721804,0.02016936529698841,0.8799679309644536,0.08817657828330994,0.8308271765708923,-0.5495007038116455,-0.8958451747894287,48.7473258972168,-6.451581954956055,1,10475.68463879167,stationary,1,2016-03-02 02:35:42.270,null,0,0,0,0,null,10476.09729779167,0,0.7193909,97.40593,192.168.1.101,100.78.239.175,2,1,0.41,0
2016-03-02 02:35:42.742,44,234B9614-18C8-49ED-8B56-CAB6C4F40872,my_iOS_device_1,1456907742.000058,40.79924779016599,-96.68573118755285,371.0493,0,267.5390625,3,10,-9999,1456907742.713423,1.262186050415039,44.72776794433594,-6.77789306640625,7.652766227722168,4.375629901885986,25,10476.15036779167,0.08551025390625,0.8347625732421875,-0.553192138671875,10476.13664479167,-0.01046222834237629,0.03718172355914128,-0.01082841299226218,10476.10162079167,0.1312244827336491,0.1592440352592883,-0.980313250489727,0.01127051189541817,-0.005203993525356054,0.002875755308195949,0.001556910458020866,0.01019427180290222,-0.003718382678925991,XArbitraryCorrectedZVertical,-0.4728637921194053,0.03925411817714721,0.02029918574586504,0.8800266424186469,0.08828683942556381,0.8306718468666077,-0.549717903137207,-0.8791484832763672,48.74511337280273,-6.470565795898438,1,10475.68463879167,stationary,1,2016-03-02 02:35:42.270,null,0,0,0,0,null,10476.09729779167,0,0.7193909,97.40593,192.168.1.101,100.78.239.175,2,1,0.41,0
2016-03-02 02:35:42.773,45,234B9614-18C8-49ED-8B56-CAB6C4F40872,my_iOS_device_1,1456907742.000058,40.79924779016599,-96.68573118755285,371.0493,0,267.5390625,3,10,-9999,1456907742.713423,1.262186050415039,44.72776794433594,-6.77789306640625,7.652766227722168,4.375629901885986,25,10476.18067479167,0.08514404296875,0.8351593017578125,-0.556549072265625,10476.17165979167,-0.01368651747413522,0.03186818455221519,-0.008741027329858075,10476.13664479167,0.130946418055504,0.1590322928485035,-0.9799543414379381,0.00925380177795887,0.006471239496022463,-0.004620219580829144,-0.002341181971132755,0.009295519441366196,-0.005480558145791292,XArbitraryCorrectedZVertical,-0.4726991356226556,0.03924371259034704,0.02024495405659071,0.8801168104512939,0.08821764588356018,0.830471932888031,-0.5500308871269226,-0.876399040222168,48.74420166015625,-6.477798461914062,1,10475.68463879167,stationary,1,2016-03-02 02:35:42.270,null,0,0,0,0,null,10476.09729779167,0,0.7193909,97.40593,192.168.1.101,100.78.239.175,2,1,0.41,0
2016-03-02 02:35:42.812,46,234B9614-18C8-49ED-8B56-CAB6C4F40872,my_iOS_device_1,1456907742.000058,40.79924779016599,-96.68573118755285,371.0493,0,267.5390625,3,10,-9999,1456907742.773306,1.296880722045898,44.27531433105469,-6.8109130859375,7.660170555114746,4.383034229278564,25,10476.21097479167,0.08892822265625,0.8394012451171875,-0.5528564453125,10476.17165979167,-0.01368651747413522,0.03186818455221519,-0.008741027329858075,10476.17165979167,0.1302205185196363,0.1584329990556066,-0.979732902581814,0.006029717158526182,0.001157114398665726,-0.002534098923206329,-0.003871602471917868,0.004337717778980732,-0.004605337511748075,XArbitraryCorrectedZVertical,-0.4725819546708614,0.03916199848412909,0.02007824601670305,0.8801871948802035,0.0879170149564743,0.8303485512733459,-0.5502652525901794,-0.8901650905609131,48.74128723144531,-6.49781608581543,1,10475.68463879167,stationary,1,2016-03-02 02:35:42.270,null,0,0,0,0,null,10476.09729779167,0,0.7193909,97.40593,192.168.1.101,100.78.239.175,2,1,0.41,0
2016-03-02 02:35:42.833,47,234B9614-18C8-49ED-8B56-CAB6C4F40872,my_iOS_device_1,1456907742.000058,40.79924779016599,-96.68573118755285,371.0493,0,267.5390625,3,10,-9999,1456907742.83135,1.054042816162109,44.37968444824219,-6.84393310546875,7.668126106262207,4.390989780426025,25,10476.24127879167,0.090087890625,0.843658447265625,-0.5565032958984375,10476.20667079167,-0.01485830835377009,0.02444409038140129,-0.001294029973669502,10476.20667079167,0.1302277528226302,0.158295448383984,-0.9795947563799736,0.004858299158513546,-0.006266971118748188,0.004912668839097023,0.0014808060368523,0.005025058519095182,-0.003671263810247183,XArbitraryCorrectedZVertical,-0.4725202499240545,0.03910627131906549,0.02012084852522013,0.8802218268197199,0.08785940706729889,0.8302716016769409,-0.5503906011581421,-0.9000065326690674,48.74008178710938,-6.50547981262207,1,10475.68463879167,stationary,1,2016-03-02 02:35:42.270,null,0,0,0,0,null,10476.09729779167,0,0.7193909,97.40593,192.168.1.101,100.78.239.175,2,1,0.41,0
2016-03-02 02:35:42.863,48,234B9614-18C8-49ED-8B56-CAB6C4F40872,my_iOS_device_1,1456907742.000058,40.79924779016599,-96.68573118755285,371.0493,0,267.5390625,3,10,-9999,1456907742.83135,1.054042816162109,44.37968444824219,-6.84393310546875,7.668126106262207,4.390989780426025,25,10476.27158279167,0.08782958984375,0.8333892822265625,-0.555206298828125,10476.24168179167,-0.005224323110408441,0.02762976367735408,-0.005418733869984226,10476.24168179167,0.130366657991198,0.1582962561202477,-0.9794199980262511,0.01449115108698606,-0.00308087607845664,0.0007880388875491917,0.00220517092384398,0.01348429080098867,-0.005969466641545296,XArbitraryCorrectedZVertical,-0.4724464816416453,0.03908205881654429,0.02019054394013834,0.8802609025729152,0.08788271993398666,0.8301741480827332,-0.5505338311195374,-0.8990287780761719,48.73936462402344,-6.510997772216797,1,10475.68463879167,stationary,1,2016-03-02 02:35:42.270,null,0,0,0,0,null,10476.09729779167,0,0.7193909,97.40593,192.168.1.101,100.78.239.175,2,1,0.41,0
2016-03-02 02:35:42.893,49,234B9614-18C8-49ED-8B56-CAB6C4F40872,my_iOS_device_1,1456907742.000058,40.79924779016599,-96.68573118755285,371.0493,0,267.5390625,3,10,-9999,1456907742.890793,0.9846591949462891,44.31010437011719,-6.57977294921875,7.68916130065918,4.412024974822998,25,10476.30188679167,0.0884552001953125,0.837310791015625,-0.5577545166015625,10476.27667579167,-0.00939856180299864,0.03718252250746831,-0.01081296665793972,10476.27667579167,0.1300949693145016,0.1581957211370933,-0.9789949279794338,0.01032023038715124,0.006457909010350704,-0.00460286159068346,-5.336539470590651e-05,0.003452178789302707,-0.004315210971981287,XArbitraryCorrectedZVertical,-0.4722540876712045,0.03912202383307088,0.02011597959194741,0.8803640674710039,0.08788295835256577,0.8299371004104614,-0.550891101360321,-0.896484375,48.73886108398438,-6.515146255493164,1,10475.68463879167,stationary,1,2016-03-02 02:35:42.270,null,0,0,0,0,null,10476.09729779167,0,0.7193909,97.40593,192.168.1.101,100.78.239.175,2,1,0.41,0
2016-03-02 02:35:42.923,50,234B9614-18C8-49ED-8B56-CAB6C4F40872,my_iOS_device_1,1456907742.000058,40.79924779016599,-96.68573118755285,371.0493,0,267.5390625,3,10,-9999,1456907742.890793,0.9846591949462891,44.31010437011719,-6.57977294921875,7.68916130065918,4.412024974822998,25,10476.33218679167,0.09173583984375,0.8436431884765625,-0.55145263671875,10476.31170479167,-0.01045077674968895,0.03292519318886764,-0.01189181321553082,10476.27667579167,0.1300949693145016,0.1581957211370933,-0.9789949279794338,0.01032023038715124,0.006457909010350704,-0.00460286159068346,-5.336539470590651e-05,0.003452178789302707,-0.004315210971981287,XArbitraryCorrectedZVertical,-0.4722540876712045,0.03912202383307088,0.02011597959194741,0.8803640674710039,0.08788295835256577,0.8299371004104614,-0.550891101360321,-0.896484375,48.73886108398438,-6.515146255493164,1,10475.68463879167,stationary,1,2016-03-02 02:35:42.270,null,0,0,0,0,null,10476.09729779167,0,0.7193909,97.40593,192.168.1.101,100.78.239.175,2,1,0.41,0
2016-03-02 02:35:42.972,51,234B9614-18C8-49ED-8B56-CAB6C4F40872,my_iOS_device_1,1456907742.000058,40.79924779016599,-96.68573118755285,371.0493,0,267.5390625,3,10,-9999,1456907742.95135,0.5336761474609375,44.55374145507812,-6.74493408203125,7.73110294342041,4.453967094421387,25,10476.36246379167,0.0897216796875,0.83465576171875,-0.5538177490234375,10476.34670379167,0.00545548549302732,0.02656556450575842,-0.008460330150963724,10476.34670379167,0.1294801943264585,0.1578813363506999,-0.9783381385165366,0.02517217583954334,-0.004158173222094774,-0.002249964512884617,0.001910977647639811,0.01363015361130238,0.0007366703939624131,XArbitraryCorrectedZVertical,-0.471951353421317,0.03915963978788285,0.01995236323455888,0.8805284469094785,0.0877954438328743,0.8295705318450928,-0.5514568686485291,-0.9085140228271484,48.73111724853516,-6.571163177490234,1,10475.68463879167,stationary,1,2016-03-02 02:35:42.270,null,0,0,0,0,null,10476.09729779167,0,0.7193909,97.40593,192.168.1.101,100.78.239.175,2,1,0.41,0
2016-03-02 02:35:42.983,52,234B9614-18C8-49ED-8B56-CAB6C4F40872,my_iOS_device_1,1456907742.000058,40.79924779016599,-96.68573118755285,371.0493,0,267.5390625,3,10,-9999,1456907742.95135,0.5336761474609375,44.55374145507812,-6.74493408203125,7.73110294342041,4.453967094421387,25,10476.39276779167,0.0865478515625,0.830780029296875,-0.55462646484375,10476.38173779167,-0.009461945036942525,0.03081383907665282,-0.006547647856068815,10476.34670379167,0.1294801943264585,0.1578813363506999,-0.9783381385165366,0.02517217583954334,-0.004158173222094774,-0.002249964512884617,0.001910977647639811,0.01363015361130238,0.0007366703939624131,XArbitraryCorrectedZVertical,-0.471951353421317,0.03915963978788285,0.01995236323455888,0.8805284469094785,0.0877954438328743,0.8295705318450928,-0.5514568686485291,-0.9085140228271484,48.73111724853516,-6.571163177490234,1,10475.68463879167,stationary,1,2016-03-02 02:35:42.270,null,0,0,0,0,null,10476.09729779167,0,0.7193909,97.40593,192.168.1.101,100.78.239.175,2,1,0.41,0
2016-03-02 02:35:43.014,53,234B9614-18C8-49ED-8B56-CAB6C4F40872,my_iOS_device_1,1456907742.000058,40.79924779016599,-96.68573118755285,371.0493,0,267.5390625,3,10,-9999,1456907743.006766,0.4642925262451172,44.97138977050781,-6.74493408203125,7.786962509155273,4.50982666015625,25,10476.4230055,0.0865020751953125,0.8406982421875,-0.5594482421875,10476.38173779167,-0.009461945036942525,0.03081383907665282,-0.006547647856068815,10476.38173779167,0.1293299984871063,0.1577387032591882,-0.9778259546347056,0.0102541595697403,9.043616591952741e-05,-0.0003371610655449331,0.001190479728393257,-0.001876579597592354,-0.003714079968631268,XArbitraryCorrectedZVertical,-0.4717227043727658,0.03915630812295593,0.01994541963994413,0.8806512669319237,0.08778352290391922,0.8292844295501709,-0.5518889427185059,-0.9097719192504883,48.72956848144531,-6.582460403442383,1,10475.68463879167,stationary,1,2016-03-02 02:35:42.270,null,0,0,0,0,null,10476.09729779167,0,0.7193909,97.40593,192.168.1.101,100.78.239.175,2,1,0.41,0
2016-03-02 02:35:43.053,54,234B9614-18C8-49ED-8B56-CAB6C4F40872,my_iOS_device_1,1456907742.000058,40.79924779016599,-96.68573118755285,371.0493,0,267.5390625,3,10,-9999,1456907743.006766,0.4642925262451172,44.97138977050781,-6.74493408203125,7.786962509155273,4.50982666015625,25,10476.4533095,0.0857391357421875,0.84173583984375,-0.556671142578125,10476.4516775,-0.01052401367966613,0.03293984057486307,-0.006564159454827306,10476.4166825,0.1289765749128141,0.1574063232225612,-0.9773554545186619,0.006030132062733173,0.003258629934862256,-0.003600676544010639,-0.001342261442914605,0.009632167406380177,-0.00937263760715723,XArbitraryCorrectedZVertical,-0.4715064132011254,0.03911532042519084,0.01989158474833332,0.8807701282823096,0.08766122907400131,0.8290213942527771,-0.5523033738136292,-0.9093680381774902,48.72605133056641,-6.608467102050781,1,10475.68463879167,stationary,1,2016-03-02 02:35:42.270,null,0,0,0,0,null,10476.09729779167,0,0.7193909,97.40593,192.168.1.101,100.78.239.175,2,1,0.41,0
2016-03-02 02:35:43.075,55,234B9614-18C8-49ED-8B56-CAB6C4F40872,my_iOS_device_1,1456907742.000058,40.79924779016599,-96.68573118755285,371.0493,0,267.5390625,3,10,-9999,1456907743.065793,1.054039001464844,44.65814208984375,-7.5045166015625,7.816323280334473,4.539187431335449,25,10476.4836055,0.087646484375,0.8345947265625,-0.5529937744140625,10476.4516775,-0.01052401367966613,0.03293984057486307,-0.006564159454827306,10476.4516775,0.1285512235961692,0.157036107288887,-0.9771534208838125,0.009176177904009819,0.002206220524385571,-0.0003578396281227469,-8.060211985139176e-05,0.01122526824474335,-0.006702879909425974,XArbitraryCorrectedZVertical,-0.4714059298588439,0.03906198168598975,0.01980156185902134,0.8808283084850402,0.08748294413089752,0.828908383846283,-0.5525012016296387,-0.9126050472259521,48.72419357299805,-6.621715545654297,1,10475.68463879167,stationary,1,2016-03-02 02:35:42.270,null,0,0,0,0,null,10476.09729779167,0,0.7193909,97.40593,192.168.1.101,100.78.239.175,2,1,0.41,0
2016-03-02 02:35:43.108,56,234B9614-18C8-49ED-8B56-CAB6C4F40872,my_iOS_device_1,1456907743.000058,40.79924779016599,-96.68573118755285,370.9591,0,267.5390625,3,10,-9999,1456907743.065793,1.054039001464844,44.65814208984375,-7.5045166015625,7.816323280334473,4.539187431335449,25,10476.5139075,0.089691162109375,0.8350830078125,-0.555023193359375,10476.4866915,-0.004203799780690077,0.028702751280547,-0.002207227911457673,10476.4866915,0.1283391832510032,0.1567509929239505,-0.976953306539879,0.01549477223306894,-0.002031077863648534,0.003998131025582552,0.0002951748901978135,0.005798284895718098,-0.0003038007707800716,XArbitraryCorrectedZVertical,-0.4713113067886711,0.03899570833122463,0.01978528312714128,0.8808822449093133,0.08735130727291107,0.8287964463233948,-0.5526899695396423,-0.9290549755096436,48.72111129760742,-6.642095565795898,1,10475.68463879167,stationary,1,2016-03-02 02:35:42.270,null,0,0,0,0,null,10476.09729779167,0,0.7193909,97.40593,192.168.1.101,100.78.239.175,2,1,0.41,0
2016-03-02 02:35:43.135,57,234B9614-18C8-49ED-8B56-CAB6C4F40872,my_iOS_device_1,1456907743.000058,40.79924779016599,-96.68573118755285,370.9591,0,267.5390625,3,10,-9999,1456907743.125937,1.470335006713867,44.44932556152344,-7.306396484375,7.814513206481934,4.53737735748291,25,10476.5441935,0.0884857177734375,0.8358306884765625,-0.555877685546875,10476.5217015,-0.008473912272523127,0.02763908474116936,-0.001202949864388792,10476.4866915,0.1283391832510032,0.1567509929239505,-0.976953306539879,0.01549477223306894,-0.002031077863648534,0.003998131025582552,0.0002951748901978135,0.005798284895718098,-0.0003038007707800716,XArbitraryCorrectedZVertical,-0.4713113067886711,0.03899570833122463,0.01978528312714128,0.8808822449093133,0.08735130727291107,0.8287964463233948,-0.5526899695396423,-0.9290549755096436,48.72111129760742,-6.642095565795898,1,10475.68463879167,stationary,1,2016-03-02 02:35:42.270,null,0,0,0,0,null,10476.09729779167,0,0.7193909,97.40593,192.168.1.101,100.78.239.175,2,1,0.41,0
2016-03-02 02:35:43.165,58,234B9614-18C8-49ED-8B56-CAB6C4F40872,my_iOS_device_1,1456907743.000058,40.79924779016599,-96.68573118755285,370.9591,0,267.5390625,3,10,-9999,1456907743.125937,1.470335006713867,44.44932556152344,-7.306396484375,7.814513206481934,4.53737735748291,25,10476.5744975,0.0876007080078125,0.8377227783203125,-0.555938720703125,10476.5567315,-0.02326857107624032,0.03930772505735154,-0.007818242012145619,10476.5217015,0.128582182616317,0.1568011361327669,-0.9764842193335505,0.01122424006462097,-0.003094472689554095,0.005002458579838276,0.002251437399536371,0.006549135316163301,-0.001953653059899807,XArbitraryCorrectedZVertical,-0.4711110300724554,0.03898239602154225,0.01990373008721922,0.8809872937069506,0.08743972331285477,0.8285338878631592,-0.553069531917572,-0.9244160652160645,48.71822357177734,-6.663898468017578,1,10475.68463879167,stationary,1,2016-03-02 02:35:42.270,null,0,0,0,0,null,10476.09729779167,0,0.7193909,97.40593,192.168.1.101,100.78.239.175,2,1,0.41,0
