loggingTime,loggingSample,identifierForVendor,deviceID,locationTimestamp_since1970,locationLatitude,locationLongitude,locationAltitude,locationSpeed,locationCourse,locationVerticalAccuracy,locationHorizontalAccuracy,locationFloor,locationHeadingTimestamp_since1970,locationHeadingX,locationHeadingY,locationHeadingZ,locationTrueHeading,locationMagneticHeading,locationHeadingAccuracy,accelerometerTimestamp_sinceReboot,accelerometerAccelerationX,accelerometerAccelerationY,accelerometerAccelerationZ,gyroTimestamp_sinceReboot,gyroRotationX,gyroRotationY,gyroRotationZ,motionTimestamp_sinceReboot,motionYaw,motionRoll,motionPitch,motionRotationRateX,motionRotationRateY,motionRotationRateZ,motionUserAccelerationX,motionUserAccelerationY,motionUserAccelerationZ,motionAttitudeReferenceFrame,motionQuaternionX,motionQuaternionY,motionQuaternionZ,motionQuaternionW,motionGravityX,motionGravityY,motionGravityZ,motionMagneticFieldX,motionMagneticFieldY,motionMagneticFieldZ,motionMagneticFieldCalibrationAccuracy,activityTimestamp_sinceReboot,activity,activityActivityConfidence,activityActivityStartDate,pedometerStartDate,pedometerNumberofSteps,pedometerDistance,pedometerFloorAscended,pedometerFloorDescended,pedometerEndDate,altimeterTimestamp_sinceReboot,altimeterReset,altimeterRelativeAltitude,altimeterPressure,IP_en0,IP_pdp_ip0,deviceOrientation,batteryState,batteryLevel,state
2016-03-02 03:01:38.196,1,234B9614-18C8-49ED-8B56-CAB6C4F40872,my_iOS_device_1,1456909298.000014,40.79915278129354,-96.68579027997021,368.4445,0,-1,4,5,-9999,1456909298.174715,4.28659725189209,45.70204162597656,-4.70159912109375,352.9118041992188,349.6346740722656,25,11557.909548,0.020477294921875,0.82672119140625,-0.567596435546875,11557.888663,-0.0562994917603841,0.06056560951058203,-0.002980077259798668,11557.888663,-0.4869819835834814,-7.034495852797391e-05,-0.9643437914153506,-0.03317040577530861,0.03106438368558884,0.003454420482739806,0.009912529960274696,-0.00143887719605118,-0.01180040370672941,XArbitraryCorrectedZVertical,-0.4500338126032379,0.1117652611642347,-0.2135893393086368,0.8598591094152515,-4.009354597656056e-05,0.8216750621795654,-0.5699561834335327,6.982688903808594,31.84326553344727,-40.94887161254883,1,11552.36989466667,unknown,2,2016-03-02 03:01:32.597,null,0,0,0,0,null,11557.560606,0,-0.1121521,97.35745,192.168.1.101,100.78.239.175,2,1,0.34,0
2016-03-02 03:01:38.214,2,234B9614-18C8-49ED-8B56-CAB6C4F40872,my_iOS_device_1,1456909298.000014,40.79915278129354,-96.68579027997021,368.4445,0,-1,4,5,-9999,1456909298.174715,4.28659725189209,45.70204162597656,-4.70159912109375,352.9118041992188,349.6346740722656,25,11557.939838,0.0054779052734375,0.843658447265625,-0.552490234375,11557.923675,-0.08470343636662422,0.05090898739795472,-0.0268340111436384,11557.888663,-0.4869819835834814,-7.034495852797391e-05,-0.9643437914153506,-0.03317040577530861,0.03106438368558884,0.003454420482739806,0.009912529960274696,-0.00143887719605118,-0.01180040370672941,XArbitraryCorrectedZVertical,-0.4500338126032379,0.1117652611642347,-0.2135893393086368,0.8598591094152515,-4.009354597656056e-05,0.8216750621795654,-0.5699561834335327,6.982688903808594,31.84326553344727,-40.94887161254883,1,11552.36989466667,unknown,2,2016-03-02 03:01:32.597,null,0,0,0,0,null,11557.560606,0,-0.1121521,97.35745,192.168.1.101,100.78.239.175,2,1,0.34,0
2016-03-02 03:01:38.243,3,234B9614-18C8-49ED-8B56-CAB6C4F40872,my_iOS_device_1,1456909298.000014,40.79915278129354,-96.68579027997021,368.4445,0,-1,4,5,-9999,1456909298.233965,4.425354957580566,45.84127807617188,-4.5032958984375,352.8661499023438,349.5890197753906,25,11557.970127,0.0019683837890625,0.8311767578125,-0.5697784423828125,11557.958668,-0.01476669561227136,0.04888764813058458,-0.006633934275387382,11557.923675,-0.4858683381150839,0.002461689197338403,-0.9666533405260315,-0.06156938895583153,0.02141169458627701,-0.02039114385843277,0.01321954187005758,0.01572536677122116,0.01011762861162424,XArbitraryCorrectedZVertical,-0.4508187478073317,0.1128487096836281,-0.2135524461362949,0.8593154124635378,0.001398378284648061,0.8229892253875732,-0.568055272102356,7.118940353393555,31.83279991149902,-40.93354415893555,1,11552.36989466667,unknown,2,2016-03-02 03:01:32.597,null,0,0,0,0,null,11557.560606,0,-0.1121521,97.35745,192.168.1.101,100.78.239.175,2,1,0.34,0
2016-03-02 03:01:38.273,4,234B9614-18C8-49ED-8B56-CAB6C4F40872,my_iOS_device_1,1456909298.000014,40.79915278129354,-96.68579027997021,368.4445,0,-1,4,5,-9999,1456909298.233965,4.425354957580566,45.84127807617188,-4.5032958984375,352.8661499023438,349.5890197753906,25,11558.000418,0.00640869140625,0.8197784423828125,-0.57965087890625,11557.99369,-0.03292599213719466,0.0244275787826428,-0.002622148409292018,11557.958668,-0.4861500171885598,0.003077719440767598,-0.9683595849580807,0.008357219398021698,0.01939108595252037,-0.0001900656934594736,-0.001011571031995118,0.01683251745998859,0.009688181802630424,XArbitraryCorrectedZVertical,-0.4514701890071527,0.1133580516597544,-0.2137179386235587,0.8588651019061453,0.001743992906995118,0.8239572644233704,-0.5666492581367493,7.177606582641602,31.97527313232422,-40.81207656860352,1,11552.36989466667,unknown,2,2016-03-02 03:01:32.597,null,0,0,0,0,null,11557.560606,0,-0.1121521,97.35745,192.168.1.101,100.78.239.175,2,1,0.34,0
2016-03-02 03:01:38.309,5,234B9614-18C8-49ED-8B56-CAB6C4F40872,my_iOS_device_1,1456909298.000014,40.79915278129354,-96.68579027997021,368.4445,0,-1,4,5,-9999,1456909298.295165,4.529422760009766,46.08493041992188,-4.4041748046875,352.82861328125,349.5514831542969,25,11558.030692,0.0041351318359375,0.832122802734375,-0.570709228515625,11557.99369,-0.03292599213719466,0.0244275787826428,-0.002622148409292018,11557.99369,-0.4858084191340612,0.003743160800590195,-0.9680397036326718,-0.009801146574318409,-0.00506814569234848,0.003823055885732174,0.001860493212006986,-0.001876560505479574,-0.0138837955892086,XArbitraryCorrectedZVertical,-0.4512810192533153,0.1135327936765994,-0.2137390971537379,0.8589361703698282,0.002122050849720836,0.8237759470939636,-0.566911518573761,7.197681903839111,31.99266052246094,-40.7949104309082,1,11552.36989466667,unknown,2,2016-03-02 03:01:32.597,null,0,0,0,0,null,11557.560606,0,-0.1121521,97.35745,192.168.1.101,100.78.239.175,2,1,0.34,0
2016-03-02 03:01:38.333,6,234B9614-18C8-49ED-8B56-CAB6C4F40872,my_iOS_device_1,1456909298.000014,40.79915278129354,-96.68579027997021,368.4445,0,-1,4,5,-9999,1456909298.295165,4.529422760009766,46.08493041992188,-4.4041748046875,352.82861328125,349.5514831542969,25,11558.060996,0.0045623779296875,0.838653564453125,-0.564056396484375,11558.028675,-0.06699820880755943,0.01696406982769574,-0.0009816411778032072,11558.028675,-0.4853104072551132,0.003879185517051007,-0.9686735426815895,-0.04386833682656288,-0.0125308046117425,0.00546509213745594,0.002761967713013291,0.002280873479321599,-0.009355681017041206,XArbitraryCorrectedZVertical,-0.451567095054517,0.1135459591448038,-0.2135209863428598,0.8588383213487215,0.002197138732299209,0.8241351246833801,-0.5663889646530151,7.212733268737793,31.97062873840332,-40.80952072143555,1,11552.36989466667,unknown,2,2016-03-02 03:01:32.597,null,0,0,0,0,null,11557.560606,0,-0.1121521,97.35745,192.168.1.101,100.78.239.175,2,1,0.34,0
2016-03-02 03:01:38.364,7,234B9614-18C8-49ED-8B56-CAB6C4F40872,my_iOS_device_1,1456909298.000014,40.79915278129354,-96.68579027997021,368.4445,0,-1,4,5,-9999,1456909298.351448,4.355976104736328,46.11972045898438,-4.5032958984375,352.8065185546875,349.5293884277344,25,11558.091288,0.008148193359375,0.8329925537109375,-0.5673828125,11558.063708,-0.03723844889035997,0.0254995011213997,0.001577656629762941,11558.063708,-0.484688125586789,0.004210147615252863,-0.9701518265594061,-0.01411300338804722,-0.003994547761976719,0.008025455288589001,0.002182917902246118,0.01368203293532133,0.001112879603169858,XArbitraryCorrectedZVertical,-0.4522021692692282,0.1137038259633053,-0.2132471725117305,0.8585512689905417,0.002379460027441382,0.8249715566635132,-0.5651692748069763,7.208786487579346,32.02346420288086,-40.76876831054688,1,11552.36989466667,unknown,2,2016-03-02 03:01:32.597,null,0,0,0,0,null,11557.560606,0,-0.1121521,97.35745,192.168.1.101,100.78.239.175,2,1,0.34,0
2016-03-02 03:01:38.395,8,234B9614-18C8-49ED-8B56-CAB6C4F40872,my_iOS_device_1,1456909298.000014,40.79915278129354,-96.68579027997021,368.4445,0,-1,4,5,-9999,1456909298.351448,4.355976104736328,46.11972045898438,-4.5032958984375,352.8065185546875,349.5293884277344,25,11558.121575,0.0114288330078125,0.828033447265625,-0.568450927734375,11558.098708,-0.02649845284628842,0.02655038448754497,-0.005727127924215402,11558.098708,-0.4840022095643025,0.004894348189834962,-0.9706019551851311,-0.003375313710421324,-0.002942383754998446,0.0007228395552374423,0.005383862648159266,0.007766705006361008,-0.002586692804470658,XArbitraryCorrectedZVertical,-0.4523616092459798,0.1138899232448449,-0.2130827310991513,0.8584834358163261,0.002764330944046378,0.825225830078125,-0.5647960901260376,7.223771095275879,32.06718444824219,-40.73173904418945,1,11552.36989466667,unknown,2,2016-03-02 03:01:32.597,null,0,0,0,0,null,11557.560606,0,-0.1121521,97.35745,192.168.1.101,100.78.239.175,2,1,0.34,0
2016-03-02 03:01:38.437,9,234B9614-18C8-49ED-8B56-CAB6C4F40872,my_iOS_device_1,1456909298.000014,40.79915278129354,-96.68579027997021,368.4445,0,-1,4,5,-9999,1456909298.411414,4.355976104736328,45.98051452636719,-4.5694580078125,352.7869262695312,349.5097961425781,25,11558.15186,0.0078125,0.8341217041015625,-0.5655517578125,11558.13373,-0.03605360852138372,0.03079386536847722,-0.006933806214130304,11558.13373,-0.4833249631073053,0.005704378706701657,-0.9710553873785662,-0.01293148100376129,0.001303264987654984,-0.0004800166934728622,0.003906157333403826,0.00503876619040966,-0.001513768220320344,XArbitraryCorrectedZVertical,-0.4525086986173995,0.1141321515575003,-0.2129504684082044,0.8584065631512703,0.003219697158783674,0.8254818916320801,-0.5644194483757019,7.234823226928711,32.07261657714844,-40.72549438476562,1,11558.154966,stationary,1,2016-03-02 03:01:38.413,null,0,0,0,0,null,11557.560606,0,-0.1121521,97.35745,192.168.1.101,100.78.239.175,2,1,0.34,0
2016-03-02 03:01:38.472,10,234B9614-18C8-49ED-8B56-CAB6C4F40872,my_iOS_device_1,1456909298.000014,40.79915278129354,-96.68579027997021,368.4445,0,-1,4,5,-9999,1456909298.468852,4.425357818603516,45.84130859375,-4.83380126953125,352.7572021484375,349.4800720214844,25,11558.182155,0.0024566650390625,0.8354339599609375,-0.5624847412109375,11558.168738,-0.03602750954270094,0.02653440552100449,-0.009062737189539647,11558.13373,-0.4833249631073053,0.005704378706701657,-0.9710553873785662,-0.01293148100376129,0.001303264987654984,-0.0004800166934728622,0.003906157333403826,0.00503876619040966,-0.001513768220320344,XArbitraryCorrectedZVertical,-0.4525086986173995,0.1141321515575003,-0.2129504684082044,0.8584065631512703,0.003219697158783674,0.8254818916320801,-0.5644194483757019,7.234823226928711,32.07261657714844,-40.72549438476562,1,11558.154966,stationary,1,2016-03-02 03:01:38.413,null,0,0,0,0,null,11557.560606,0,-0.1121521,97.35745,192.168.1.101,100.78.239.175,2,1,0.34,0
2016-03-02 03:01:38.488,11,234B9614-18C8-49ED-8B56-CAB6C4F40872,my_iOS_device_1,1456909298.000014,40.79915278129354,-96.68579027997021,368.4445,0,-1,4,5,-9999,1456909298.468852,4.425357818603516,45.84130859375,-4.83380126953125,352.7572021484375,349.4800720214844,25,11558.212425,0.0050506591796875,0.8335723876953125,-0.5608978271484375,11558.203744,-0.02964870609974315,0.02228559831789207,-0.008967928654732827,11558.203744,-0.4833413442160912,0.00550872222577398,-0.9725002186660436,-0.006532718893140554,-0.007204010616987944,-0.002513320185244083,-0.001866729580797255,0.005719485227018595,0.001993305282667279,XArbitraryCorrectedZVertical,-0.453149054351949,0.114203859944139,-0.2128341991291956,0.8580880004957728,0.003102691611275077,0.8262965083122253,-0.5632268190383911,7.255868911743164,32.10907745361328,-40.69300842285156,1,11558.154966,stationary,1,2016-03-02 03:01:38.413,null,0,0,0,0,null,11557.560606,0,-0.1121521,97.35745,192.168.1.101,100.78.239.175,2,1,0.34,0
2016-03-02 03:01:38.516,12,234B9614-18C8-49ED-8B56-CAB6C4F40872,my_iOS_device_1,1456909298.000014,40.79915278129354,-96.68579027997021,368.4445,0,-1,4,5,-9999,1456909298.468852,4.425357818603516,45.84130859375,-4.83380126953125,352.7572021484375,349.4800720214844,25,11558.242722,0.0052642822265625,0.83953857421875,-0.5659027099609375,11558.238758,-0.01480211565476941,0.02124217180279903,-0.005554555085578267,11558.203744,-0.4833413442160912,0.00550872222577398,-0.9725002186660436,-0.006532718893140554,-0.007204010616987944,-0.002513320185244083,-0.001866729580797255,0.005719485227018595,0.001993305282667279,XArbitraryCorrectedZVertical,-0.453149054351949,0.114203859944139,-0.2128341991291956,0.8580880004957728,0.003102691611275077,0.8262965083122253,-0.5632268190383911,7.255868911743164,32.10907745361328,-40.69300842285156,1,11558.154966,stationary,1,2016-03-02 03:01:38.413,null,0,0,0,0,null,11557.560606,0,-0.1121521,97.35745,192.168.1.101,100.78.239.175,2,1,0.34,0
2016-03-02 03:01:38.550,13,234B9614-18C8-49ED-8B56-CAB6C4F40872,my_iOS_device_1,1456909298.000014,40.79915278129354,-96.68579027997021,368.4445,0,-1,4,5,-9999,1456909298.531727,4.633493900299072,46.32858276367188,-5.03204345703125,352.731201171875,349.4540710449219,25,11558.27301,0.00189208984375,0.8336029052734375,-0.56494140625,11558.238758,-0.01480211565476941,0.02124217180279903,-0.005554555085578267,11558.238758,-0.4831187192295238,0.005528757089422798,-0.9725952733092996,0.008311765268445015,-0.008246660232543945,0.0009010998765006661,0.003066268051043153,0.01083867996931076,-0.004738133866339922,XArbitraryCorrectedZVertical,-0.4532004453014429,0.1141720059124769,-0.212738020912328,0.8580889487126649,0.003113541519269347,0.8263500332832336,-0.5631482005119324,7.243328094482422,32.151123046875,-40.66203308105469,1,11558.154966,stationary,1,2016-03-02 03:01:38.413,null,0,0,0,0,null,11557.560606,0,-0.1121521,97.35745,192.168.1.101,100.78.239.175,2,1,0.34,0
2016-03-02 03:01:38.577,14,234B9614-18C8-49ED-8B56-CAB6C4F40872,my_iOS_device_1,1456909298.000014,40.79915278129354,-96.68579027997021,368.4445,0,-1,4,5,-9999,1456909298.531727,4.633493900299072,46.32858276367188,-5.03204345703125,352.731201171875,349.4540710449219,25,11558.303301,-0.002349853515625,0.8284912109375,-0.5699462890625,11558.273766,-0.01055304213554799,0.01380156603322664,-0.005489041322762318,11558.273766,-0.4830569837637153,0.005155641448437392,-0.9723901050554734,0.01255831588059664,-0.01568681374192238,0.0009668879793025553,-0.001012205961160362,0.007368423976004124,-0.001622538198716938,XArbitraryCorrectedZVertical,-0.4531555537608155,0.1139763574235716,-0.2126382203637712,0.8581634001078797,0.002904295921325684,0.8262344598770142,-0.5633188486099243,7.232203006744385,32.14226531982422,-40.67101669311523,1,11558.154966,stationary,1,2016-03-02 03:01:38.413,null,0,0,0,0,null,11557.560606,0,-0.1121521,97.35745,192.168.1.101,100.78.239.175,2,1,0.34,0
2016-03-02 03:01:38.609,15,234B9614-18C8-49ED-8B56-CAB6C4F40872,my_iOS_device_1,1456909298.000014,40.79915278129354,-96.68579027997021,368.4445,0,-1,4,5,-9999,1456909298.595941,3.731565475463867,46.05010986328125,-5.3624267578125,352.7328491210938,349.4557189941406,25,11558.333583,-0.0008392333984375,0.8308258056640625,-0.5687408447265625,11558.308775,-0.01901523649927477,0.01803998690808775,-0.008811334782636168,11558.308775,-0.4833272486658902,0.004362339797872563,-0.9720062245102852,0.004096514079719782,-0.01144878845661879,-0.002356498735025525,-0.004808650352060795,0.002473040716722608,-0.006308163516223431,XArbitraryCorrectedZVertical,-0.4530596799437027,0.1136567798090853,-0.2125955293898841,0.8582669769344383,0.002458796603605151,0.8260181546211243,-0.5636381506919861,7.219488143920898,32.13503265380859,-40.67899322509766,1,11558.154966,stationary,1,2016-03-02 03:01:38.413,null,0,0,0,0,null,11557.560606,0,-0.1121521,97.35745,192.168.1.101,100.78.239.175,2,1,0.34,0
2016-03-02 03:01:38.637,16,234B9614-18C8-49ED-8B56-CAB6C4F40872,my_iOS_device_1,1456909298.000014,40.79915278129354,-96.68579027997021,368.4445,0,-1,4,5,-9999,1456909298.595941,3.731565475463867,46.05010986328125,-5.3624267578125,352.7328491210938,349.4557189941406,25,11558.363882,-0.001373291015625,0.8368682861328125,-0.5666961669921875,11558.343785,-0.02756691307562821,0.0201691841996061,-0.005739378465229766,11558.343785,-0.4837060347545417,0.00347674537153408,-0.9719588741187438,-0.004454320296645164,-0.009320417419075966,0.0007134814513847232,-0.003897643182426691,0.006879002787172794,-0.006022954825311899,XArbitraryCorrectedZVertical,-0.4531119810702394,0.1133575575518385,-0.2125600636499594,0.8582877233758017,0.001959776971489191,0.8259914517402649,-0.5636792182922363,7.182306289672852,32.12179565429688,-40.69602203369141,1,11558.154966,stationary,1,2016-03-02 03:01:38.413,null,0,0,0,0,null,11557.560606,0,-0.1121521,97.35745,192.168.1.101,100.78.239.175,2,1,0.34,0
2016-03-02 03:01:38.688,17,234B9614-18C8-49ED-8B56-CAB6C4F40872,my_iOS_device_1,1456909298.000014,40.79915278129354,-96.68579027997021,368.4445,0,-1,4,5,-9999,1456909298.645378,3.835633277893066,46.641845703125,-5.4615478515625,352.7486877441406,349.4715576171875,25,11558.39416,-0.006439208984375,0.8311614990234375,-0.567230224609375,11558.378795,-0.0264374664573256,0.02972886724855454,-0.009990848829432263,11558.343785,-0.4837060347545417,0.00347674537153408,-0.9719588741187438,-0.004454320296645164,-0.009320417419075966,0.0007134814513847232,-0.003897643182426691,0.006879002787172794,-0.006022954825311899,XArbitraryCorrectedZVertical,-0.4531119810702394,0.1133575575518385,-0.2125600636499594,0.8582877233758017,0.001959776971489191,0.8259914517402649,-0.5636792182922363,7.182306289672852,32.12179565429688,-40.69602203369141,1,11558.154966,stationary,1,2016-03-02 03:01:38.413,null,0,0,0,0,null,11557.560606,0,-0.1121521,97.35745,192.168.1.101,100.78.239.175,2,1,0.34,0
2016-03-02 03:01:38.711,18,234B9614-18C8-49ED-8B56-CAB6C4F40872,my_iOS_device_1,1456909298.000014,40.79915278129354,-96.68579027997021,368.4445,0,-1,4,5,-9999,1456909298.704017,3.662186622619629,46.32858276367188,-5.16412353515625,352.7756042480469,349.4984741210938,25,11558.424464,-0.000885009765625,0.8367767333984375,-0.5684356689453125,11558.413802,-0.01795343417266018,0.0350581189059121,-0.007738879811661258,11558.378795,-0.4841400750906543,0.00276996722271551,-0.9722166099816258,-0.00332617899402976,0.0002384262625128031,-0.003539941040799022,-0.004627807065844536,0.006901595741510391,-0.002862423658370972,XArbitraryCorrectedZVertical,-0.4532731646370237,0.1131798217843929,-0.2125719179042717,0.8582231329201614,0.001560790580697358,0.8261367082595825,-0.5634675025939941,7.154296875,32.12967300415039,-40.69473648071289,1,11558.154966,stationary,1,2016-03-02 03:01:38.413,null,0,0,0,0,null,11557.560606,0,-0.1121521,97.35745,192.168.1.101,100.78.239.175,2,1,0.34,0
2016-03-02 03:01:38.727,19,234B9614-18C8-49ED-8B56-CAB6C4F40872,my_iOS_device_1,1456909298.000014,40.79915278129354,-96.68579027997021,368.4445,0,-1,4,5,-9999,1456909298.704017,3.662186622619629,46.32858276367188,-5.16412353515625,352.7756042480469,349.4984741210938,25,11558.454737,0.0021820068359375,0.8309173583984375,-0.5608978271484375,11558.448814,-0.007371896213448339,0.02018729369501864,-0.004380367360962331,11558.413802,-0.4848429901368017,0.002121739161745646,-0.9721438000047073,0.005157624371349812,0.005566272884607315,-0.001290832879021764,-0.007024520076811314,0.006271237507462502,-0.005288563668727875,XArbitraryCorrectedZVertical,-0.453271079054776,0.1130532678256702,-0.2127306728222065,0.8582015779332235,0.00119566242210567,0.8260957002639771,-0.5635285973548889,7.154296875,32.12967300415039,-40.69473648071289,1,11558.154966,stationary,1,2016-03-02 03:01:38.413,null,0,0,0,0,null,11557.560606,0,-0.1121521,97.35745,192.168.1.101,100.78.239.175,2,1,0.34,0
2016-03-02 03:01:38.757,20,234B9614-18C8-49ED-8B56-CAB6C4F40872,my_iOS_device_1,1456909298.000014,40.79915278129354,-96.68579027997021,368.4445,0,-1,4,5,-9999,1456909298.704017,3.662186622619629,46.32858276367188,-5.16412353515625,352.7756042480469,349.4984741210938,25,11558.485036,0.0004425048828125,0.8303375244140625,-0.567138671875,11558.448814,-0.007371896213448339,0.02018729369501864,-0.004380367360962331,11558.448814,-0.4849678935559824,0.001835317665640671,-0.9719249426414804,0.01573729887604713,-0.009304971434175968,0.002066477434709668,0.0002776683541014791,0.00731011712923646,0.001224936568178236,XArbitraryCorrectedZVertical,-0.4532005487208164,0.1129354850151189,-0.2127315413676978,0.8582541174797131,0.001034587505273521,0.8259723782539368,-0.5637096762657166,7.126123905181885,32.13314819335938,-40.69693756103516,1,11558.154966,stationary,1,2016-03-02 03:01:38.413,null,0,0,0,0,null,11557.560606,0,-0.1121521,97.35745,192.168.1.101,100.78.239.175,2,1,0.34,0
2016-03-02 03:01:38.791,21,234B9614-18C8-49ED-8B56-CAB6C4F40872,my_iOS_device_1,1456909298.000014,40.79915278129354,-96.68579027997021,368.4445,0,-1,4,5,-9999,1456909298.76276,4.251911163330078,46.3634033203125,-5.06494140625,352.7737731933594,349.4966430664062,25,11558.515331,-0.000640869140625,0.8300628662109375,-0.570526123046875,11558.518812,-0.01802507320598331,0.03719956673844482,-0.002412291315393774,11558.483823,-0.4849717125862384,0.00173434150189547,-0.9716574086300954,0.01361682917922735,0.002390869194641709,0.002029448747634888,-0.001878318027593195,0.004516012035310268,-0.000446096557425335,XArbitraryCorrectedZVertical,-0.4530962361162211,0.1128646692376184,-0.2127251990510413,0.8583200783763006,0.0009780494729056954,0.8258215188980103,-0.5639307498931885,7.117635250091553,32.12346267700195,-40.70606994628906,1,11558.154966,stationary,1,2016-03-02 03:01:38.413,null,0,0,0,0,null,11557.560606,0,-0.1121521,97.35745,192.168.1.101,100.78.239.175,2,1,0.34,0
2016-03-02 03:01:38.818,22,234B9614-18C8-49ED-8B56-CAB6C4F40872,my_iOS_device_1,1456909298.000014,40.79915278129354,-96.68579027997021,368.4445,0,-1,4,5,-9999,1456909298.76276,4.251911163330078,46.3634033203125,-5.06494140625,352.7737731933594,349.4966430664062,25,11558.545625,0.0001373291015625,0.8341522216796875,-0.5692596435546875,11558.518812,-0.01802507320598331,0.03719956673844482,-0.002412291315393774,11558.518812,-0.4849257894225421,0.001888294455549479,-0.9712231962106465,0.00508304126560688,0.007707095704972744,0.004033392760902643,-0.001706414390355349,0.004486297722905874,-0.006237017456442118,XArbitraryCorrectedZVertical,-0.4528960504564977,0.1128743318110258,-0.2127645267023605,0.85841470681498,0.001065545249730349,0.8255765438079834,-0.5642890930175781,7.118415355682373,32.10609436035156,-40.71963500976562,1,11558.154966,stationary,1,2016-03-02 03:01:38.413,null,0,0,0,0,null,11557.560606,0,-0.1121521,97.35745,192.168.1.101,100.78.239.175,2,1,0.34,0
2016-03-02 03:01:38.848,23,234B9614-18C8-49ED-8B56-CAB6C4F40872,my_iOS_device_1,1456909298.000014,40.79915278129354,-96.68579027997021,368.4445,0,-1,4,5,-9999,1456909298.820417,4.113153457641602,46.01531982421875,-4.73443603515625,352.7716979980469,349.4945678710938,25,11558.575892,0.000823974609375,0.83367919921875,-0.5638275146484375,11558.553826,-0.02329786584823119,0.03931358401174971,-0.005687180507864213,11558.553826,-0.4848913171745672,0.002144078195533921,-0.9711411289342231,-0.0001894315064419061,0.009820754639804363,0.0007575521594844759,-0.001072697341442108,0.008621965534985065,-0.00490307854488492,XArbitraryCorrectedZVertical,-0.4528355495642163,0.1129676169255488,-0.2128122112774373,0.8584225330851072,0.001210026443004608,0.8255302309989929,-0.5643565654754639,7.123542785644531,32.09809875488281,-40.72503662109375,1,11558.154966,stationary,1,2016-03-02 03:01:38.413,null,0,0,0,0,null,11557.560606,0,-0.1121521,97.35745,192.168.1.101,100.78.239.175,2,1,0.34,0
2016-03-02 03:01:38.879,24,234B9614-18C8-49ED-8B56-CAB6C4F40872,my_iOS_device_1,1456909298.000014,40.79915278129354,-96.68579027997021,368.4445,0,-1,4,5,-9999,1456909298.820417,4.113153457641602,46.01531982421875,-4.73443603515625,352.7716979980469,349.4945678710938,25,11558.606211,0.0031890869140625,0.8325958251953125,-0.564727783203125,11558.588824,-0.01691187187033018,0.04463537881805506,-0.005597165663019535,11558.553826,-0.4848913171745672,0.002144078195533921,-0.9711411289342231,-0.0001894315064419061,0.009820754639804363,0.0007575521594844759,-0.001072697341442108,0.008621965534985065,-0.00490307854488492,XArbitraryCorrectedZVertical,-0.4528355495642163,0.1129676169255488,-0.2128122112774373,0.8584225330851072,0.001210026443004608,0.8255302309989929,-0.5643565654754639,7.123542785644531,32.09809875488281,-40.72503662109375,1,11558.154966,stationary,1,2016-03-02 03:01:38.413,null,0,0,0,0,null,11557.560606,0,-0.1121521,97.35745,192.168.1.101,100.78.239.175,2,1,0.34,0
2016-03-02 03:01:38.908,25,234B9614-18C8-49ED-8B56-CAB6C4F40872,my_iOS_device_1,1456909298.000014,40.79915278129354,-96.68579027997021,368.4445,0,-1,4,5,-9999,1456909298.880091,4.286600112915039,46.25897216796875,-4.7674560546875,352.7632446289062,349.4861145019531,25,11558.6365,0.003753662109375,0.831512451171875,-0.5663299560546875,11558.623854,-0.0190732934110385,0.03825923853618735,-0.003493801034074952,11558.588824,-0.4849760405153937,0.002459383569837171,-0.9713453382467834,0.006146339699625969,0.0151452673599124,0.000814418715890497,-0.001036604284308851,0.007301291450858116,-0.0004791847022715956,XArbitraryCorrectedZVertical,-0.452884873862179,0.1131437552478055,-0.2129086268245316,0.8583494033894143,0.001387556432746351,0.8256455063819885,-0.5641875863075256,7.142823219299316,32.10263061523438,-40.71809005737305,1,11558.154966,stationary,1,2016-03-02 03:01:38.413,null,0,0,0,0,null,11557.560606,0,-0.1121521,97.35745,192.168.1.101,100.78.239.175,2,1,0.34,0
2016-03-02 03:01:38.950,26,234B9614-18C8-49ED-8B56-CAB6C4F40872,my_iOS_device_1,1456909298.000014,40.79915278129354,-96.68579027997021,368.4445,0,-1,4,5,-9999,1456909298.938234,3.974393844604492,46.15455627441406,-4.6021728515625,352.7702941894531,349.4931640625,25,11558.666712,0.003387451171875,0.8358154296875,-0.56915283203125,11558.65887,-0.02542999261694863,0.03293158477548383,-0.005714877383201037,11558.623854,-0.4847661557224623,0.003031141589000994,-0.971310427949079,0.003983440343290567,0.008769636042416096,0.002918316284194589,0.003050519851967692,0.005642521195113659,-0.001015822403132915,XArbitraryCorrectedZVertical,-0.4528208976447784,0.1133379205590544,-0.2129499463229386,0.8583472903088774,0.001710222335532308,0.8256257772445679,-0.5642154812812805,7.152822971343994,32.10195541381836,-40.71686553955078,1,11558.154966,stationary,1,2016-03-02 03:01:38.413,null,0,0,0,0,null,11557.560606,0,-0.1121521,97.35745,192.168.1.101,100.78.239.175,2,1,0.34,0
2016-03-02 03:01:38.969,27,234B9614-18C8-49ED-8B56-CAB6C4F40872,my_iOS_device_1,1456909298.000014,40.79915278129354,-96.68579027997021,368.4445,0,-1,4,5,-9999,1456909298.938234,3.974393844604492,46.15455627441406,-4.6021728515625,352.7702941894531,349.4931640625,25,11558.697006,0.003662109375,0.83477783203125,-0.565826416015625,11558.65887,-0.02542999261694863,0.03293158477548383,-0.005714877383201037,11558.65887,-0.4845252433381986,0.003514430152254906,-0.9713801092988195,-0.002374078612774611,0.003442749381065369,0.0006980789476074278,0.002411832334473729,0.005984677467495203,-0.003881863784044981,XArbitraryCorrectedZVertical,-0.4528130190160513,0.1134981562318008,-0.2129521210949155,0.858329734113141,0.001982698915526271,0.8256651163101196,-0.5641570687294006,7.174448013305664,32.10239028930664,-40.71271896362305,1,11558.154966,stationary,1,2016-03-02 03:01:38.413,null,0,0,0,0,null,11557.560606,0,-0.1121521,97.35745,192.168.1.101,100.78.239.175,2,1,0.34,0
2016-03-02 03:01:39.000,28,234B9614-18C8-49ED-8B56-CAB6C4F40872,my_iOS_device_1,1456909298.000014,40.79915278129354,-96.68579027997021,368.4445,0,-1,4,5,-9999,1456909298.996337,4.321290016174316,46.8507080078125,-4.6021728515625,352.76123046875,349.4841003417969,25,11558.727307,0.0016021728515625,0.8304290771484375,-0.5661468505859375,11558.693801,-0.01797047840363668,0.03187084771330527,-0.006671751162866508,11558.693801,-0.4844190257945796,0.003733845642804543,-0.9715069743782038,0.005084252916276455,0.002382397884503007,-0.0002584783069323748,0.0001827259256970137,0.01023134961724281,-0.00285791396163404,XArbitraryCorrectedZVertical,-0.4528501574741616,0.1135816744933895,-0.2129492114219537,0.8582998144294806,0.002106092404574156,0.8257366418838501,-0.5640518665313721,7.182130336761475,32.10432052612305,-40.7098388671875,1,11558.154966,stationary,1,2016-03-02 03:01:38.413,null,0,0,0,0,null,11557.560606,0,-0.1121521,97.35745,192.168.1.101,100.78.239.175,2,1,0.34,0
2016-03-02 03:01:39.031,29,234B9614-18C8-49ED-8B56-CAB6C4F40872,my_iOS_device_1,1456909298.000014,40.79915278129354,-96.68579027997021,368.4445,0,-1,4,5,-9999,1456909298.996337,4.321290016174316,46.8507080078125,-4.6021728515625,352.76123046875,349.4841003417969,25,11558.7576,0.006011962890625,0.8293914794921875,-0.5680694580078125,11558.728808,-0.009431851316624631,0.03187138034552328,-0.008679241992568237,11558.728808,-0.484508858755706,0.003744273455500323,-0.9713137805263614,0.01362114027142525,0.002383041195571423,-0.002266218420118093,-0.0005103986477479339,0.004801396280527115,-0.001935480744577944,XArbitraryCorrectedZVertical,-0.4527609940603832,0.1135860790671367,-0.2130007866398846,0.8583334723698045,0.002112571615725756,0.8256276845932007,-0.564211368560791,7.190765857696533,32.1080322265625,-40.70538711547852,1,11558.154966,stationary,1,2016-03-02 03:01:38.413,null,0,0,0,0,null,11557.560606,0,-0.1121521,97.35745,192.168.1.101,100.78.239.175,2,1,0.34,0
2016-03-02 03:01:39.060,30,234B9614-18C8-49ED-8B56-CAB6C4F40872,my_iOS_device_1,1456909298.000014,40.79915278129354,-96.68579027997021,368.4445,0,-1,4,5,-9999,1456909299.056773,4.390668869018555,46.98992919921875,-4.6021728515625,352.7545166015625,349.4773864746094,25,11558.787876,0.0054931640625,0.832305908203125,-0.56842041015625,11558.763821,-0.014720889241522,0.03186152664948999,-0.01088753516846194,11558.763821,-0.4844428402535066,0.003970712909381205,-0.970892444095945,0.008331889286637306,0.00237408047541976,-0.004473379347473383,0.003770250594243407,0.004001596476882696,-0.003510766895487905,XArbitraryCorrectedZVertical,-0.4525597015650626,0.1136238132771476,-0.2130469375072256,0.8584231753596246,0.002241712296381593,0.8253898620605469,-0.5645586848258972,7.190579891204834,32.10282135009766,-40.70953369140625,1,11558.154966,stationary,1,2016-03-02 03:01:38.413,null,0,0,0,0,null,11557.560606,0,-0.1121521,97.35745,192.168.1.101,100.78.239.175,2,1,0.34,0
2016-03-02 03:01:39.090,31,234B9614-18C8-49ED-8B56-CAB6C4F40872,my_iOS_device_1,1456909299.000059,40.79915278129354,-96.68579027997021,368.5251,0,-1,4,5,-9999,1456909299.056773,4.390668869018555,46.98992919921875,-4.6021728515625,352.7545166015625,349.4773864746094,25,11558.818155,-0.0007476806640625,0.8317108154296875,-0.571044921875,11558.79883,-0.01899100173335505,0.03079786011011234,-0.009883257121393062,11558.763821,-0.4844428402535066,0.003970712909381205,-0.970892444095945,0.008331889286637306,0.00237408047541976,-0.004473379347473383,0.003770250594243407,0.004001596476882696,-0.003510766895487905,XArbitraryCorrectedZVertical,-0.4525597015650626,0.1136238132771476,-0.2130469375072256,0.8584231753596246,0.002241712296381593,0.8253898620605469,-0.5645586848258972,7.190579891204834,32.10282135009766,-40.70953369140625,1,11558.154966,stationary,1,2016-03-02 03:01:38.413,null,0,0,0,0,null,11557.560606,0,-0.1121521,97.35745,192.168.1.101,100.78.239.175,2,1,0.34,0
2016-03-02 03:01:39.131,32,234B9614-18C8-49ED-8B56-CAB6C4F40872,my_iOS_device_1,1456909299.000059,40.79915278129354,-96.68579027997021,368.5251,0,-1,4,5,-9999,1456909299.115905,4.390668869018555,46.64186096191406,-4.73443603515625,352.7424011230469,349.4652709960938,25,11558.848474,-3.0517578125e-05,0.8318939208984375,-0.5701751708984375,11558.833837,-0.01266839098939793,0.02975097148560219,-0.005527923474677475,11558.833837,-0.4847762487050941,0.003794332339121788,-0.9704843024024992,0.0103840846568346,0.0002642032923176885,0.0008865816635079682,-0.003455668920651078,0.007115998305380344,-0.005935394670814276,XArbitraryCorrectedZVertical,-0.452384283156496,0.1135804040615789,-0.213172644772826,0.858490172155021,0.002143413061276078,0.8251593708992004,-0.5648959279060364,7.198671340942383,32.07239532470703,-40.73207473754883,1,11558.154966,stationary,1,2016-03-02 03:01:38.413,null,0,0,0,0,null,11557.560606,0,-0.1121521,97.35745,192.168.1.101,100.78.239.175,2,1,0.34,0
2016-03-02 03:01:39.151,33,234B9614-18C8-49ED-8B56-CAB6C4F40872,my_iOS_device_1,1456909299.000059,40.79915278129354,-96.68579027997021,368.5251,0,-1,4,5,-9999,1456909299.115905,4.390668869018555,46.64186096191406,-4.73443603515625,352.7424011230469,349.4652709960938,25,11558.878768,0.0013275146484375,0.830047607421875,-0.5680084228515625,11558.868847,-0.01797367419694478,0.02761724682023071,-0.006669620633994444,11558.833837,-0.4847762487050941,0.003794332339121788,-0.9704843024024992,0.0103840846568346,0.0002642032923176885,0.0008865816635079682,-0.003455668920651078,0.007115998305380344,-0.005935394670814276,XArbitraryCorrectedZVertical,-0.452384283156496,0.1135804040615789,-0.213172644772826,0.858490172155021,0.002143413061276078,0.8251593708992004,-0.5648959279060364,7.198671340942383,32.07239532470703,-40.73207473754883,1,11558.154966,stationary,1,2016-03-02 03:01:38.413,null,0,0,0,0,null,11558.871289,0,-0.603363,97.36317,192.168.1.101,100.78.239.175,2,1,0.34,0
2016-03-02 03:01:39.191,34,234B9614-18C8-49ED-8B56-CAB6C4F40872,my_iOS_device_1,1456909299.000059,40.79915278129354,-96.68579027997021,368.5251,0,-1,4,5,-9999,1456909299.172861,4.355978965759277,46.25897216796875,-4.7674560546875,352.7264099121094,349.4492797851562,25,11558.90906,-0.000244140625,0.8329925537109375,-0.5709686279296875,11558.868847,-0.01797367419694478,0.02761724682023071,-0.006669620633994444,11558.868847,-0.4850418530916907,0.003396936951159144,-0.9701536922240934,0.005079138558357954,-0.001870097010396421,-0.0002564586175139993,-0.002667533233761787,0.005914255045354366,-0.003922311589121819,XArbitraryCorrectedZVertical,-0.4522695851544277,0.1134349142375408,-0.2132150354115113,0.8585593114343584,0.001919852453283966,0.8249725699424744,-0.5651695132255554,7.194475173950195,32.0632438659668,-40.74002456665039,1,11558.154966,stationary,1,2016-03-02 03:01:38.413,null,0,0,0,0,null,11558.871289,0,-0.603363,97.36317,192.168.1.101,100.78.239.175,2,1,0.34,0
2016-03-02 03:01:39.212,35,234B9614-18C8-49ED-8B56-CAB6C4F40872,my_iOS_device_1,1456909299.000059,40.79915278129354,-96.68579027997021,368.5251,0,-1,4,5,-9999,1456909299.172861,4.355978965759277,46.25897216796875,-4.7674560546875,352.7264099121094,349.4492797851562,25,11558.93935,-0.000885009765625,0.832672119140625,-0.5686492919921875,11558.90384,-0.01798592473795914,0.03081037696723572,-0.005605687778507788,11558.90384,-0.4849726329700742,0.00344208481604618,-0.9700010821247067,0.005066412035375834,0.001323150005191565,0.0008072893251664937,-0.001030274666845798,0.006000515539199114,-0.002621580380946398,XArbitraryCorrectedZVertical,-0.4522031548250605,0.113422492947392,-0.2132039598003973,0.8585986934449062,0.001945802010595798,0.8248863220214844,-0.5652952790260315,7.187185764312744,32.05645370483398,-40.74665069580078,1,11558.154966,stationary,1,2016-03-02 03:01:38.413,null,0,0,0,0,null,11558.871289,0,-0.603363,97.36317,192.168.1.101,100.78.239.175,2,1,0.34,0
2016-03-02 03:01:39.254,36,234B9614-18C8-49ED-8B56-CAB6C4F40872,my_iOS_device_1,1456909299.000059,40.79915278129354,-96.68579027997021,368.5251,0,-1,4,5,-9999,1456909299.233255,4.18253231048584,45.73686218261719,-5.19708251953125,352.7190246582031,349.44189453125,25,11558.969623,-0.001068115234375,0.8318939208984375,-0.569000244140625,11558.938852,-0.01692465504356257,0.02762097524575682,-0.005588643547531282,11558.938852,-0.4850834525573327,0.003203662541802146,-0.9698737490557807,0.006126572377979755,-0.001866545644588768,0.0008235638379119337,-0.001445148489437997,0.01049755234271288,-0.003218006575480103,XArbitraryCorrectedZVertical,-0.452167600292381,0.1133317138565735,-0.2132046665329143,0.8586292296729471,0.001811359426937997,0.8248143196105957,-0.5654007792472839,7.185289859771729,32.04925537109375,-40.75264739990234,1,11558.154966,stationary,1,2016-03-02 03:01:38.413,null,0,0,0,0,null,11558.871289,0,-0.603363,97.36317,192.168.1.101,100.78.239.175,2,1,0.34,0
2016-03-02 03:01:39.272,37,234B9614-18C8-49ED-8B56-CAB6C4F40872,my_iOS_device_1,1456909299.000059,40.79915278129354,-96.68579027997021,368.5251,0,-1,4,5,-9999,1456909299.233255,4.18253231048584,45.73686218261719,-5.19708251953125,352.7190246582031,349.44189453125,25,11558.999914,0.000946044921875,0.8328094482421875,-0.5718994140625,11558.973877,-0.01693610663624991,0.03187750561603046,-0.004525243324262642,11558.973877,-0.4852266257729619,0.003010406680783675,-0.9698316231819845,0.006113391369581223,0.002389357658103108,0.001885575940832496,-0.002770312130451202,0.007103402633219957,-0.003564391518011689,XArbitraryCorrectedZVertical,-0.4521619990912463,0.1132766536673968,-0.213224771640802,0.8586344525293993,0.001702197012491524,0.8247905373573303,-0.5654358267784119,7.1726393699646,32.04518508911133,-40.75807571411133,1,11558.154966,stationary,1,2016-03-02 03:01:38.413,null,0,0,0,0,null,11558.871289,0,-0.603363,97.36317,192.168.1.101,100.78.239.175,2,1,0.34,0
2016-03-02 03:01:39.303,38,234B9614-18C8-49ED-8B56-CAB6C4F40872,my_iOS_device_1,1456909299.000059,40.79915278129354,-96.68579027997021,368.5251,0,-1,4,5,-9999,1456909299.290638,4.18253231048584,45.52801513671875,-5.26318359375,352.7107238769531,349.43359375,25,11559.03022,0.000762939453125,0.8293609619140625,-0.566375732421875,11559.008885,-0.01802906794761843,0.03188256562210161,-0.002409628154303695,11558.973877,-0.4852266257729619,0.003010406680783675,-0.9698316231819845,0.006113391369581223,0.002389357658103108,0.001885575940832496,-0.002770312130451202,0.007103402633219957,-0.003564391518011689,XArbitraryCorrectedZVertical,-0.4521619990912463,0.1132766536673968,-0.213224771640802,0.8586344525293993,0.001702197012491524,0.8247905373573303,-0.5654358267784119,7.1726393699646,32.04518508911133,-40.75807571411133,1,11558.154966,stationary,1,2016-03-02 03:01:38.413,null,0,0,0,0,null,11558.871289,0,-0.603363,97.36317,192.168.1.101,100.78.239.175,2,1,0.34,0
2016-03-02 03:01:39.349,39,234B9614-18C8-49ED-8B56-CAB6C4F40872,my_iOS_device_1,1456909299.000059,40.79915278129354,-96.68579027997021,368.5251,0,-1,4,5,-9999,1456909299.290638,4.18253231048584,45.52801513671875,-5.26318359375,352.7107238769531,349.43359375,25,11559.060513,-0.0005340576171875,0.8314666748046875,-0.5683135986328125,11559.043893,-0.02116467381507772,0.02761484997524964,-0.006715959636961823,11559.008885,-0.485098193102761,0.003146519890172038,-0.9696494838844967,0.005019724369049072,0.002394128823652864,0.004000434651970863,-0.0008335880120284855,0.008121931925415993,-0.006313581950962543,XArbitraryCorrectedZVertical,-0.452076533683301,0.1132867667684399,-0.213210477217379,0.8586816689395379,0.001779632992111146,0.8246875405311584,-0.5655858516693115,7.171747207641602,32.04143142700195,-40.76118850708008,1,11558.154966,stationary,1,2016-03-02 03:01:38.413,null,0,0,0,0,null,11558.871289,0,-0.603363,97.36317,192.168.1.101,100.78.239.175,2,1,0.34,0
2016-03-02 03:01:39.363,40,234B9614-18C8-49ED-8B56-CAB6C4F40872,my_iOS_device_1,1456909299.000059,40.79915278129354,-96.68579027997021,368.5251,0,-1,4,5,-9999,1456909299.349955,4.251911163330078,45.52801513671875,-5.1309814453125,352.697021484375,349.4198913574219,25,11559.090802,0.003143310546875,0.830596923828125,-0.569427490234375,11559.078895,-0.02115828222846153,0.03612205176139875,-0.00672022069470595,11559.043893,-0.4852277249020279,0.003001674891439874,-0.9695445690271031,0.001884003053419292,-0.001873848610557616,-0.0003067226207349449,-0.002766085555776954,0.007723511662334204,-0.004182133823633194,XArbitraryCorrectedZVertical,-0.4520395775031459,0.113242743911233,-0.2132391549996612,0.8586998102347937,0.001697970321401954,0.8246281743049622,-0.5656725764274597,7.175360202789307,32.03062438964844,-40.76904296875,1,11558.154966,stationary,1,2016-03-02 03:01:38.413,null,0,0,0,0,null,11558.871289,0,-0.603363,97.36317,192.168.1.101,100.78.239.175,2,1,0.34,0
2016-03-02 03:01:39.404,41,234B9614-18C8-49ED-8B56-CAB6C4F40872,my_iOS_device_1,1456909299.000059,40.79915278129354,-96.68579027997021,368.5251,0,-1,4,5,-9999,1456909299.349955,4.251911163330078,45.52801513671875,-5.1309814453125,352.697021484375,349.4198913574219,25,11559.121084,0.001312255859375,0.8292388916015625,-0.5685577392578125,11559.113895,-0.0190194975570189,0.03186711928777915,-0.00775272824932967,11559.078895,-0.4852913032803959,0.003046861595840124,-0.969512932972293,0.001889701932668686,0.006633275654166937,-0.0003114030405413359,0.0009161597699858248,0.005742506589740515,-0.004583369474858046,XArbitraryCorrectedZVertical,-0.4520175706179761,0.1132731627219493,-0.21327841560744,0.8586976324036173,0.001723610679619014,0.8246102929115295,-0.5656986236572266,7.171339511871338,32.03165435791016,-40.76893615722656,1,11558.154966,stationary,1,2016-03-02 03:01:38.413,null,0,0,0,0,null,11558.871289,0,-0.603363,97.36317,192.168.1.101,100.78.239.175,2,1,0.34,0
2016-03-02 03:01:39.430,42,234B9614-18C8-49ED-8B56-CAB6C4F40872,my_iOS_device_1,1456909299.000059,40.79915278129354,-96.68579027997021,368.5251,0,-1,4,5,-9999,1456909299.408232,4.078464508056641,45.6324462890625,-4.96575927734375,352.6896362304688,349.4125061035156,25,11559.151384,0.00201416015625,0.829620361328125,-0.566558837890625,11559.113895,-0.0190194975570189,0.03186711928777915,-0.00775272824932967,11559.113895,-0.4853328632043065,0.003167636389883577,-0.9694953266767733,0.004027801100164652,0.002378692850470543,-0.001343781361356378,-0.0006323108682408929,0.00729360431432724,-0.003409395692870021,XArbitraryCorrectedZVertical,-0.4519947731954987,0.113332544336435,-0.2133245286406584,0.858690342835197,0.001791978836990893,0.8246003389358521,-0.5657129287719727,7.176830768585205,32.03069305419922,-40.76873016357422,1,11558.154966,stationary,1,2016-03-02 03:01:38.413,null,0,0,0,0,null,11558.871289,0,-0.603363,97.36317,192.168.1.101,100.78.239.175,2,1,0.34,0
2016-03-02 03:01:39.454,43,234B9614-18C8-49ED-8B56-CAB6C4F40872,my_iOS_device_1,1456909299.000059,40.79915278129354,-96.68579027997021,368.5251,0,-1,4,5,-9999,1456909299.408232,4.078464508056641,45.6324462890625,-4.96575927734375,352.6896362304688,349.4125061035156,25,11559.181673,-9.1552734375e-05,0.83319091796875,-0.5696563720703125,11559.148924,-0.01263749832075301,0.0318719129777413,-0.007660050243394913,11559.148924,-0.4854223897210481,0.003149227963827276,-0.9693719321561246,0.01040851511061192,0.002383589278906584,-0.001251231762580574,0.0002322747895959765,0.005761243868619204,-4.22355551563669e-05,XArbitraryCorrectedZVertical,-0.4519386624907095,0.1133317975129826,-0.2133656317729618,0.8587097624906318,0.001781885395757854,0.8245304822921753,-0.5658146739006042,7.179144859313965,32.03024673461914,-40.7686767578125,1,11558.154966,stationary,1,2016-03-02 03:01:38.413,null,0,0,0,0,null,11558.871289,0,-0.603363,97.36317,192.168.1.101,100.78.239.175,2,1,0.34,0
2016-03-02 03:01:39.484,44,234B9614-18C8-49ED-8B56-CAB6C4F40872,my_iOS_device_1,1456909299.000059,40.79915278129354,-96.68579027997021,368.5251,0,-1,4,5,-9999,1456909299.467052,4.286600112915039,46.18934631347656,-4.83355712890625,352.6889343261719,349.4118041992188,25,11559.211966,0.00299072265625,0.8321380615234375,-0.566680908203125,11559.183933,-0.01903414494301433,0.03187004876497825,-0.006687197497188967,11559.183933,-0.4855555153669887,0.003155802161773915,-0.9692306338325115,0.004010750912129879,0.002381676807999611,-0.0002788517449516803,-0.001877525472082198,0.008740371093153954,-0.003725187154486775,XArbitraryCorrectedZVertical,-0.4518697240648842,0.1133497244976742,-0.2134320920861046,0.8587271595201716,0.001785972737707198,0.8244505524635315,-0.5659312009811401,7.183125972747803,32.02255249023438,-40.77401733398438,1,11558.154966,stationary,1,2016-03-02 03:01:38.413,null,0,0,0,0,null,11558.871289,0,-0.603363,97.36317,192.168.1.101,100.78.239.175,2,1,0.34,0
2016-03-02 03:01:39.515,45,234B9614-18C8-49ED-8B56-CAB6C4F40872,my_iOS_device_1,1456909299.000059,40.79915278129354,-96.68579027997021,368.5251,0,-1,4,5,-9999,1456909299.467052,4.286600112915039,46.18934631347656,-4.83355712890625,352.6889343261719,349.4118041992188,25,11559.24226,0.0013885498046875,0.831634521484375,-0.571868896484375,11559.218941,-0.01793958573499176,0.03399178920544437,-0.008803877931583945,11559.183933,-0.4855555153669887,0.003155802161773915,-0.9692306338325115,0.004010750912129879,0.002381676807999611,-0.0002788517449516803,-0.001877525472082198,0.008740371093153954,-0.003725187154486775,XArbitraryCorrectedZVertical,-0.4518697240648842,0.1133497244976742,-0.2134320920861046,0.8587271595201716,0.001785972737707198,0.8244505524635315,-0.5659312009811401,7.183125972747803,32.02255249023438,-40.77401733398438,1,11558.154966,stationary,1,2016-03-02 03:01:38.413,null,0,0,0,0,null,11558.871289,0,-0.603363,97.36317,192.168.1.101,100.78.239.175,2,1,0.34,0
2016-03-02 03:01:39.545,46,234B9614-18C8-49ED-8B56-CAB6C4F40872,my_iOS_device_1,1456909299.000059,40.79915278129354,-96.68579027997021,368.5251,0,-1,4,5,-9999,1456909299.526253,4.355978965759277,46.32855224609375,-5.16400146484375,352.6769104003906,349.3997802734375,25,11559.272553,0.001373291015625,0.836578369140625,-0.5688323974609375,11559.253949,-0.009459548191961454,0.03400403974645873,-0.006549245752722863,11559.253949,-0.4859242389500316,0.003063235315596078,-0.9689382687250309,0.0135829858481884,0.004515504464507103,-0.0001418328320141882,-0.001139231841079891,0.009699322283267975,-0.005604980513453484,XArbitraryCorrectedZVertical,-0.4517331232811657,0.1133622680902054,-0.213585680842355,0.858759185361765,0.001734324614517391,0.8242850303649902,-0.5661723613739014,7.180738925933838,32.02053451538086,-40.77602005004883,1,11558.154966,stationary,1,2016-03-02 03:01:38.413,null,0,0,0,0,null,11558.871289,0,-0.603363,97.36317,192.168.1.101,100.78.239.175,2,1,0.34,0
2016-03-02 03:01:39.590,47,234B9614-18C8-49ED-8B56-CAB6C4F40872,my_iOS_device_1,1456909299.000059,40.79915278129354,-96.68579027997021,368.5251,0,-1,4,5,-9999,1456909299.526253,4.355978965759277,46.32855224609375,-5.16400146484375,352.6769104003906,349.3997802734375,25,11559.302827,-0.0009002685546875,0.8279266357421875,-0.5663604736328125,11559.288961,0.001172323511852881,0.02763162789011714,-0.006391586616190171,11559.253949,-0.4859242389500316,0.003063235315596078,-0.9689382687250309,0.0135829858481884,0.004515504464507103,-0.0001418328320141882,-0.001139231841079891,0.009699322283267975,-0.005604980513453484,XArbitraryCorrectedZVertical,-0.4517331232811657,0.1133622680902054,-0.213585680842355,0.858759185361765,0.001734324614517391,0.8242850303649902,-0.5661723613739014,7.180738925933838,32.02053451538086,-40.77602005004883,1,11558.154966,stationary,1,2016-03-02 03:01:38.413,null,0,0,0,0,null,11558.871289,0,-0.603363,97.36317,192.168.1.101,100.78.239.175,2,1,0.34,0
2016-03-02 03:01:39.605,48,234B9614-18C8-49ED-8B56-CAB6C4F40872,my_iOS_device_1,1456909299.000059,40.79915278129354,-96.68579027997021,368.5251,0,-1,4,5,-9999,1456909299.592352,4.598804473876953,46.50260925292969,-4.8665771484375,352.6543273925781,349.377197265625,25,11559.33313,-0.0014495849609375,0.8268890380859375,-0.57159423828125,11559.323969,0.003318298718238731,0.0329472974259153,-0.007428887860776035,11559.288961,-0.4859777274501718,0.003065859173818958,-0.9684791302942538,0.02421260066330433,-0.001856753253377974,1.579425588715822e-05,0.0007654711371287704,0.01011195033788681,0.0002513194631319493,XArbitraryCorrectedZVertical,-0.451532576992278,0.1133267530135937,-0.2136346576290042,0.858857154610622,0.00173697026912123,0.82402503490448,-0.5665507316589355,7.185470104217529,32.00569534301758,-40.78683471679688,1,11558.154966,stationary,1,2016-03-02 03:01:38.413,null,0,0,0,0,null,11558.871289,0,-0.603363,97.36317,192.168.1.101,100.78.239.175,2,1,0.34,0
2016-03-02 03:01:39.637,49,234B9614-18C8-49ED-8B56-CAB6C4F40872,my_iOS_device_1,1456909299.000059,40.79915278129354,-96.68579027997021,368.5251,0,-1,4,5,-9999,1456909299.592352,4.598804473876953,46.50260925292969,-4.8665771484375,352.6543273925781,349.377197265625,25,11559.363429,-0.001800537109375,0.831451416015625,-0.573974609375,11559.358968,-0.005221127317100347,0.03188336457042864,-0.005420864398856289,11559.323969,-0.4861701440805799,0.002935718801944809,-0.9677124652673408,0.02635701932013035,0.003458729945123196,-0.001022179378196597,-0.0006427544285543263,0.001147134928032756,-0.001131037599407136,XArbitraryCorrectedZVertical,-0.4512061955083981,0.1132328954261715,-0.2137303594547252,0.8590172372982997,0.001665093237534165,0.8235903978347778,-0.5671825408935547,7.186059474945068,31.99611282348633,-40.79424667358398,1,11558.154966,stationary,1,2016-03-02 03:01:38.413,null,0,0,0,0,null,11558.871289,0,-0.603363,97.36317,192.168.1.101,100.78.239.175,2,1,0.34,0
2016-03-02 03:01:39.671,50,234B9614-18C8-49ED-8B56-CAB6C4F40872,my_iOS_device_1,1456909299.000059,40.79915278129354,-96.68579027997021,368.5251,0,-1,4,5,-9999,1456909299.655577,4.425354957580566,45.7020263671875,-5.0318603515625,352.6383666992188,349.3612365722656,25,11559.393727,-0.0031890869140625,0.8308563232421875,-0.5741119384765625,11559.358968,-0.005221127317100347,0.03188336457042864,-0.005420864398856289,11559.358968,-0.4863540245983666,0.002814869373261048,-0.9667753689134179,0.01781826838850975,0.002394199371337891,0.0009846144821494818,-0.003307705745100975,0.005707323551177979,-0.006996882148087025,XArbitraryCorrectedZVertical,-0.4508060192776917,0.1131228899424509,-0.2138339666159502,0.8592160260815467,0.001598721370100975,0.823058545589447,-0.5679543018341064,7.183427333831787,31.96064186096191,-40.822509765625,1,11558.154966,stationary,1,2016-03-02 03:01:38.413,null,0,0,0,0,null,11558.871289,0,-0.603363,97.36317,192.168.1.101,100.78.239.175,2,1,0.34,0
2016-03-02 03:01:39.702,51,234B9614-18C8-49ED-8B56-CAB6C4F40872,my_iOS_device_1,1456909299.000059,40.79915278129354,-96.68579027997021,368.5251,0,-1,4,5,-9999,1456909299.655577,4.425354957580566,45.7020263671875,-5.0318603515625,352.6383666992188,349.3612365722656,25,11559.424021,-0.0015411376953125,0.8278045654296875,-0.570953369140625,11559.393989,-0.01583009583554,0.02974271568622295,-0.00770532398192626,11559.393989,-0.4867247462312862,0.002373022940592899,-0.9663992307215067,0.00720930052921176,0.0002523910661693662,-0.001302010146901011,-0.00453759403899312,0.008011465892195702,-0.005847455468028784,XArbitraryCorrectedZVertical,-0.4506706608739008,0.1129766075364129,-0.2139145014617966,0.8592862314976322,0.001348507241345942,0.8228448629379272,-0.5682644844055176,7.172872543334961,31.91184616088867,-40.86252593994141,1,11558.154966,stationary,1,2016-03-02 03:01:38.413,null,0,0,0,0,null,11558.871289,0,-0.603363,97.36317,192.168.1.101,100.78.239.175,2,1,0.34,0
2016-03-02 03:01:39.727,52,234B9614-18C8-49ED-8B56-CAB6C4F40872,my_iOS_device_1,1456909299.000059,40.79915278129354,-96.68579027997021,368.5251,0,-1,4,5,-9999,1456909299.706485,4.28659725189209,45.91085815429688,-5.0318603515625,352.6170043945312,349.3398742675781,25,11559.454313,0.00177001953125,0.828277587890625,-0.5721435546875,11559.428998,-0.02324486894253861,0.03185806454007289,-0.009945575090900915,11559.428998,-0.4870666545421312,0.002062963920419652,-0.966369492392256,-0.0002058832033071667,0.002367348410189152,-0.003543196944519877,-0.002713499823585153,0.004976607859134674,-0.002664025407284498,XArbitraryCorrectedZVertical,-0.4506717408144587,0.1129172714406621,-0.2139931827063088,0.8592738734518186,0.001172362128272653,0.822827935218811,-0.5682893395423889,7.167535781860352,31.90794944763184,-40.86650085449219,1,11558.154966,stationary,1,2016-03-02 03:01:38.413,null,0,0,0,0,null,11558.871289,0,-0.603363,97.36317,192.168.1.101,100.78.239.175,2,1,0.34,0
2016-03-02 03:01:39.758,53,234B9614-18C8-49ED-8B56-CAB6C4F40872,my_iOS_device_1,1456909299.000059,40.79915278129354,-96.68579027997021,368.5251,0,-1,4,5,-9999,1456909299.706485,4.28659725189209,45.91085815429688,-5.0318603515625,352.6170043945312,349.3398742675781,25,11559.484609,0.0023193359375,0.8272857666015625,-0.569671630859375,11559.464005,-0.02537699571125605,0.025476065303807,-0.00997327196623774,11559.464005,-0.487217047798425,0.001903026729825048,-0.9664149517487388,-0.002338561695069075,-0.00401430344209075,-0.003570663742721081,0.0006886192713864148,0.00542379729449749,-0.00389143661595881,XArbitraryCorrectedZVertical,-0.450699900591583,0.1128872912314389,-0.2140192283432271,0.8592565559741405,0.001081400318071246,0.8228538036346436,-0.5682521462440491,7.164189338684082,31.90846252441406,-40.86668395996094,1,11558.154966,stationary,1,2016-03-02 03:01:38.413,null,0,0,0,0,null,11558.871289,0,-0.603363,97.36317,192.168.1.101,100.78.239.175,2,1,0.34,0
2016-03-02 03:01:39.787,54,234B9614-18C8-49ED-8B56-CAB6C4F40872,my_iOS_device_1,1456909299.000059,40.79915278129354,-96.68579027997021,368.5251,0,-1,4,5,-9999,1456909299.760568,4.217218399047852,46.05009460449219,-4.7674560546875,352.6106567382812,349.3335266113281,25,11559.514905,-0.0007476806640625,0.83233642578125,-0.5729217529296875,11559.499018,-0.02961301974113609,0.03078694114964302,-0.01110325121675836,11559.464005,-0.487217047798425,0.001903026729825048,-0.9664149517487388,-0.002338561695069075,-0.00401430344209075,-0.003570663742721081,0.0006886192713864148,0.00542379729449749,-0.00389143661595881,XArbitraryCorrectedZVertical,-0.450699900591583,0.1128872912314389,-0.2140192283432271,0.8592565559741405,0.001081400318071246,0.8228538036346436,-0.5682521462440491,7.164189338684082,31.90846252441406,-40.86668395996094,1,11558.154966,stationary,1,2016-03-02 03:01:38.413,null,0,0,0,0,null,11558.871289,0,-0.603363,97.36317,192.168.1.101,100.78.239.175,2,1,0.34,0
2016-03-02 03:01:39.830,55,234B9614-18C8-49ED-8B56-CAB6C4F40872,my_iOS_device_1,1456909299.000059,40.79915278129354,-96.68579027997021,368.5251,0,-1,4,5,-9999,1456909299.821271,3.905012130737305,46.08489990234375,-4.4700927734375,352.6190490722656,349.3419189453125,25,11559.5452,0.0012054443359375,0.8308868408203125,-0.57049560546875,11559.534025,-0.02535435884199038,0.03610713805929431,-0.0110441290405586,11559.499018,-0.4872629089807281,0.001884663312252182,-0.9668053263155657,-0.006576206535100937,0.001297439332120121,-0.004699716344475746,0.001294752582907677,0.006880495231598616,0.0006853906088508666,XArbitraryCorrectedZVertical,-0.4508670249657504,0.1129313454635389,-0.2140130707748384,0.8591646190037496,0.001070359721779823,0.823075532913208,-0.5679308772087097,7.157567977905273,31.91182708740234,-40.86521911621094,1,11558.154966,stationary,1,2016-03-02 03:01:38.413,null,0,0,0,0,null,11558.871289,0,-0.603363,97.36317,192.168.1.101,100.78.239.175,2,1,0.34,0
2016-03-02 03:01:39.850,56,234B9614-18C8-49ED-8B56-CAB6C4F40872,my_iOS_device_1,1456909299.000059,40.79915278129354,-96.68579027997021,368.5251,0,-1,4,5,-9999,1456909299.821271,3.905012130737305,46.08489990234375,-4.4700927734375,352.6190490722656,349.3419189453125,25,11559.575497,0.002685546875,0.831634521484375,-0.572235107421875,11559.569033,-0.02009940937904603,0.02974244937011394,-0.006701578567075395,11559.534025,-0.4876602760052623,0.00167013504935595,-0.9670375026825413,-0.002318214159458876,0.006617436651140451,-0.004641182720661163,-0.002138388808816671,0.008274535648524761,-0.004769788589328527,XArbitraryCorrectedZVertical,-0.450967304158894,0.1129535398235382,-0.2141224631606468,0.859081811698406,0.0009482033201493323,0.8232073783874512,-0.5677399635314941,7.155697822570801,31.93699645996094,-40.84587478637695,1,11558.154966,stationary,1,2016-03-02 03:01:38.413,null,0,0,0,0,null,11558.871289,0,-0.603363,97.36317,192.168.1.101,100.78.239.175,2,1,0.34,0
2016-03-02 03:01:39.880,57,234B9614-18C8-49ED-8B56-CAB6C4F40872,my_iOS_device_1,1456909299.000059,40.79915278129354,-96.68579027997021,368.5251,0,-1,4,5,-9999,1456909299.821271,3.905012130737305,46.08489990234375,-4.4700927734375,352.6190490722656,349.3419189453125,25,11559.605776,-0.0007171630859375,0.8258056640625,-0.569580078125,11559.569033,-0.02009940937904603,0.02974244937011394,-0.006701578567075395,11559.569033,-0.4877703840910326,0.001649499273042935,-0.9671363999105151,0.002935208147391677,0.0002528417389839888,-0.0002988648775499314,-0.0006311775068752468,0.008844002149999142,-0.004469715058803558,XArbitraryCorrectedZVertical,-0.4510057831668622,0.1129800566633413,-0.2141595894164903,0.8590488697433688,0.0009363532881252468,0.8232635259628296,-0.5676586031913757,7.155240535736084,31.94052124023438,-40.84320068359375,1,11558.154966,stationary,1,2016-03-02 03:01:38.413,null,0,0,0,0,null,11558.871289,0,-0.603363,97.36317,192.168.1.101,100.78.239.175,2,1,0.34,0
2016-03-02 03:01:39.911,58,234B9614-18C8-49ED-8B56-CAB6C4F40872,my_iOS_device_1,1456909299.000059,40.79915278129354,-96.68579027997021,368.5251,0,-1,4,5,-9999,1456909299.881211,4.043771743774414,46.08489990234375,-4.800537109375,352.6218566894531,349.3447265625,25,11559.636086,0.0024261474609375,0.8299102783203125,-0.571502685546875,11559.604047,-0.02748408876572675,0.03291533949283434,-0.01107342381254947,11559.604047,-0.4878508059124826,0.001674038036580916,-0.9671298726269336,-0.004493442364037037,0.003428164171054959,-0.004699205979704857,0.0002551524376031011,0.003339284798130393,-0.003091073594987392,XArbitraryCorrectedZVertical,-0.4509958074966912,0.1130080352030572,-0.2142000299960578,0.8590403440756701,0.0009502919274382293,0.8232598304748535,-0.5676639080047607,7.156842231750488,31.94303131103516,-40.84095764160156,1,11558.154966,stationary,1,2016-03-02 03:01:38.413,null,0,0,0,0,null,11558.871289,0,-0.603363,97.36317,192.168.1.101,100.78.239.175,2,1,0.34,0
2016-03-02 03:01:39.940,59,234B9614-18C8-49ED-8B56-CAB6C4F40872,my_iOS_device_1,1456909299.000059,40.79915278129354,-96.68579027997021,368.5251,0,-1,4,5,-9999,1456909299.936542,4.078461647033691,46.25895690917969,-5.2301025390625,352.6239013671875,349.3467712402344,25,11559.666361,0.0005950927734375,0.8332672119140625,-0.570098876953125,11559.63904,-0.02960822605117394,0.03716734248925486,-0.01110644701006645,11559.63904,-0.4881500247549812,0.001623560957791985,-0.967360522141882,-0.006617700215429068,0.007680186536163092,-0.004732602741569281,0.001504817861132324,0.006519532296806574,-0.004028606228530407,XArbitraryCorrectedZVertical,-0.4510833878681918,0.1130784578592488,-0.2143042875354373,0.8589590862791211,0.0009213295415975153,0.8233907222747803,-0.5674740672111511,7.159012794494629,31.94916534423828,-40.83577728271484,1,11558.154966,stationary,1,2016-03-02 03:01:38.413,null,0,0,0,0,null,11558.871289,0,-0.603363,97.36317,192.168.1.101,100.78.239.175,2,1,0.34,0
