loggingTime,loggingSample,identifierForVendor,deviceID,locationTimestamp_since1970,locationLatitude,locationLongitude,locationAltitude,locationSpeed,locationCourse,locationVerticalAccuracy,locationHorizontalAccuracy,locationFloor,locationHeadingTimestamp_since1970,locationHeadingX,locationHeadingY,locationHeadingZ,locationTrueHeading,locationMagneticHeading,locationHeadingAccuracy,accelerometerTimestamp_sinceReboot,accelerometerAccelerationX,accelerometerAccelerationY,accelerometerAccelerationZ,gyroTimestamp_sinceReboot,gyroRotationX,gyroRotationY,gyroRotationZ,motionTimestamp_sinceReboot,motionYaw,motionRoll,motionPitch,motionRotationRateX,motionRotationRateY,motionRotationRateZ,motionUserAccelerationX,motionUserAccelerationY,motionUserAccelerationZ,motionAttitudeReferenceFrame,motionQuaternionX,motionQuaternionY,motionQuaternionZ,motionQuaternionW,motionGravityX,motionGravityY,motionGravityZ,motionMagneticFieldX,motionMagneticFieldY,motionMagneticFieldZ,motionMagneticFieldCalibrationAccuracy,activityTimestamp_sinceReboot,activity,activityActivityConfidence,activityActivityStartDate,pedometerStartDate,pedometerNumberofSteps,pedometerDistance,pedometerFloorAscended,pedometerFloorDescended,pedometerEndDate,altimeterTimestamp_sinceReboot,altimeterReset,altimeterRelativeAltitude,altimeterPressure,IP_en0,IP_pdp_ip0,deviceOrientation,batteryState,batteryLevel,state
2016-03-02 02:35:24.348,1,234B9614-18C8-49ED-8B56-CAB6C4F40872,my_iOS_device_1,1456907724.000058,40.79924221620038,-96.68573060081962,371.6421,0,330.1171875,3,10,-9999,1456907724.329983,0.4282302856445312,46.00578308105469,-7.4779052734375,9.650410652160645,6.373274803161621,25,10457.75950341667,0.0734100341796875,0.8456573486328125,-0.54376220703125,10457.72002241667,-0.04990923672473897,0.05206027193719597,-0.003948668948260486,10457.72002241667,0.1782474012465387,0.1266614134014142,-0.9947081782389735,-0.03116502985358238,0.0212559811770916,0.002603633794933558,-0.003018263028934598,0.003700382309034467,-0.009680337272584438,XArbitraryCorrectedZVertical,-0.4792062121936566,0.01302042993422632,0.0479905587456904,0.8762926342669943,0.06881415843963623,0.8386000394821167,-0.5403837561607361,-0.7546403408050537,45.15038681030273,-11.17727279663086,1,10457.58487941667,unknown,1,2016-03-02 02:35:24.172,null,0,0,0,0,null,10457.71436541667,0,0.4152222,97.40947,192.168.1.101,100.78.239.175,2,1,0.41,0
2016-03-02 02:35:24.378,2,234B9614-18C8-49ED-8B56-CAB6C4F40872,my_iOS_device_1,1456907724.000058,40.79924221620038,-96.68573060081962,371.6421,0,330.1171875,3,10,-9999,1456907724.329983,0.4282302856445312,46.00578308105469,-7.4779052734375,9.650410652160645,6.373274803161621,25,10457.78982141667,0.06982421875,0.841339111328125,-0.5468902587890625,10457.75503341667,-0.007359113040215959,0.03720169726731688,-0.004388889476450585,10457.75503341667,0.1785562074476978,0.1273769116180065,-0.9947941981245324,0.01138423196971416,0.006398058496415615,0.002163990400731564,0.003089260309934616,0.006232261657714844,0.000284793262835592,XArbitraryCorrectedZVertical,-0.4792628586391036,0.01325526412334952,0.04795019902001845,0.8762603430008752,0.06919162720441818,0.8386468887329102,-0.5402628183364868,-0.750978946685791,45.15240859985352,-11.16933059692383,1,10457.58487941667,unknown,1,2016-03-02 02:35:24.172,null,0,0,0,0,null,10457.71436541667,0,0.4152222,97.40947,192.168.1.101,100.78.239.175,2,1,0.41,0
2016-03-02 02:35:24.418,3,234B9614-18C8-49ED-8B56-CAB6C4F40872,my_iOS_device_1,1456907724.000058,40.79924221620038,-96.68573060081962,371.6421,0,330.1171875,3,10,-9999,1456907724.386525,0.9485874176025391,46.17977905273438,-7.7091064453125,9.613568305969238,6.336431980133057,25,10457.82011941667,0.0679473876953125,0.84228515625,-0.5478057861328125,10457.79004041667,-0.001985386592654072,0.03294037320708109,-0.008571650284529036,10457.79004041667,0.1785947187100279,0.1275848272037068,-0.9941268581992636,0.0167582780122757,0.002137769479304552,-0.002017614198848605,0.0004490722494665533,0.003055893117561936,-0.006086842622607946,XArbitraryCorrectedZVertical,-0.4789775002961881,0.01337333510728018,0.04795003412237321,0.8764145721893052,0.06937514990568161,0.8382832407951355,-0.5408034324645996,-0.7371633052825928,45.15083694458008,-11.17660808563232,1,10457.58487941667,unknown,1,2016-03-02 02:35:24.172,null,0,0,0,0,null,10457.71436541667,0,0.4152222,97.40947,192.168.1.101,100.78.239.175,2,1,0.41,0
2016-03-02 02:35:24.440,4,234B9614-18C8-49ED-8B56-CAB6C4F40872,my_iOS_device_1,1456907724.000058,40.79924221620038,-96.68573060081962,371.6421,0,330.1171875,3,10,-9999,1456907724.420232,0.7404460906982422,46.11018371582031,-7.5108642578125,9.595794677734375,6.318658828735352,25,10457.85042141667,0.067901611328125,0.8486480712890625,-0.545745849609375,10457.82505341667,-0.003149986937345723,0.03508688104568496,-0.001129446618302605,10457.79004041667,0.1785947187100279,0.1275848272037068,-0.9941268581992636,0.0167582780122757,0.002137769479304552,-0.002017614198848605,0.0004490722494665533,0.003055893117561936,-0.006086842622607946,XArbitraryCorrectedZVertical,-0.4789775002961881,0.01337333510728018,0.04795003412237321,0.8764145721893052,0.06937514990568161,0.8382832407951355,-0.5408034324645996,-0.7371633052825928,45.15083694458008,-11.17660808563232,1,10457.58487941667,unknown,1,2016-03-02 02:35:24.172,null,0,0,0,0,null,10457.71436541667,0,0.4152222,97.40947,192.168.1.101,100.78.239.175,2,1,0.41,0
2016-03-02 02:35:24.490,5,234B9614-18C8-49ED-8B56-CAB6C4F40872,my_iOS_device_1,1456907724.000058,40.79924221620038,-96.68573060081962,371.6421,0,330.1171875,3,10,-9999,1456907724.474716,0.3241615295410156,45.9013671875,-7.9073486328125,9.588200569152832,6.311064720153809,25,10457.88072341667,0.067626953125,0.84783935546875,-0.544525146484375,10457.86007241667,-5.166532514753722e-05,0.02872645341424871,0.005313272690817088,10457.82505341667,0.1785804093616713,0.1276735250852958,-0.9934733142563303,0.01559442281723022,0.004284342285245657,0.005424414295703173,-0.001545468461699784,0.004358451813459396,-0.00646524503827095,XArbitraryCorrectedZVertical,-0.4786948899665818,0.01345109050023135,0.04795463560688621,0.8765675235873296,0.06949285417795181,0.8379266858100891,-0.5413405299186707,-0.7318928241729736,45.14245986938477,-11.21074867248535,1,10457.58487941667,unknown,1,2016-03-02 02:35:24.172,null,0,0,0,0,null,10457.71436541667,0,0.4152222,97.40947,192.168.1.101,100.78.239.175,2,1,0.41,0
2016-03-02 02:35:24.500,6,234B9614-18C8-49ED-8B56-CAB6C4F40872,my_iOS_device_1,1456907724.000058,40.79924221620038,-96.68573060081962,371.6421,0,330.1171875,3,10,-9999,1456907724.474716,0.3241615295410156,45.9013671875,-7.9073486328125,9.588200569152832,6.311064720153809,25,10457.91102341667,0.071624755859375,0.841796875,-0.544647216796875,10457.89506641667,-0.006405967686076599,0.02658900032335111,0.003090598445036956,10457.86007241667,0.1789177706566614,0.1278347749353698,-0.9928358178240172,0.01869296282529831,-0.002076465636491776,0.01186630129814148,-0.001746621215716004,0.0110694719478488,-0.003886814927682281,XArbitraryCorrectedZVertical,-0.4784233367299975,0.01347566342786746,0.04809526805509089,0.8767076836426149,0.06964823603630066,0.8375785946846008,-0.5418590307235718,-0.7243416309356689,45.13358306884766,-11.24692535400391,1,10457.58487941667,unknown,1,2016-03-02 02:35:24.172,null,0,0,0,0,null,10457.71436541667,0,0.4152222,97.40947,192.168.1.101,100.78.239.175,2,1,0.41,0
2016-03-02 02:35:24.531,7,234B9614-18C8-49ED-8B56-CAB6C4F40872,my_iOS_device_1,1456907724.000058,40.79924221620038,-96.68573060081962,371.6421,0,330.1171875,3,10,-9999,1456907724.474716,0.3241615295410156,45.9013671875,-7.9073486328125,9.588200569152832,6.311064720153809,25,10457.94131741667,0.0712432861328125,0.84442138671875,-0.5459747314453125,10457.89506641667,-0.006405967686076599,0.02658900032335111,0.003090598445036956,10457.89506641667,0.1792361606706507,0.1279191365585051,-0.9923936650935055,0.01233741547912359,-0.004214191809296608,0.009642693214118481,-0.00273983902297914,0.00838142167776823,-0.001969037111848593,XArbitraryCorrectedZVertical,-0.4782348855067595,0.01346054527121223,0.04823643252710171,0.8768029736391026,0.06974118202924728,0.8373369574546814,-0.542220413684845,-0.711463451385498,45.12760925292969,-11.27168846130371,1,10457.58487941667,unknown,1,2016-03-02 02:35:24.172,null,0,0,0,0,null,10457.71436541667,0,0.4152222,97.40947,192.168.1.101,100.78.239.175,2,1,0.41,0
2016-03-02 02:35:24.571,8,234B9614-18C8-49ED-8B56-CAB6C4F40872,my_iOS_device_1,1456907724.000058,40.79924221620038,-96.68573060081962,371.6421,0,330.1171875,3,10,-9999,1456907724.569399,-0.05743217468261719,46.14498901367188,-7.94036865234375,9.615734100341797,6.338598251342773,25,10457.97161941667,0.0721893310546875,0.8472137451171875,-0.547088623046875,10457.96511141667,-0.005244829450802051,0.03933302508770729,-0.003293531320100994,10457.93010141667,0.179728004674546,0.1285486311848379,-0.9921944858199121,0.001811020425520837,0.006391978356987238,0.002024847781285644,0.004755747504532337,0.00383639638312161,-0.002442745724692941,XArbitraryCorrectedZVertical,-0.4781666330982811,0.01362977973656836,0.04831137811261147,0.8768334567297389,0.07010386884212494,0.8372280597686768,-0.5423418283462524,-0.705829381942749,45.12596893310547,-11.27860927581787,1,10457.58487941667,unknown,1,2016-03-02 02:35:24.172,null,0,0,0,0,null,10457.71436541667,0,0.4152222,97.40947,192.168.1.101,100.78.239.175,2,1,0.41,0
2016-03-02 02:35:24.591,9,234B9614-18C8-49ED-8B56-CAB6C4F40872,my_iOS_device_1,1456907724.000058,40.79924221620038,-96.68573060081962,371.6421,0,330.1171875,3,10,-9999,1456907724.569399,-0.05743217468261719,46.14498901367188,-7.94036865234375,9.615734100341797,6.338598251342773,25,10458.00191541667,0.0711517333984375,0.84344482421875,-0.5478973388671875,10457.96511141667,-0.005244829450802051,0.03933302508770729,-0.003293531320100994,10457.96511141667,0.1798978479344142,0.1289637181027105,-0.9919057402225073,0.0135602205991745,0.008565708994865417,0.003264046972617507,0.001493565738201141,0.009426461532711983,-0.004704099614173174,XArbitraryCorrectedZVertical,-0.4780520213705995,0.0137869446003546,0.04830090654184539,0.8768940685449315,0.07036007195711136,0.837070107460022,-0.5425523519515991,-0.6904711723327637,45.12413787841797,-11.28687000274658,1,10457.58487941667,unknown,1,2016-03-02 02:35:24.172,null,0,0,0,0,null,10457.71436541667,0,0.4152222,97.40947,192.168.1.101,100.78.239.175,2,1,0.41,0
2016-03-02 02:35:24.621,10,234B9614-18C8-49ED-8B56-CAB6C4F40872,my_iOS_device_1,1456907724.000058,40.79924221620038,-96.68573060081962,371.6421,0,330.1171875,3,10,-9999,1456907724.569399,-0.05743217468261719,46.14498901367188,-7.94036865234375,9.615734100341797,6.338598251342773,25,10458.03221241667,0.070648193359375,0.844146728515625,-0.550201416015625,10458.00012941667,-0.004181162911424404,0.03933382403603432,-0.003278084985778534,10458.00012941667,0.1799834273425694,0.1293171721668422,-0.9914497797305037,0.01462362520396709,0.008566644974052906,0.003279363270848989,0.0002302521752426401,0.006883644498884678,-0.006105335894972086,XArbitraryCorrectedZVertical,-0.4778624801510969,0.0139464227508228,0.04827657464474005,0.8769961913810372,0.07060104608535767,0.8368206024169922,-0.542905867099762,-0.685457706451416,45.12216186523438,-11.29508113861084,1,10457.58487941667,unknown,1,2016-03-02 02:35:24.172,null,0,0,0,0,null,10457.71436541667,0,0.4152222,97.40947,192.168.1.101,100.78.239.175,2,1,0.41,0
2016-03-02 02:35:24.651,11,234B9614-18C8-49ED-8B56-CAB6C4F40872,my_iOS_device_1,1456907724.000058,40.79924221620038,-96.68573060081962,371.6421,0,330.1171875,3,10,-9999,1456907724.622169,-0.2308864593505859,45.97100830078125,-8.03948974609375,9.643429756164551,6.366293430328369,25,10458.06251141667,0.07196044921875,0.8426666259765625,-0.5498199462890625,10458.03513941667,-0.0009965548799076508,0.03082901909486627,-0.003227484925067029,10458.00012941667,0.1799834273425694,0.1293171721668422,-0.9914497797305037,0.01462362520396709,0.008566644974052906,0.003279363270848989,0.0002302521752426401,0.006883644498884678,-0.006105335894972086,XArbitraryCorrectedZVertical,-0.4778624801510969,0.0139464227508228,0.04827657464474005,0.8769961913810372,0.07060104608535767,0.8368206024169922,-0.542905867099762,-0.685457706451416,45.12216186523438,-11.29508113861084,1,10457.58487941667,unknown,1,2016-03-02 02:35:24.172,null,0,0,0,0,null,10457.71436541667,0,0.4152222,97.40947,192.168.1.101,100.78.239.175,2,1,0.41,0
2016-03-02 02:35:24.682,12,234B9614-18C8-49ED-8B56-CAB6C4F40872,my_iOS_device_1,1456907724.000058,40.79924221620038,-96.68573060081962,371.6421,0,330.1171875,3,10,-9999,1456907724.622169,-0.2308864593505859,45.97100830078125,-8.03948974609375,9.643429756164551,6.366293430328369,25,10458.09279441667,0.0708770751953125,0.842529296875,-0.5498199462890625,10458.07014441667,-0.008412925883560313,0.03081756750217893,-0.005466670769605653,10458.03513941667,0.1800180598217337,0.1294342644828682,-0.9907572328615241,0.01780875585973263,6.188339466461912e-05,0.0033296849578619,-9.120870527112857e-05,0.007705503609031439,-0.006729232612997293,XArbitraryCorrectedZVertical,-0.4775637545084623,0.01402742249304421,0.04829817416763289,0.8771564160228387,0.07073940336704254,0.8364412188529968,-0.5434721708297729,-0.672886848449707,45.11174774169922,-11.33736324310303,1,10457.58487941667,unknown,1,2016-03-02 02:35:24.172,null,0,0,0,0,null,10457.71436541667,0,0.4152222,97.40947,192.168.1.101,100.78.239.175,2,1,0.41,0
2016-03-02 02:35:24.731,13,234B9614-18C8-49ED-8B56-CAB6C4F40872,my_iOS_device_1,1456907724.000058,40.79924221620038,-96.68573060081962,371.6421,0,330.1171875,3,10,-9999,1456907724.682768,0.2200889587402344,46.07540893554688,-7.874267578125,9.647039413452148,6.369903087615967,25,10458.12308241667,0.0706024169921875,0.845123291015625,-0.5459442138671875,10458.10516841667,-0.0126944899680807,0.03401043133307493,-0.003398992499268132,10458.10516841667,0.1799401541430004,0.1293336828017815,-0.989945584735621,0.006110956892371178,0.003243541112169623,0.003157849656417966,-0.001299008028581738,0.007860691286623478,0.000680052675306797,XArbitraryCorrectedZVertical,-0.477207008545606,0.01404633929807828,0.04832829551589286,0.8773485893302506,0.07077227532863617,0.8359960913658142,-0.5441523194313049,-0.6702704429626465,45.10089874267578,-11.38059902191162,1,10457.58487941667,unknown,1,2016-03-02 02:35:24.172,null,0,0,0,0,null,10457.71436541667,0,0.4152222,97.40947,192.168.1.101,100.78.239.175,2,1,0.41,0
2016-03-02 02:35:24.742,14,234B9614-18C8-49ED-8B56-CAB6C4F40872,my_iOS_device_1,1456907724.000058,40.79924221620038,-96.68573060081962,371.6421,0,330.1171875,3,10,-9999,1456907724.739316,0.8445167541503906,45.72738647460938,-7.676025390625,9.616442680358887,6.339306354522705,25,10458.15339341667,0.0713958740234375,0.8487091064453125,-0.548919677734375,10458.14017241667,-0.01067368333292858,0.02871553445377939,0.004093278595451789,10458.10516841667,0.1799401541430004,0.1293336828017815,-0.989945584735621,0.006110956892371178,0.003243541112169623,0.003157849656417966,-0.001299008028581738,0.007860691286623478,0.000680052675306797,XArbitraryCorrectedZVertical,-0.477207008545606,0.01404633929807828,0.04832829551589286,0.8773485893302506,0.07077227532863617,0.8359960913658142,-0.5441523194313049,-0.6702704429626465,45.10089874267578,-11.38059902191162,1,10457.58487941667,unknown,1,2016-03-02 02:35:24.172,null,0,0,0,0,null,10457.71436541667,0,0.4152222,97.40947,192.168.1.101,100.78.239.175,2,1,0.41,0
2016-03-02 02:35:24.780,15,234B9614-18C8-49ED-8B56-CAB6C4F40872,my_iOS_device_1,1456907724.000058,40.79924221620038,-96.68573060081962,371.6421,0,330.1171875,3,10,-9999,1456907724.772821,1.122041702270508,45.65779113769531,-7.081298828125,9.585212707519531,6.308076858520508,25,10458.18370141667,0.0733489990234375,0.8420562744140625,-0.5485076904296875,10458.17516541667,-0.008460063834854715,0.02657275504070163,-0.002267947984311479,10458.14017241667,0.1802833031235013,0.1296115038676232,-0.9897532423321422,0.008130472153425217,-0.002051508985459805,0.01064944546669722,-0.003363053780049086,0.01001092977821827,-0.004413956310600042,XArbitraryCorrectedZVertical,-0.4771322968676573,0.0140968827954748,0.04842209733511772,0.8773832399076743,0.07094422727823257,0.835890531539917,-0.5442920923233032,-0.6692385673522949,45.10033798217773,-11.38286018371582,1,10457.58487941667,unknown,1,2016-03-02 02:35:24.172,null,0,0,0,0,null,10457.71436541667,0,0.4152222,97.40947,192.168.1.101,100.78.239.175,2,1,0.41,0
2016-03-02 02:35:24.815,16,234B9614-18C8-49ED-8B56-CAB6C4F40872,my_iOS_device_1,1456907724.000058,40.79924221620038,-96.68573060081962,371.6421,0,330.1171875,3,10,-9999,1456907724.772821,1.122041702270508,45.65779113769531,-7.081298828125,9.585212707519531,6.308076858520508,25,10458.21399741667,0.072845458984375,0.8438720703125,-0.54840087890625,10458.17516541667,-0.008460063834854715,0.02657275504070163,-0.002267947984311479,10458.17516541667,0.1805953294613885,0.1297025007479054,-0.9894696448339372,0.01034315675497055,-0.004194061271846294,0.004288051277399063,0.001866818522103131,0.007526858244091272,-0.007694892585277557,XArbitraryCorrectedZVertical,-0.4770130708376761,0.01407793823403531,0.04855138456677866,0.8774412259300978,0.07102441787719727,0.8357348442077637,-0.5445206761360168,0.9854186773300171,45.21182250976562,-7.309996604919434,1,10457.58487941667,unknown,1,2016-03-02 02:35:24.172,null,0,0,0,0,null,10457.71436541667,0,0.4152222,97.40947,192.168.1.101,100.78.239.175,2,1,0.41,0
2016-03-02 02:35:24.833,17,234B9614-18C8-49ED-8B56-CAB6C4F40872,my_iOS_device_1,1456907724.000058,40.79924221620038,-96.68573060081962,371.6421,0,330.1171875,3,10,-9999,1456907724.827078,0.8792095184326172,45.76219177246094,-7.18035888671875,9.53732967376709,6.260193824768066,25,10458.24429541667,0.0711822509765625,0.84375,-0.5466766357421875,10458.21019041667,-0.008439024862243089,0.03507702734965167,-0.003337739794196309,10458.21019041667,0.1808241014370066,0.1298900279701063,-0.9890561498942894,0.01036425773054361,0.004310647491365671,0.003218619152903557,0.002299787010997534,0.008394862525165081,-0.005961797665804625,XArbitraryCorrectedZVertical,-0.4768389705922126,0.01412838452034888,0.04862762842101198,0.877530819190715,0.07117128372192383,0.8355077505111694,-0.5448499917984009,0.9951281547546387,45.20893478393555,-7.326522827148438,1,10457.58487941667,unknown,1,2016-03-02 02:35:24.172,null,0,0,0,0,null,10457.71436541667,0,0.4152222,97.40947,192.168.1.101,100.78.239.175,2,1,0.41,0
2016-03-02 02:35:24.864,18,234B9614-18C8-49ED-8B56-CAB6C4F40872,my_iOS_device_1,1456907724.000058,40.79924221620038,-96.68573060081962,371.6421,0,330.1171875,3,10,-9999,1456907724.827078,0.8792095184326172,45.76219177246094,-7.18035888671875,9.53732967376709,6.260193824768066,25,10458.27459341667,0.0713653564453125,0.8391571044921875,-0.54425048828125,10458.24519641667,0.01070697284655457,0.03509140841953809,-0.003059705776392037,10458.24519641667,0.1808940568570337,0.1301247898671733,-0.9884585143542836,0.02950914576649666,0.004325221292674541,0.003496411256492138,-0.0001817184675019234,0.008570811711251736,-0.001348378951661289,XArbitraryCorrectedZVertical,-0.4765845964017038,0.01424759988186874,0.04863216155237381,0.8776668167550544,0.07136397063732147,0.8351792097091675,-0.5453282594680786,0.9998354911804199,45.20706558227539,-7.337428092956543,1,10457.58487941667,unknown,1,2016-03-02 02:35:24.172,null,0,0,0,0,null,10457.71436541667,0,0.4152222,97.40947,192.168.1.101,100.78.239.175,2,1,0.41,0
2016-03-02 02:35:24.894,19,234B9614-18C8-49ED-8B56-CAB6C4F40872,my_iOS_device_1,1456907724.000058,40.79924221620038,-96.68573060081962,371.6421,0,330.1171875,3,10,-9999,1456907724.886664,0.6710662841796875,45.69259643554688,-7.51080322265625,9.502009391784668,6.224873065948486,25,10458.30489541667,0.0693359375,0.8391876220703125,-0.5514678955078125,10458.28023041667,0.01594967176848456,0.03191984987736272,0.002346777552577825,10458.28023041667,0.1811173842767413,0.1303060356591428,-0.9874762643299219,0.03475040569901466,0.001153965014964342,0.008902881294488907,-0.0002040107065113261,0.004518534988164902,0.001877961796708405,XArbitraryCorrectedZVertical,-0.4761622435888061,0.01432803961281031,0.04873602664682729,0.8778889592471151,0.07156936824321747,0.8346385955810547,-0.5461284518241882,1.013026714324951,45.19837951660156,-7.388957023620605,1,10457.58487941667,unknown,1,2016-03-02 02:35:24.172,null,0,0,0,0,null,10457.71436541667,0,0.4152222,97.40947,192.168.1.101,100.78.239.175,2,1,0.41,0
2016-03-02 02:35:24.924,20,234B9614-18C8-49ED-8B56-CAB6C4F40872,my_iOS_device_1,1456907724.000058,40.79924221620038,-96.68573060081962,371.6421,0,330.1171875,3,10,-9999,1456907724.886664,0.6710662841796875,45.69259643554688,-7.51080322265625,9.502009391784668,6.224873065948486,25,10458.33519441667,0.0729217529296875,0.842132568359375,-0.55706787109375,10458.31524741667,0.01591877909983964,0.02979890838522362,0.004478904321295263,10458.28023041667,0.1811173842767413,0.1303060356591428,-0.9874762643299219,0.03475040569901466,0.001153965014964342,0.008902881294488907,-0.0002040107065113261,0.004518534988164902,0.001877961796708405,XArbitraryCorrectedZVertical,-0.4761622435888061,0.01432803961281031,0.04873602664682729,0.8778889592471151,0.07156936824321747,0.8346385955810547,-0.5461284518241882,1.013026714324951,45.19837951660156,-7.388957023620605,1,10457.58487941667,unknown,1,2016-03-02 02:35:24.172,null,0,0,0,0,null,10457.71436541667,0,0.4152222,97.40947,192.168.1.101,100.78.239.175,2,1,0.41,0
2016-03-02 02:35:24.970,21,234B9614-18C8-49ED-8B56-CAB6C4F40872,my_iOS_device_1,1456907724.000058,40.79924221620038,-96.68573060081962,371.6421,0,330.1171875,3,10,-9999,1456907724.947138,0.081329345703125,45.93621826171875,-7.7420654296875,9.50554084777832,6.228404521942139,25,10458.36549341667,0.0693206787109375,0.83673095703125,-0.5578765869140625,10458.35025841667,-0.001009604369249039,0.03295874901860264,-0.002163019437362357,10458.31524741667,0.1812445874543585,0.1303351039796249,-0.9860989109944293,0.03471992537379265,-0.0009672752348706126,0.01103418786078691,-0.001910363789647818,0.008283951319754124,-0.008825615979731083,XArbitraryCorrectedZVertical,-0.4755630177191331,0.01438644190321455,0.04885373275203811,0.8782062168212001,0.07173458486795425,0.8338791131973267,-0.5472657084465027,1.020268321037292,45.19364929199219,-7.416844367980957,1,10457.58487941667,unknown,1,2016-03-02 02:35:24.172,null,0,0,0,0,null,10457.71436541667,0,0.4152222,97.40947,192.168.1.101,100.78.239.175,2,1,0.41,0
2016-03-02 02:35:24.985,22,234B9614-18C8-49ED-8B56-CAB6C4F40872,my_iOS_device_1,1456907724.000058,40.79924221620038,-96.68573060081962,371.6421,0,330.1171875,3,10,-9999,1456907724.947138,0.081329345703125,45.93621826171875,-7.7420654296875,9.50554084777832,6.228404521942139,25,10458.39578441667,0.073486328125,0.84185791015625,-0.5524749755859375,10458.38526941667,-0.02552187167455636,0.02763216052233515,0.0006809702907332612,10458.35025841667,0.1814968517588646,0.1305593046423536,-0.9849262543341533,0.0177925955504179,0.00219260947778821,0.004392091184854507,0.001517052645795047,0.00775684230029583,-0.01037499867379665,XArbitraryCorrectedZVertical,-0.4750586013386195,0.01448963775456506,0.04896983277069816,0.8784710189700744,0.07198453694581985,0.8332313299179077,-0.5482187271118164,1.032273292541504,45.18167114257812,-7.487789154052734,1,10457.58487941667,unknown,1,2016-03-02 02:35:24.172,null,0,0,0,0,null,10457.71436541667,0,0.4152222,97.40947,192.168.1.101,100.78.239.175,2,1,0.41,0
2016-03-02 02:35:25.015,23,234B9614-18C8-49ED-8B56-CAB6C4F40872,my_iOS_device_1,1456907724.000058,40.79924221620038,-96.68573060081962,371.6421,0,330.1171875,3,10,-9999,1456907725.007184,0.0119476318359375,46.07542419433594,-7.67608642578125,9.523046493530273,6.245910167694092,25,10458.42607241667,0.0720977783203125,0.8441925048828125,-0.549285888671875,10458.38526941667,-0.02552187167455636,0.02763216052233515,0.0006809702907332612,10458.38526941667,0.1816328449189252,0.1305540710747213,-0.9844724800113743,-0.006717751733958721,-0.003134354017674923,0.007235430646687746,-0.001169063500128686,0.003292865119874477,-0.009419962763786316,XArbitraryCorrectedZVertical,-0.4748614011235264,0.01448009783590506,0.04905350307017436,0.8785731217867885,0.07203087955713272,0.8329803347587585,-0.5485939383506775,1.040723443031311,45.17695617675781,-7.515024185180664,1,10457.58487941667,unknown,1,2016-03-02 02:35:24.172,null,0,0,0,0,null,10457.71436541667,0,0.4152222,97.40947,192.168.1.101,100.78.239.175,2,1,0.41,0
2016-03-02 02:35:25.052,24,234B9614-18C8-49ED-8B56-CAB6C4F40872,my_iOS_device_1,1456907724.000058,40.79924221620038,-96.68573060081962,371.6421,0,330.1171875,3,10,-9999,1456907725.007184,0.0119476318359375,46.07542419433594,-7.67608642578125,9.523046493530273,6.245910167694092,25,10458.45638641667,0.0747528076171875,0.8405303955078125,-0.554290771484375,10458.42028641667,-0.01909433238365012,0.02975496622723731,-0.002424009224190123,10458.42028641667,0.181985055520283,0.1307989183280152,-0.9847859944477441,-0.0002911459014285356,-0.001011287211440504,0.004130332265049219,0.0002718191826716065,0.008063285611569881,-0.000602325308136642,XArbitraryCorrectedZVertical,-0.4750067998095234,0.01448668110584908,0.04913437990067331,0.8784898911865771,0.07213113456964493,0.8331537842750549,-0.5483173727989197,1.047520279884338,45.17221832275391,-7.542521476745605,1,10457.58487941667,unknown,1,2016-03-02 02:35:24.172,null,0,0,0,0,null,10457.71436541667,0,0.4152222,97.40947,192.168.1.101,100.78.239.175,2,1,0.41,0
2016-03-02 02:35:25.076,25,234B9614-18C8-49ED-8B56-CAB6C4F40872,my_iOS_device_1,1456907725.000058,40.79924552705213,-96.68572942735318,370.9568,0.23,74.53125,3,10,-9999,1456907725.06458,-0.1615028381347656,46.1102294921875,-8.23773193359375,9.545116424560547,6.267980575561523,25,10458.48667441667,0.074676513671875,0.8394775390625,-0.5597381591796875,10458.45529641667,-0.006328736014464302,0.03189135405369888,-0.002239718476756639,10458.45529641667,0.1822398273807145,0.1310065227109732,-0.9846127312111761,0.01247315015643835,0.001125413342379034,0.004314642865210772,0.0008562944130972028,0.007945496588945389,-0.003541218815371394,XArbitraryCorrectedZVertical,-0.4749381324115255,0.01452696136011628,0.0492056741491665,0.878522361358318,0.07226382195949554,0.8330579400062561,-0.548445463180542,1.059172630310059,45.17408752441406,-7.52968692779541,1,10457.58487941667,unknown,1,2016-03-02 02:35:24.172,null,0,0,0,0,null,10457.71436541667,0,0.4152222,97.40947,192.168.1.101,100.78.239.175,2,1,0.41,0
2016-03-02 02:35:25.108,26,234B9614-18C8-49ED-8B56-CAB6C4F40872,my_iOS_device_1,1456907725.000058,40.79924552705213,-96.68572942735318,370.9568,0.23,74.53125,3,10,-9999,1456907725.06458,-0.1615028381347656,46.1102294921875,-8.23773193359375,9.545116424560547,6.267980575561523,25,10458.51698041667,0.0735931396484375,0.839935302734375,-0.5553741455078125,10458.49029041667,-0.01909273448699608,0.03188176667377459,-0.002425074488626154,10458.49029041667,0.1824578801100351,0.1312735362723176,-0.9841717404185721,-0.0002894732460845262,0.001116333762183785,0.004129805136471987,0.002218170557171106,0.006663648411631584,-0.01094784215092659,XArbitraryCorrectedZVertical,-0.4747538166872076,0.01461693930816356,0.04926021259055868,0.8786174310140327,0.07245834171772003,0.8328139185905457,-0.5487903356552124,1.063878655433655,45.17224884033203,-7.540045738220215,1,10457.58487941667,unknown,1,2016-03-02 02:35:24.172,null,0,0,0,0,null,10457.71436541667,0,0.4152222,97.40947,192.168.1.101,100.78.239.175,2,1,0.41,0
2016-03-02 02:35:25.136,27,234B9614-18C8-49ED-8B56-CAB6C4F40872,my_iOS_device_1,1456907725.000058,40.79924552705213,-96.68572942735318,370.9568,0.23,74.53125,3,10,-9999,1456907725.121589,-0.3696460723876953,45.76222229003906,-7.64300537109375,9.583486557006836,6.306350231170654,25,10458.54727041667,0.07049560546875,0.8402862548828125,-0.55157470703125,10458.52532641667,-0.02969611036714656,0.03718491935244938,-0.004713262497222236,10458.49029041667,0.1824578801100351,0.1312735362723176,-0.9841717404185721,-0.0002894732460845262,0.001116333762183785,0.004129805136471987,0.002218170557171106,0.006663648411631584,-0.01094784215092659,XArbitraryCorrectedZVertical,-0.4747538166872076,0.01461693930816356,0.04926021259055868,0.8786174310140327,0.07245834171772003,0.8328139185905457,-0.5487903356552124,1.063878655433655,45.17224884033203,-7.540045738220215,1,10457.58487941667,unknown,1,2016-03-02 02:35:24.172,null,0,0,0,0,null,10457.71436541667,0,0.4152222,97.40947,192.168.1.101,100.78.239.175,2,1,0.41,0
2016-03-02 02:35:25.167,28,234B9614-18C8-49ED-8B56-CAB6C4F40872,my_iOS_device_1,1456907725.000058,40.79924552705213,-96.68572942735318,370.9568,0.23,74.53125,3,10,-9999,1456907725.121589,-0.3696460723876953,45.76222229003906,-7.64300537109375,9.583486557006836,6.306350231170654,25,10458.57756941667,0.0722503662109375,0.8408355712890625,-0.5500030517578125,10458.56033641667,-0.02860474695243209,0.03505305889984095,-0.006827812402745151,10458.52532641667,0.1826685246578323,0.1315706946432847,-0.9843156246038866,-0.01089217700064182,0.00641977321356535,0.001841826015152037,0.0009874432580545545,0.007041773293167353,-0.006724182981997728,XArbitraryCorrectedZVertical,-0.4748254813176389,0.01468948464665709,0.04927496661109371,0.8785766665452356,0.07260569930076599,0.8328935503959656,-0.5486499667167664,1.067894458770752,45.17063522338867,-7.549135208129883,1,10457.58487941667,unknown,1,2016-03-02 02:35:24.172,null,0,0,0,0,null,10457.71436541667,0,0.4152222,97.40947,192.168.1.101,100.78.239.175,2,1,0.41,0
2016-03-02 02:35:25.211,29,234B9614-18C8-49ED-8B56-CAB6C4F40872,my_iOS_device_1,1456907725.000058,40.79924552705213,-96.68572942735318,370.9568,0.23,74.53125,3,10,-9999,1456907725.180312,-0.5431003570556641,45.44900512695312,-7.279541015625,9.633445739746094,6.356309413909912,25,10458.60786741667,0.0733184814453125,0.843963623046875,-0.55291748046875,10458.59534841667,-0.0190666355083133,0.02762230682630186,-0.004554005464035497,10458.56033641667,0.1826748816006748,0.1316842304497344,-0.9847128473244038,-0.009801019914448261,0.004287706688046455,-0.0002734596782829612,-0.0005877972580492496,0.006745708640664816,-0.004329129587858915,XArbitraryCorrectedZVertical,-0.4750016839674949,0.01471577018711566,0.0492307931016549,0.8784834519479584,0.07262454181909561,0.8331133127212524,-0.5483136773109436,1.075920224189758,45.17256927490234,-7.536407470703125,1,10457.58487941667,unknown,1,2016-03-02 02:35:24.172,null,0,0,0,0,null,10457.71436541667,0,0.4152222,97.40947,192.168.1.101,100.78.239.175,2,1,0.41,0
2016-03-02 02:35:25.227,30,234B9614-18C8-49ED-8B56-CAB6C4F40872,my_iOS_device_1,1456907725.000058,40.79924552705213,-96.68572942735318,370.9568,0.23,74.53125,3,10,-9999,1456907725.180312,-0.5431003570556641,45.44900512695312,-7.279541015625,9.633445739746094,6.356309413909912,25,10458.63816341667,0.076416015625,0.844696044921875,-0.5507049560546875,10458.59534841667,-0.0190666355083133,0.02762230682630186,-0.004554005464035497,10458.59534841667,0.1826558222180129,0.1316102401800153,-0.9849853742061961,-0.0002637417637743056,-0.003143064212054014,0.001999919535592198,0.0004133569891564548,0.008288729935884476,-0.002336335834115744,XArbitraryCorrectedZVertical,-0.4751186507184583,0.01467265152796248,0.04922626877635795,0.8784211720461564,0.07255417108535767,0.8332639932632446,-0.5480939745903015,1.071137666702271,45.17569732666016,-7.518320083618164,1,10457.58487941667,unknown,1,2016-03-02 02:35:24.172,null,0,0,0,0,null,10457.71436541667,0,0.4152222,97.40947,192.168.1.101,100.78.239.175,2,1,0.41,0
2016-03-02 02:35:25.258,31,234B9614-18C8-49ED-8B56-CAB6C4F40872,my_iOS_device_1,1456907725.000058,40.79924552705213,-96.68572942735318,370.9568,0.23,74.53125,3,10,-9999,1456907725.238753,0.3935413360595703,45.41419982910156,-7.70904541015625,9.636519432067871,6.359383583068848,25,10458.66845741667,0.0735931396484375,0.84136962890625,-0.552825927734375,10458.63034341667,-0.005239769444730901,0.02656929293128453,-0.004352670485625507,10458.63034341667,0.1829749140232124,0.1318245798403772,-0.9848719000655225,0.01356185227632523,-0.00419526593759656,0.00220192177221179,0.00267908233217895,0.01247134525328875,-0.004943716339766979,XArbitraryCorrectedZVertical,-0.4750767570737327,0.01469730449309289,0.04932122228671786,0.8784380918203977,0.07268407940864563,0.8332012891769409,-0.5481721162796021,1.07806396484375,45.1754150390625,-7.519042015075684,1,10457.58487941667,unknown,1,2016-03-02 02:35:24.172,null,0,0,0,0,null,10457.71436541667,0,0.4152222,97.40947,192.168.1.101,100.78.239.175,2,1,0.41,0
2016-03-02 02:35:25.291,32,234B9614-18C8-49ED-8B56-CAB6C4F40872,my_iOS_device_1,1456907725.000058,40.79924552705213,-96.68572942735318,370.9568,0.23,74.53125,3,10,-9999,1456907725.277853,0.6016864776611328,45.13580322265625,-7.90728759765625,9.626910209655762,6.349774360656738,25,10458.69874741667,0.0730743408203125,0.83502197265625,-0.5522613525390625,10458.66537441667,-0.0008972189712476953,0.0265549118613981,-0.01068406966117989,10458.66537441667,0.1828443708454748,0.1315870421307631,-0.9844060416930903,0.01790290884673595,-0.00420906487852335,-0.004129088018089533,0.00147663673851639,0.01184403151273727,-0.002649638336151838,XArbitraryCorrectedZVertical,-0.4748666364440836,0.01464988945964894,0.04934377780266608,0.8785512221397447,0.07260478287935257,0.8329435586929321,-0.5485740900039673,1.08083713054657,45.17368316650391,-7.529033660888672,1,10457.58487941667,unknown,1,2016-03-02 02:35:24.172,null,0,0,0,0,null,10457.71436541667,0,0.4152222,97.40947,192.168.1.101,100.78.239.175,2,1,0.41,0
2016-03-02 02:35:25.318,33,234B9614-18C8-49ED-8B56-CAB6C4F40872,my_iOS_device_1,1456907725.000058,40.79924552705213,-96.68572942735318,370.9568,0.23,74.53125,3,10,-9999,1456907725.277853,0.6016864776611328,45.13580322265625,-7.90728759765625,9.626910209655762,6.349774360656738,25,10458.72904341667,0.0750274658203125,0.8402862548828125,-0.553131103515625,10458.70038541667,-0.01154373806105747,0.03293025319493879,-0.009776198045571876,10458.70038541667,0.1824815555169607,0.1313305668610164,-0.9839853617919219,0.007256608456373215,0.002166533609852195,-0.003221202176064253,0.000564374728128314,0.002311267191544175,-0.003321296069771051,XArbitraryCorrectedZVertical,-0.474674041207556,0.01464671762093767,0.04926644536358935,0.8786596870392041,0.07250996679067612,0.8327106833457947,-0.5489400625228882,1.074217438697815,45.16977691650391,-7.55335521697998,1,10457.58487941667,unknown,1,2016-03-02 02:35:24.172,null,0,0,0,0,null,10457.71436541667,0,0.4152222,97.40947,192.168.1.101,100.78.239.175,2,1,0.41,0
2016-03-02 02:35:25.372,34,234B9614-18C8-49ED-8B56-CAB6C4F40872,my_iOS_device_1,1456907725.000058,40.79924552705213,-96.68572942735318,370.9568,0.23,74.53125,3,10,-9999,1456907725.329083,0.4976139068603516,45.51860046386719,-8.20465087890625,9.616542816162109,6.339406967163086,25,10458.75933741667,0.072174072265625,0.8446044921875,-0.5529937744140625,10458.73540341667,-0.01903494389134135,0.0308066485417096,-0.006686664864970951,10458.70038541667,0.1824815555169607,0.1313305668610164,-0.9839853617919219,0.007256608456373215,0.002166533609852195,-0.003221202176064253,0.000564374728128314,0.002311267191544175,-0.003321296069771051,XArbitraryCorrectedZVertical,-0.474674041207556,0.01464671762093767,0.04926644536358935,0.8786596870392041,0.07250996679067612,0.8327106833457947,-0.5489400625228882,1.074217438697815,45.16977691650391,-7.55335521697998,1,10457.58487941667,unknown,1,2016-03-02 02:35:24.172,null,0,0,0,0,null,10457.71436541667,0,0.4152222,97.40947,192.168.1.101,100.78.239.175,2,1,0.41,0
2016-03-02 02:35:25.379,35,234B9614-18C8-49ED-8B56-CAB6C4F40872,my_iOS_device_1,1456907725.000058,40.79924552705213,-96.68572942735318,370.9568,0.23,74.53125,3,10,-9999,1456907725.329083,0.4976139068603516,45.51860046386719,-8.20465087890625,9.616542816162109,6.339406967163086,25,10458.78961641667,0.071258544921875,0.839813232421875,-0.556640625,10458.77041741667,-0.00842757326955575,0.03082049697937802,-0.004401140017464949,10458.73540341667,0.1823434664067062,0.131289922935228,-0.9838951452614161,-0.0002345538814552128,4.314341276767664e-05,-0.0001316445996053517,0.002529976423829794,0.00762550625950098,-0.004113624803721905,XArbitraryCorrectedZVertical,-0.474632647803851,0.01466663904652233,0.04921995787445646,0.8786843204954761,0.07249748706817627,0.8326607346534729,-0.5490174889564514,1.071147203445435,45.16826248168945,-7.562874794006348,1,10457.58487941667,unknown,1,2016-03-02 02:35:24.172,null,0,0,0,0,null,10457.71436541667,0,0.4152222,97.40947,192.168.1.101,100.78.239.175,2,1,0.41,0
2016-03-02 02:35:25.409,36,234B9614-18C8-49ED-8B56-CAB6C4F40872,my_iOS_device_1,1456907725.000058,40.79924552705213,-96.68572942735318,370.9568,0.23,74.53125,3,10,-9999,1456907725.389751,0.4282321929931641,45.30978393554688,-7.80816650390625,9.608598709106445,6.331462383270264,25,10458.81991841667,0.069183349609375,0.8366241455078125,-0.55670166015625,10458.80542641667,-0.008415322728541385,0.02762736683237301,-0.005465072872951605,10458.77041741667,0.1822630166452219,0.1311434861722514,-0.9838850617988667,0.01037159655243158,5.68731156818103e-05,0.002153140492737293,-0.0002746355312410742,0.01098802406340837,-0.004003137815743685,XArbitraryCorrectedZVertical,-0.474624053255872,0.01462195398897733,0.04921987075264742,0.8786897125012785,0.07241819053888321,0.8326551914215088,-0.5490363836288452,1.067673683166504,45.16777801513672,-7.566254615783691,1,10457.58487941667,unknown,1,2016-03-02 02:35:24.172,null,0,0,0,0,null,10457.71436541667,0,0.4152222,97.40947,192.168.1.101,100.78.239.175,2,1,0.41,0
2016-03-02 02:35:25.451,37,234B9614-18C8-49ED-8B56-CAB6C4F40872,my_iOS_device_1,1456907725.000058,40.79924552705213,-96.68572942735318,370.9568,0.23,74.53125,3,10,-9999,1456907725.429273,0.3588523864746094,45.37942504882812,-7.80816650390625,9.606115341186523,6.328979015350342,25,10458.85020441667,0.07110595703125,0.8395843505859375,-0.5537872314453125,10458.84044441667,-0.02120861597306403,0.0276236384068469,-0.003519367380539713,10458.80542641667,0.18211468789628,0.1309253850145272,-0.9833979463461386,0.01038458105176687,-0.003136466722935438,0.0010886718519032,-0.00071137142367661,0.005062814801931381,-0.007430508267134428,XArbitraryCorrectedZVertical,-0.474404945954776,0.01458830500203875,0.04923088287569154,0.8788079703678552,0.07235138863325119,0.8323853015899658,-0.5494542717933655,1.06743061542511,45.16776275634766,-7.566375732421875,1,10457.58487941667,unknown,1,2016-03-02 02:35:24.172,null,0,0,0,0,null,10457.71436541667,0,0.4152222,97.40947,192.168.1.101,100.78.239.175,2,1,0.41,0
2016-03-02 02:35:25.471,38,234B9614-18C8-49ED-8B56-CAB6C4F40872,my_iOS_device_1,1456907725.000058,40.79924552705213,-96.68572942735318,370.9568,0.23,74.53125,3,10,-9999,1456907725.429273,0.3588523864746094,45.37942504882812,-7.80816650390625,9.606115341186523,6.328979015350342,25,10458.88049741667,0.0729217529296875,0.8435211181640625,-0.552581787109375,10458.84044441667,-0.02120861597306403,0.0276236384068469,-0.003519367380539713,10458.84044441667,0.1819112428296149,0.1305228277228981,-0.9830026996740205,-0.002406836487352848,-0.003140818327665329,0.003033256158232689,-0.0004566990537568927,0.004305362235754728,-0.007761916611343622,XArbitraryCorrectedZVertical,-0.4742209803649814,0.01448152530651912,0.04925674429484027,0.8789075721302672,0.07217300683259964,0.8321661949157715,-0.5498095154762268,1.061580061912537,45.16226196289062,-7.599972724914551,1,10458.87845841667,stationary,1,2016-03-02 02:35:25.464,null,0,0,0,0,null,10457.71436541667,0,0.4152222,97.40947,192.168.1.101,100.78.239.175,2,1,0.41,0
2016-03-02 02:35:25.501,39,234B9614-18C8-49ED-8B56-CAB6C4F40872,my_iOS_device_1,1456907725.000058,40.79924552705213,-96.68572942735318,370.9568,0.23,74.53125,3,10,-9999,1456907725.47577,0.4976139068603516,45.44900512695312,-7.74200439453125,9.591084480285645,6.313948631286621,25,10458.91079241667,0.0743255615234375,0.8386993408203125,-0.555999755859375,10458.87545441667,-0.01693850348123098,0.02868730494622455,-0.004523645427608594,10458.87545441667,0.1821077296268961,0.1305819022920798,-0.9831662197051643,0.001862153992988169,-0.002076933160424232,0.002028872724622488,0.001573218614794314,0.009295874275267124,-0.003720197826623917,XArbitraryCorrectedZVertical,-0.4742952576900196,0.01445184907479644,0.04932089890380994,0.8788643817577161,0.07218776643276215,0.8322568535804749,-0.5496702790260315,1.061643838882446,45.16100311279297,-7.607427597045898,1,10458.87845841667,stationary,1,2016-03-02 02:35:25.464,null,0,0,0,0,null,10457.71436541667,0,0.4152222,97.40947,192.168.1.101,100.78.239.175,2,1,0.41,0
2016-03-02 02:35:25.532,40,234B9614-18C8-49ED-8B56-CAB6C4F40872,my_iOS_device_1,1456907725.000058,40.79924552705213,-96.68572942735318,370.9568,0.23,74.53125,3,10,-9999,1456907725.47577,0.4976139068603516,45.44900512695312,-7.74200439453125,9.591084480285645,6.313948631286621,25,10458.94108541667,0.0730133056640625,0.840667724609375,-0.5542449951171875,10458.91046541667,-0.02117532645943804,0.03293478056879192,-0.005653092045911199,10458.91046541667,0.182252685038819,0.1307103941383308,-0.983225476077728,-0.002375565003603697,0.002170959720388055,0.00089959183242172,0.002165146870538592,0.007889733649790287,-0.005319512449204922,XArbitraryCorrectedZVertical,-0.4743253482466518,0.01447065499356157,0.04935115641173452,0.8788461341529296,0.07225196808576584,0.8322896957397461,-0.5496121048927307,1.064385414123535,45.16255187988281,-7.597837448120117,1,10458.87845841667,stationary,1,2016-03-02 02:35:25.464,null,0,0,0,0,null,10457.71436541667,0,0.4152222,97.40947,192.168.1.101,100.78.239.175,2,1,0.41,0
2016-03-02 02:35:25.561,41,234B9614-18C8-49ED-8B56-CAB6C4F40872,my_iOS_device_1,1456907725.000058,40.79924552705213,-96.68572942735318,370.9568,0.23,74.53125,3,10,-9999,1456907725.534267,0.7057590484619141,45.51860046386719,-7.80810546875,9.566754341125488,6.289618492126465,25,10458.97138141667,0.0702667236328125,0.83990478515625,-0.5537872314453125,10458.94548241667,-0.01693610663624991,0.03187750561603046,-0.004525243324262642,10458.94548241667,0.1823881265675669,0.1308230410358713,-0.9832578532270795,0.001930920640006661,0.001150107476860285,0.002030552364885807,0.0007029420230537653,0.008360066451132298,-0.004667726345360279,XArbitraryCorrectedZVertical,-0.4743432455092368,0.01448623840338084,0.04938233324662459,0.8788344664951294,0.07231036573648453,0.8323076367378235,-0.5495772957801819,1.068952679634094,45.16263580322266,-7.596714019775391,1,10458.87845841667,stationary,1,2016-03-02 02:35:25.464,null,0,0,0,0,null,10457.71436541667,0,0.4152222,97.40947,192.168.1.101,100.78.239.175,2,1,0.41,0
2016-03-02 02:35:25.611,42,234B9614-18C8-49ED-8B56-CAB6C4F40872,my_iOS_device_1,1456907725.000058,40.79924552705213,-96.68572942735318,370.9568,0.23,74.53125,3,10,-9999,1456907725.593373,0.740447998046875,45.69259643554688,-7.7750244140625,9.536554336547852,6.259418487548828,25,10459.00168441667,0.0733489990234375,0.84051513671875,-0.554962158203125,10458.98049341667,-0.01901470386705675,0.03824752062739099,-0.007755924042637766,10458.94548241667,0.1823881265675669,0.1308230410358713,-0.9832578532270795,0.001930920640006661,0.001150107476860285,0.002030552364885807,0.0007029420230537653,0.008360066451132298,-0.004667726345360279,XArbitraryCorrectedZVertical,-0.4743432455092368,0.01448623840338084,0.04938233324662459,0.8788344664951294,0.07231036573648453,0.8323076367378235,-0.5495772957801819,1.068952679634094,45.16263580322266,-7.596714019775391,1,10458.87845841667,stationary,1,2016-03-02 02:35:25.464,null,0,0,0,0,null,10457.71436541667,0,0.4152222,97.40947,192.168.1.101,100.78.239.175,2,1,0.41,0
2016-03-02 02:35:25.621,43,234B9614-18C8-49ED-8B56-CAB6C4F40872,my_iOS_device_1,1456907725.000058,40.79924552705213,-96.68572942735318,370.9568,0.23,74.53125,3,10,-9999,1456907725.593373,0.740447998046875,45.69259643554688,-7.7750244140625,9.536554336547852,6.259418487548828,25,10459.03197741667,0.0741119384765625,0.8393707275390625,-0.5560302734375,10459.01548741667,-0.01587323904519928,0.03081490434108885,-0.004509264357722166,10458.98049341667,0.1822090195212148,0.130756456830499,-0.9832703681215947,-0.0001480406208429486,0.007519937586039305,-0.001200757222250104,-0.002005688613280654,0.007590190507471561,-0.00421547656878829,XArbitraryCorrectedZVertical,-0.4743457687960577,0.01449876607107151,0.04931879507298934,0.8788364659367613,0.0722724124789238,0.8323146104812622,-0.5495717525482178,1.069175124168396,45.1629638671875,-7.59471321105957,1,10458.87845841667,stationary,1,2016-03-02 02:35:25.464,null,0,0,0,0,null,10459.02695741667,0,0.4707642,97.40882,192.168.1.101,100.78.239.175,2,1,0.41,0
2016-03-02 02:35:25.651,44,234B9614-18C8-49ED-8B56-CAB6C4F40872,my_iOS_device_1,1456907725.000058,40.79924552705213,-96.68572942735318,370.9568,0.23,74.53125,3,10,-9999,1456907725.593373,0.740447998046875,45.69259643554688,-7.7750244140625,9.536554336547852,6.259418487548828,25,10459.06227341667,0.074737548828125,0.8427276611328125,-0.5571746826171875,10459.05052141667,-0.02331730692418877,0.03293611214933696,-0.004618453962415415,10459.01548741667,0.1820842048929878,0.1306278927408358,-0.9831047196000565,0.00299322116188705,8.748540130909532e-05,0.002045721979811788,0.000549450924154371,0.009467300027608871,-0.005229168105870485,XArbitraryCorrectedZVertical,-0.4742693683507512,0.01448104039281346,0.04930273362650432,0.8788788916399398,0.07221971452236176,0.8322227597236633,-0.5497177243232727,1.064078092575073,45.16191482543945,-7.601655960083008,1,10458.87845841667,stationary,1,2016-03-02 02:35:25.464,null,0,0,0,0,null,10459.02695741667,0,0.4707642,97.40882,192.168.1.101,100.78.239.175,2,1,0.41,0
2016-03-02 02:35:25.690,45,234B9614-18C8-49ED-8B56-CAB6C4F40872,my_iOS_device_1,1456907725.000058,40.79924552705213,-96.68572942735318,370.9568,0.23,74.53125,3,10,-9999,1456907725.652076,0.7057571411132812,45.65779113769531,-7.7420654296875,9.506375312805176,6.229238986968994,25,10459.09255441667,0.0746612548828125,0.8458404541015625,-0.5494537353515625,10459.05052141667,-0.02331730692418877,0.03293611214933696,-0.004618453962415415,10459.05052141667,0.1821806205782803,0.1307363948699452,-0.9830705324533003,-0.004450352862477303,0.002208871068432927,0.001936558401212096,0.0008217901340685785,0.006114062387496233,-0.00685674836859107,XArbitraryCorrectedZVertical,-0.4742578149099216,0.01450774955125838,0.04932108532706702,0.8788836559761244,0.0722830668091774,0.8322038054466248,-0.5497381091117859,1.064961433410645,45.16143035888672,-7.604424476623535,1,10458.87845841667,stationary,1,2016-03-02 02:35:25.464,null,0,0,0,0,null,10459.02695741667,0,0.4707642,97.40882,192.168.1.101,100.78.239.175,2,1,0.41,0
2016-03-02 02:35:25.711,46,234B9614-18C8-49ED-8B56-CAB6C4F40872,my_iOS_device_1,1456907725.000058,40.79924552705213,-96.68572942735318,370.9568,0.23,74.53125,3,10,-9999,1456907725.652076,0.7057571411132812,45.65779113769531,-7.7420654296875,9.506375312805176,6.229238986968994,25,10459.12287641667,0.0698394775390625,0.8376007080078125,-0.5476226806640625,10459.08553241667,-0.01155918439537993,0.03186978244886923,-0.008710134661213157,10459.08553241667,0.1821828656764051,0.1308497912517787,-0.9832089444709154,0.007306908722966909,0.001142993452958763,-0.002154954941943288,0.002285102382302284,0.014933199621737,-0.001669097342528403,XArbitraryCorrectedZVertical,-0.4743210612241008,0.01454938340088123,0.04928824486994628,0.8788506785794222,0.07233037799596786,0.8322805166244507,-0.5496156811714172,1.06794810295105,45.16182327270508,-7.601689338684082,1,10458.87845841667,stationary,1,2016-03-02 02:35:25.464,null,0,0,0,0,null,10459.02695741667,0,0.4707642,97.40882,192.168.1.101,100.78.239.175,2,1,0.41,0
2016-03-02 02:35:25.742,47,234B9614-18C8-49ED-8B56-CAB6C4F40872,my_iOS_device_1,1456907725.000058,40.79924552705213,-96.68572942735318,370.9568,0.23,74.53125,3,10,-9999,1456907725.712121,0.3241615295410156,45.69259643554688,-7.97332763671875,9.505428314208984,6.228292465209961,25,10459.15316241667,0.071258544921875,0.8333587646484375,-0.5562591552734375,10459.12054341667,0.01384683977175799,0.02553199168669866,0.0001880191729595942,10459.12054341667,0.1820876308966416,0.1306546473322664,-0.9827930168089231,0.03271029144525528,-0.005194526165723801,0.006742978468537331,-0.001909937942400575,0.008099023252725601,0.004044012632220984,XArbitraryCorrectedZVertical,-0.4741339456544644,0.01450923244383615,0.04931350023280007,0.878950887391772,0.07226821780204773,0.8320499062538147,-0.5499729514122009,1.067371487617493,45.16254043579102,-7.597484588623047,1,10458.87845841667,stationary,1,2016-03-02 02:35:25.464,null,0,0,0,0,null,10459.02695741667,0,0.4707642,97.40882,192.168.1.101,100.78.239.175,2,1,0.41,0
2016-03-02 02:35:25.772,48,234B9614-18C8-49ED-8B56-CAB6C4F40872,my_iOS_device_1,1456907725.000058,40.79924552705213,-96.68572942735318,370.9568,0.23,74.53125,3,10,-9999,1456907725.769782,0.2547798156738281,46.04058837890625,-8.10552978515625,9.509160995483398,6.232025146484375,25,10459.18346641667,0.0704803466796875,0.8366851806640625,-0.55987548828125,10459.15555241667,-0.002061020367612322,0.02976481992327061,-0.003242398627171472,10459.15555241667,0.1820660937575153,0.1304855316641506,-0.9818771999526695,0.01680207997560501,-0.0009617992909625173,0.003311953041702509,-0.001015777816064656,0.001817215350456536,-0.005518677178770304,XArbitraryCorrectedZVertical,-0.4737296503255658,0.01449066652137092,0.04938993445611822,0.8791648726834905,0.07227431982755661,0.8315415382385254,-0.5507404804229736,1.065957903862,45.15875244140625,-7.620168685913086,1,10458.87845841667,stationary,1,2016-03-02 02:35:25.464,null,0,0,0,0,null,10459.02695741667,0,0.4707642,97.40882,192.168.1.101,100.78.239.175,2,1,0.41,0
2016-03-02 02:35:25.803,49,234B9614-18C8-49ED-8B56-CAB6C4F40872,my_iOS_device_1,1456907725.000058,40.79924552705213,-96.68572942735318,370.9568,0.23,74.53125,3,10,-9999,1456907725.769782,0.2547798156738281,46.04058837890625,-8.10552978515625,9.509160995483398,6.232025146484375,25,10459.21377041667,0.0678253173828125,0.8410797119140625,-0.560638427734375,10459.19055141667,-0.02330505638317441,0.02974298200233196,-0.005682386817902071,10459.15555241667,0.1820660937575153,0.1304855316641506,-0.9818771999526695,0.01680207997560501,-0.0009617992909625173,0.003311953041702509,-0.001015777816064656,0.001817215350456536,-0.005518677178770304,XArbitraryCorrectedZVertical,-0.4737296503255658,0.01449066652137092,0.04938993445611822,0.8791648726834905,0.07227431982755661,0.8315415382385254,-0.5507404804229736,1.065957903862,45.15875244140625,-7.620168685913086,1,10458.87845841667,stationary,1,2016-03-02 02:35:25.464,null,0,0,0,0,null,10459.02695741667,0,0.4707642,97.40882,192.168.1.101,100.78.239.175,2,1,0.41,0
2016-03-02 02:35:25.851,50,234B9614-18C8-49ED-8B56-CAB6C4F40872,my_iOS_device_1,1456907725.000058,40.79924552705213,-96.68572942735318,370.9568,0.23,74.53125,3,10,-9999,1456907725.831335,0.6710662841796875,45.62295532226562,-8.17156982421875,9.504508972167969,6.227372646331787,25,10459.24404441667,0.0712127685546875,0.843017578125,-0.5543060302734375,10459.22558141667,-0.0307629726998323,0.03293051951104779,-0.004726578302672632,10459.22558141667,0.1818596671108367,0.1300671364902484,-0.9816927770161652,-0.0118974270299077,0.002203249838203192,0.001826376654207706,-0.001644466770812869,0.01136485952883959,-0.00645032711327076,XArbitraryCorrectedZVertical,-0.4736372697780061,0.01436582327034044,0.04940749640346024,0.8792157068081287,0.07206378132104874,0.8314390778541565,-0.550922691822052,1.068297386169434,45.14925384521484,-7.675932884216309,1,10458.87845841667,stationary,1,2016-03-02 02:35:25.464,null,0,0,0,0,null,10459.02695741667,0,0.4707642,97.40882,192.168.1.101,100.78.239.175,2,1,0.41,0
2016-03-02 02:35:25.864,51,234B9614-18C8-49ED-8B56-CAB6C4F40872,my_iOS_device_1,1456907725.000058,40.79924552705213,-96.68572942735318,370.9568,0.23,74.53125,3,10,-9999,1456907725.831335,0.6710662841796875,45.62295532226562,-8.17156982421875,9.504508972167969,6.227372646331787,25,10459.27436341667,0.0733642578125,0.8375396728515625,-0.5485992431640625,10459.26059441667,-0.02760286575034428,0.03081197486388976,-0.002548112530987815,10459.22558141667,0.1818596671108367,0.1300671364902484,-0.9816927770161652,-0.0118974270299077,0.002203249838203192,0.001826376654207706,-0.001644466770812869,0.01136485952883959,-0.00645032711327076,XArbitraryCorrectedZVertical,-0.4736372697780061,0.01436582327034044,0.04940749640346024,0.8792157068081287,0.07206378132104874,0.8314390778541565,-0.550922691822052,1.068297386169434,45.14925384521484,-7.675932884216309,1,10458.87845841667,stationary,1,2016-03-02 02:35:25.464,null,0,0,0,0,null,10459.02695741667,0,0.4707642,97.40882,192.168.1.101,100.78.239.175,2,1,0.41,0
2016-03-02 02:35:25.894,52,234B9614-18C8-49ED-8B56-CAB6C4F40872,my_iOS_device_1,1456907725.000058,40.79924552705213,-96.68572942735318,370.9568,0.23,74.53125,3,10,-9999,1456907725.887286,0.2200908660888672,45.79696655273438,-8.07244873046875,9.498164176940918,6.221027851104736,25,10459.30465841667,0.0750274658203125,0.83868408203125,-0.55267333984375,10459.26059441667,-0.02760286575034428,0.03081197486388976,-0.002548112530987815,10459.26059441667,0.1820408450646455,0.1301832032357392,-0.9822309038516529,-0.008680222555994987,0.0001162768821814097,0.004005725029855967,-0.0002922853163909167,0.008502512238919735,-0.002904605818912387,XArbitraryCorrectedZVertical,-0.4738764868282078,0.01434420109773881,0.04943277984978665,0.8790857292679245,0.07206963002681732,0.8317379951477051,-0.5504706501960754,1.063173651695251,45.15365219116211,-7.65071964263916,1,10458.87845841667,stationary,1,2016-03-02 02:35:25.464,null,0,0,0,0,null,10459.02695741667,0,0.4707642,97.40882,192.168.1.101,100.78.239.175,2,1,0.41,0
2016-03-02 02:35:25.933,53,234B9614-18C8-49ED-8B56-CAB6C4F40872,my_iOS_device_1,1456907725.000058,40.79924552705213,-96.68572942735318,370.9568,0.23,74.53125,3,10,-9999,1456907725.887286,0.2200908660888672,45.79696655273438,-8.07244873046875,9.498164176940918,6.221027851104736,25,10459.33495341667,0.0737762451171875,0.84088134765625,-0.5576629638671875,10459.33062241667,-0.0169190624052734,0.03506477680863729,-0.005592371973057392,10459.29558541667,0.1824521261298011,0.130473540114813,-0.9825352111185262,0.00301784067414701,0.0001254528760910034,0.004175552632659674,-0.0002818420180119574,0.007250234484672546,0.0001041079813148826,XArbitraryCorrectedZVertical,-0.4740195203163113,0.01435751100884914,0.04952952763498898,0.8790029477362135,0.07219651341438293,0.8319068551063538,-0.5501987338066101,1.066239714622498,45.1558837890625,-7.637112617492676,1,10458.87845841667,stationary,1,2016-03-02 02:35:25.464,null,0,0,0,0,null,10459.02695741667,0,0.4707642,97.40882,192.168.1.101,100.78.239.175,2,1,0.41,0
2016-03-02 02:35:25.954,54,234B9614-18C8-49ED-8B56-CAB6C4F40872,my_iOS_device_1,1456907725.000058,40.79924552705213,-96.68572942735318,370.9568,0.23,74.53125,3,10,-9999,1456907725.945788,0.1160221099853516,45.831787109375,-7.8411865234375,9.507250785827637,6.230114459991455,25,10459.36525041667,0.0730743408203125,0.8396453857421875,-0.556671142578125,10459.33062241667,-0.0169190624052734,0.03506477680863729,-0.005592371973057392,10459.33062241667,0.1826422747203297,0.1308058398441456,-0.982398538838995,0.002001048531383276,0.004369933623820543,0.0009617599425837398,0.001549920649267733,0.009340244345366955,-0.007970643229782581,XArbitraryCorrectedZVertical,-0.4739694358558284,0.01446607030836847,0.04954119384577495,0.879027517656102,0.07239416986703873,0.8318310379981995,-0.5502874255180359,1.071908116340637,45.15701293945312,-7.629646301269531,1,10458.87845841667,stationary,1,2016-03-02 02:35:25.464,null,0,0,0,0,null,10459.02695741667,0,0.4707642,97.40882,192.168.1.101,100.78.239.175,2,1,0.41,0
2016-03-02 02:35:25.985,55,234B9614-18C8-49ED-8B56-CAB6C4F40872,my_iOS_device_1,1456907725.000058,40.79924552705213,-96.68572942735318,370.9568,0.23,74.53125,3,10,-9999,1456907725.945788,0.1160221099853516,45.831787109375,-7.8411865234375,9.507250785827637,6.230114459991455,25,10459.39554741667,0.0724945068359375,0.8397979736328125,-0.5537567138671875,10459.36563941667,-0.02330186058986631,0.03399658289540652,-0.005684517346774134,10459.36563941667,0.1826879434296297,0.1309752350765561,-0.9824157014211029,-0.004381502047181129,0.003301914315670729,0.0008695016731508076,0.0005888191517442465,0.0078048394061625,-0.006410154514014721,XArbitraryCorrectedZVertical,-0.4739814569064771,0.01452874639509628,0.04952026003942604,0.8790211817030351,0.07248552143573761,0.8318405747413635,-0.5502609610557556,1.08130955696106,45.15606689453125,-7.633910179138184,1,10458.87845841667,stationary,1,2016-03-02 02:35:25.464,null,0,0,0,0,null,10459.02695741667,0,0.4707642,97.40882,192.168.1.101,100.78.239.175,2,1,0.41,0
2016-03-02 02:35:26.015,56,234B9614-18C8-49ED-8B56-CAB6C4F40872,my_iOS_device_1,1456907725.000058,40.79924552705213,-96.68572942735318,370.9568,0.23,74.53125,3,10,-9999,1456907726.00568,-0.5777873992919922,45.55335998535156,-7.8411865234375,9.551019668579102,6.27388334274292,25,10459.42584541667,0.0743255615234375,0.836669921875,-0.5558624267578125,10459.40064941667,-0.01799897422730053,0.03294010689097208,-0.004541222290803117,10459.36563941667,0.1826879434296297,0.1309752350765561,-0.9824157014211029,-0.004381502047181129,0.003301914315670729,0.0008695016731508076,0.0005888191517442465,0.0078048394061625,-0.006410154514014721,XArbitraryCorrectedZVertical,-0.4739814569064771,0.01452874639509628,0.04952026003942604,0.8790211817030351,0.07248552143573761,0.8318405747413635,-0.5502609610557556,1.08130955696106,45.15606689453125,-7.633910179138184,1,10458.87845841667,stationary,1,2016-03-02 02:35:25.464,null,0,0,0,0,null,10459.02695741667,0,0.4707642,97.40882,192.168.1.101,100.78.239.175,2,1,0.41,0
2016-03-02 02:35:26.045,57,234B9614-18C8-49ED-8B56-CAB6C4F40872,my_iOS_device_1,1456907725.000058,40.79924552705213,-96.68572942735318,370.9568,0.23,74.53125,3,10,-9999,1456907726.00568,-0.5777873992919922,45.55335998535156,-7.8411865234375,9.551019668579102,6.27388334274292,25,10459.45612741667,0.07208251953125,0.83746337890625,-0.5541229248046875,10459.43566141667,-0.02117772330441911,0.029744579898986,-0.005651494149257152,10459.40064941667,0.1827704226967732,0.1311256619592204,-0.9824520668555334,0.0009418285917490721,0.002260371809825301,0.002009188290685415,-6.983276398386806e-05,0.007937245070934296,-0.003536626696586609,XArbitraryCorrectedZVertical,-0.4740016619400206,0.014573294026967,0.04951903351006094,0.8790096182064814,0.07256434112787247,0.8318607211112976,-0.5502200722694397,1.083407044410706,45.15660858154297,-7.630409240722656,1,10458.87845841667,stationary,1,2016-03-02 02:35:25.464,null,0,0,0,0,null,10459.02695741667,0,0.4707642,97.40882,192.168.1.101,100.78.239.175,2,1,0.41,0
