loggingTime,loggingSample,identifierForVendor,deviceID,locationTimestamp_since1970,locationLatitude,locationLongitude,locationAltitude,locationSpeed,locationCourse,locationVerticalAccuracy,locationHorizontalAccuracy,locationFloor,locationHeadingTimestamp_since1970,locationHeadingX,locationHeadingY,locationHeadingZ,locationTrueHeading,locationMagneticHeading,locationHeadingAccuracy,accelerometerTimestamp_sinceReboot,accelerometerAccelerationX,accelerometerAccelerationY,accelerometerAccelerationZ,gyroTimestamp_sinceReboot,gyroRotationX,gyroRotationY,gyroRotationZ,motionTimestamp_sinceReboot,motionYaw,motionRoll,motionPitch,motionRotationRateX,motionRotationRateY,motionRotationRateZ,motionUserAccelerationX,motionUserAccelerationY,motionUserAccelerationZ,motionAttitudeReferenceFrame,motionQuaternionX,motionQuaternionY,motionQuaternionZ,motionQuaternionW,motionGravityX,motionGravityY,motionGravityZ,motionMagneticFieldX,motionMagneticFieldY,motionMagneticFieldZ,motionMagneticFieldCalibrationAccuracy,activityTimestamp_sinceReboot,activity,activityActivityConfidence,activityActivityStartDate,pedometerStartDate,pedometerNumberofSteps,pedometerDistance,pedometerFloorAscended,pedometerFloorDescended,pedometerEndDate,altimeterTimestamp_sinceReboot,altimeterReset,altimeterRelativeAltitude,altimeterPressure,IP_en0,IP_pdp_ip0,deviceOrientation,batteryState,batteryLevel,state
2016-03-02 02:34:42.821,1,234B9614-18C8-49ED-8B56-CAB6C4F40872,my_iOS_device_1,1456907682.000058,40.79923387620672,-96.68571752505068,371.4994,0,-1,3,5,-9999,1456907682.788091,-0.6145687103271484,51.737060546875,-2.0196533203125,12.48685073852539,9.209714889526367,25,10416.19204154167,0.0842742919921875,0.9124755859375,-0.4203643798828125,10416.15905454167,-0.05093135795111138,0.04886048388746577,-0.007159109642351008,10416.15905454167,0.3323923200400114,0.2052442818250108,-1.124498106323897,-0.0327027216553688,0.01822341047227383,-0.0006960066966712475,0.001539276097901165,0.005724803078919649,-0.01268702279776335,XArbitraryCorrectedZVertical,-0.5373173887509082,-0.002248541870726449,0.08537043372881079,0.8390452054867568,0.08796878159046173,0.9020510911941528,-0.4225699305534363,-1.50935697555542,52.39861297607422,-2.322940826416016,1,10415.90000654167,unknown,1,2016-03-02 02:34:42.483,null,0,0,0,0,null,10415.68623054167,0,0.2667847,97.41119,192.168.1.101,100.78.239.175,2,1,0.42,0
2016-03-02 02:34:42.825,2,234B9614-18C8-49ED-8B56-CAB6C4F40872,my_iOS_device_1,1456907682.000058,40.79923387620672,-96.68571752505068,371.4994,0,-1,3,5,-9999,1456907682.788091,-0.6145687103271484,51.737060546875,-2.0196533203125,12.48685073852539,9.209714889526367,25,10416.22232754167,0.0955810546875,0.92236328125,-0.4174957275390625,10416.19409654167,-0.06695613086233618,0.0339726144455958,-0.003121224797572867,10416.19409654167,0.3328422972481989,0.2061371747768743,-1.126238341642058,-0.04872406646609306,0.003335359506309032,0.003341596340760589,-0.003750326111912727,0.009674740023910999,0.0005896545480936766,XArbitraryCorrectedZVertical,-0.5380690506606373,-0.002163217845494244,0.08516815678490749,0.8385841652926517,0.08802461624145508,0.9028008580207825,-0.4209540486335754,-1.51465892791748,52.39804077148438,-2.332269668579102,1,10415.90000654167,unknown,1,2016-03-02 02:34:42.483,null,0,0,0,0,null,10415.68623054167,0,0.2667847,97.41119,192.168.1.101,100.78.239.175,2,1,0.42,0
2016-03-02 02:34:42.845,3,234B9614-18C8-49ED-8B56-CAB6C4F40872,my_iOS_device_1,1456907682.000058,40.79923387620672,-96.68571752505068,371.4994,0,-1,3,5,-9999,1456907682.788091,-0.6145687103271484,51.737060546875,-2.0196533203125,12.48685073852539,9.209714889526367,25,10416.25264354167,0.085601806640625,0.90716552734375,-0.4253997802734375,10416.22910754167,-0.02846626257574797,0.02438976189516368,-0.01747779360197203,10416.22910754167,0.3335505619640563,0.2068555146778311,-1.127781163180443,-0.0102373780682683,-0.006246744189411402,-0.01101440843194723,0.007540246937423944,0.01890000514686108,0.002031299285590649,XArbitraryCorrectedZVertical,-0.5387315071921533,-0.002202212239163857,0.08513742634552314,0.8381617576905928,0.08804080635309219,0.9034633040428162,-0.4195270240306854,-1.518435001373291,52.40129470825195,-2.255519866943359,1,10415.90000654167,unknown,1,2016-03-02 02:34:42.483,null,0,0,0,0,null,10415.68623054167,0,0.2667847,97.41119,192.168.1.101,100.78.239.175,2,1,0.42,0
2016-03-02 02:34:42.893,4,234B9614-18C8-49ED-8B56-CAB6C4F40872,my_iOS_device_1,1456907682.000058,40.79923387620672,-96.68571752505068,371.4994,0,-1,3,5,-9999,1456907682.8466,-0.4064273834228516,51.94586181640625,-1.358642578125,12.50633907318115,9.229203224182129,25,10416.28294454167,0.086700439453125,0.90594482421875,-0.42529296875,10416.26412054167,-0.04443937016182523,0.03927123975041746,-0.01558588396357973,10416.26412054167,0.3326456541985983,0.2061581670150692,-1.128336911450639,-0.02620990946888924,0.008634808473289013,-0.009122766554355621,-0.003950978629291058,0.002808033488690853,-0.008561291731894016,XArbitraryCorrectedZVertical,-0.5389306958101704,-0.002304465601221859,0.08489773169698095,0.8380577364982467,0.08764543384313583,0.9037013649940491,-0.4190967977046967,-1.522138118743896,52.40536880493164,-2.156145095825195,1,10415.90000654167,unknown,1,2016-03-02 02:34:42.483,null,0,0,0,0,null,10415.68623054167,0,0.2667847,97.41119,192.168.1.101,100.78.239.175,2,1,0.42,0
2016-03-02 02:34:42.906,5,234B9614-18C8-49ED-8B56-CAB6C4F40872,my_iOS_device_1,1456907682.000058,40.79923387620672,-96.68571752505068,371.4994,0,-1,3,5,-9999,1456907682.8466,-0.4064273834228516,51.94586181640625,-1.358642578125,12.50633907318115,9.229203224182129,25,10416.31324254167,0.0869140625,0.9187774658203125,-0.4205780029296875,10416.29913654167,-0.04449050285475475,0.02970942617259696,-0.01238449801719548,10416.26412054167,0.3326456541985983,0.2061581670150692,-1.128336911450639,-0.02620990946888924,0.008634808473289013,-0.009122766554355621,-0.003950978629291058,0.002808033488690853,-0.008561291731894016,XArbitraryCorrectedZVertical,-0.5389306958101704,-0.002304465601221859,0.08489773169698095,0.8380577364982467,0.08764543384313583,0.9037013649940491,-0.4190967977046967,-1.522138118743896,52.40536880493164,-2.156145095825195,1,10415.90000654167,unknown,1,2016-03-02 02:34:42.483,null,0,0,0,0,null,10415.68623054167,0,0.2667847,97.41119,192.168.1.101,100.78.239.175,2,1,0.42,0
2016-03-02 02:34:42.936,6,234B9614-18C8-49ED-8B56-CAB6C4F40872,my_iOS_device_1,1456907682.000058,40.79923387620672,-96.68571752505068,371.4994,0,-1,3,5,-9999,1456907682.907597,-0.3370456695556641,52.0850830078125,-0.82989501953125,12.50106811523438,9.223932266235352,25,10416.34354254167,0.0869140625,0.9195098876953125,-0.421539306640625,10416.29913654167,-0.04449050285475475,0.02970942617259696,-0.01238449801719548,10416.29913654167,0.3322637144225262,0.2059750997276217,-1.129298798725663,-0.02626005560159683,-0.0009271953604184091,-0.005921991541981697,-0.001819600467570126,0.005631470121443272,-0.001446503098122776,XArbitraryCorrectedZVertical,-0.5393176272410195,-0.002371183877978152,0.08470349816891301,0.8378282591510511,0.08739089220762253,0.9041128158569336,-0.4182617366313934,-1.56131649017334,52.40647888183594,-2.100433349609375,1,10415.90000654167,unknown,1,2016-03-02 02:34:42.483,null,0,0,0,0,null,10415.68623054167,0,0.2667847,97.41119,192.168.1.101,100.78.239.175,2,1,0.42,0
2016-03-02 02:34:42.973,7,234B9614-18C8-49ED-8B56-CAB6C4F40872,my_iOS_device_1,1456907682.000058,40.79923387620672,-96.68571752505068,371.4994,0,-1,3,5,-9999,1456907682.967614,-0.7533302307128906,51.94589233398438,-0.82989501953125,12.51822376251221,9.241087913513184,25,10416.37382354167,0.0899200439453125,0.9073333740234375,-0.4256134033203125,10416.33413954167,-0.02429948073420999,0.0244105345516663,-0.01102282375183797,10416.33413954167,0.3319151821055792,0.2055294322350042,-1.130226729123014,-0.006071130279451609,-0.006226049736142159,-0.004561157431453466,-0.001156754558905959,0.01600806601345539,-0.00209174444898963,XArbitraryCorrectedZVertical,-0.5396794334394102,-0.00255342447309862,0.0845972056170237,0.8376054572098764,0.0870332196354866,0.9045088887214661,-0.4174791872501373,-1.571907997131348,52.40740203857422,-2.069229125976562,1,10415.90000654167,unknown,1,2016-03-02 02:34:42.483,null,0,0,0,0,null,10415.68623054167,0,0.2667847,97.41119,192.168.1.101,100.78.239.175,2,1,0.42,0
2016-03-02 02:34:42.997,8,234B9614-18C8-49ED-8B56-CAB6C4F40872,my_iOS_device_1,1456907682.000058,40.79923387620672,-96.68571752505068,371.4994,0,-1,3,5,-9999,1456907682.967614,-0.7533302307128906,51.94589233398438,-0.82989501953125,12.51822376251221,9.241087913513184,25,10416.40412025,0.088592529296875,0.90728759765625,-0.4259796142578125,10416.36916154167,-0.03070438315585056,0.03291880160225145,-0.008988701311235445,10416.36916154167,0.3317239038747804,0.2053573233160254,-1.130336463230237,-0.01247566659003496,0.002282304456457496,-0.002527183154597878,-0.0003017215640284121,0.006561859976500273,-0.009742303751409054,XArbitraryCorrectedZVertical,-0.5397173622245236,-0.002584470657898642,0.08455402904373101,0.8375852825815948,0.08694112300872803,0.9045556783676147,-0.4173969924449921,-1.580474376678467,52.40812683105469,-2.044334411621094,1,10415.90000654167,unknown,1,2016-03-02 02:34:42.483,null,0,0,0,0,null,10415.68623054167,0,0.2667847,97.41119,192.168.1.101,100.78.239.175,2,1,0.42,0
2016-03-02 02:34:43.056,9,234B9614-18C8-49ED-8B56-CAB6C4F40872,my_iOS_device_1,1456907682.000058,40.79923387620672,-96.68571752505068,371.4994,0,-1,3,5,-9999,1456907683.024673,-0.3370437622070312,51.38905334472656,-0.69769287109375,12.52566909790039,9.248533248901367,25,10416.43442525,0.0811309814453125,0.91046142578125,-0.417724609375,10416.40417225,-0.05818234665107012,0.03498967566589706,-0.02217774029374386,10416.40417225,0.3314763813642962,0.2052572027077463,-1.130861428293709,-0.03995103389024734,0.004353603348135948,-0.01571539416909218,0.001789991394616663,0.002508206991478801,-0.009038882330060005,XArbitraryCorrectedZVertical,-0.5399285332983156,-0.0026101872101037,0.08443191499755758,0.8374614125933806,0.08680253475904465,0.9047793745994568,-0.4169407188892365,-1.589282035827637,52.40827178955078,-2.033679962158203,1,10415.90000654167,unknown,1,2016-03-02 02:34:42.483,null,0,0,0,0,null,10415.68623054167,0,0.2667847,97.41119,192.168.1.101,100.78.239.175,2,1,0.42,0
2016-03-02 02:34:43.059,10,234B9614-18C8-49ED-8B56-CAB6C4F40872,my_iOS_device_1,1456907682.000058,40.79923387620672,-96.68571752505068,371.4994,0,-1,3,5,-9999,1456907683.024673,-0.3370437622070312,51.38905334472656,-0.69769287109375,12.52566909790039,9.248533248901367,25,10416.46472525,0.0858154296875,0.9237060546875,-0.41485595703125,10416.43918425,-0.0667518664067271,0.03286820154153994,-0.0180381226953247,10416.43918425,0.3308196940269522,0.2048753320179345,-1.132594154450516,-0.04852022230625153,0.002232153434306383,-0.01157613284885883,-0.005193254910409451,0.004945459309965372,-0.00228633382357657,XArbitraryCorrectedZVertical,-0.5406230180544187,-0.002759446940105898,0.0841101809209972,0.8370451691920517,0.08632423728704453,0.9055159687995911,-0.4154382646083832,-1.591375350952148,52.4085693359375,-2.024347305297852,1,10415.90000654167,unknown,1,2016-03-02 02:34:42.483,null,0,0,0,0,null,10415.68623054167,0,0.2667847,97.41119,192.168.1.101,100.78.239.175,2,1,0.42,0
2016-03-02 02:34:43.098,11,234B9614-18C8-49ED-8B56-CAB6C4F40872,my_iOS_device_1,1456907683.000058,40.79923387620672,-96.68571752505068,371.5601,0,-1,3,5,-9999,1456907683.083465,0.2526912689208984,51.49346923828125,-0.9290771484375,12.50127506256104,9.224139213562012,25,10416.49502425,0.0828704833984375,0.91778564453125,-0.422119140625,10416.47419625,-0.05194522337810455,0.03715056457438735,-0.01143082003083811,10416.47419625,0.3309041371894511,0.2050983927634871,-1.134341824014957,-0.03371523693203926,0.006514714099466801,-0.004969128407537937,-0.0002790344005916268,0.01744991354644299,-0.0009869550121948123,XArbitraryCorrectedZVertical,-0.5413477035755605,-0.002857068240239955,0.08393392643318244,0.8365940455131416,0.08609446138143539,0.9062561392784119,-0.4138689935207367,-1.638209819793701,52.41197967529297,-1.894571304321289,1,10415.90000654167,unknown,1,2016-03-02 02:34:42.483,null,0,0,0,0,null,10415.68623054167,0,0.2667847,97.41119,192.168.1.101,100.78.239.175,2,1,0.42,0
2016-03-02 02:34:43.132,12,234B9614-18C8-49ED-8B56-CAB6C4F40872,my_iOS_device_1,1456907683.000058,40.79923387620672,-96.68571752505068,371.5601,0,-1,3,5,-9999,1456907683.083465,0.2526912689208984,51.49346923828125,-0.9290771484375,12.50127506256104,9.224139213562012,25,10416.52532225,0.0897979736328125,0.9118194580078125,-0.42340087890625,10416.50921325,-0.04033197681259602,0.03824033009244778,-0.004868258472664848,10416.47419625,0.3309041371894511,0.2050983927634871,-1.134341824014957,-0.03371523693203926,0.006514714099466801,-0.004969128407537937,-0.0002790344005916268,0.01744991354644299,-0.0009869550121948123,XArbitraryCorrectedZVertical,-0.5413477035755605,-0.002857068240239955,0.08393392643318244,0.8365940455131416,0.08609446138143539,0.9062561392784119,-0.4138689935207367,-1.638209819793701,52.41197967529297,-1.894571304321289,1,10415.90000654167,unknown,1,2016-03-02 02:34:42.483,null,0,0,0,0,null,10415.68623054167,0,0.2667847,97.41119,192.168.1.101,100.78.239.175,2,1,0.42,0
2016-03-02 02:34:43.159,13,234B9614-18C8-49ED-8B56-CAB6C4F40872,my_iOS_device_1,1456907683.000058,40.79923387620672,-96.68571752505068,371.5601,0,-1,3,5,-9999,1456907683.142301,0.4261417388916016,51.94589233398438,-0.962158203125,12.45528316497803,9.178147315979004,25,10416.55561825,0.0872955322265625,0.9137725830078125,-0.417022705078125,10416.54422625,-0.05091964004231504,0.02545982002115752,-0.009278453237836066,10416.50921325,0.3310408348632544,0.205458671342052,-1.135090375623559,-0.02210174687206745,0.007604424841701984,0.001592831453308463,0.004287924151867628,0.01051141880452633,-0.0124396737664938,XArbitraryCorrectedZVertical,-0.5416689103095301,-0.002815442535941212,0.08382869557085856,0.8363968045648544,0.08610514551401138,0.9065723419189453,-0.4131737351417542,-1.65540885925293,52.41454696655273,-1.806552886962891,1,10416.54773425,stationary,1,2016-03-02 02:34:43.129,null,0,0,0,0,null,10415.68623054167,0,0.2667847,97.41119,192.168.1.101,100.78.239.175,2,1,0.42,0
2016-03-02 02:34:43.189,14,234B9614-18C8-49ED-8B56-CAB6C4F40872,my_iOS_device_1,1456907683.000058,40.79923387620672,-96.68571752505068,371.5601,0,-1,3,5,-9999,1456907683.142301,0.4261417388916016,51.94589233398438,-0.962158203125,12.45528316497803,9.178147315979004,25,10416.58591725,0.084625244140625,0.9160003662109375,-0.40997314453125,10416.57923725,-0.05517430619982563,0.02545662422784942,-0.009340238575125904,10416.54422625,0.3314621458319322,0.2058956175355408,-1.135738485278113,-0.03268754482269287,-0.005175833590328693,-0.002816899912431836,0.001160522107966244,0.007659339345991611,-0.007986652664840221,XArbitraryCorrectedZVertical,-0.5419517428685958,-0.002809318424327223,0.08383025657073834,0.8362134322139079,0.08616552501916885,0.9068456888198853,-0.4125608205795288,-1.653592586517334,52.41503143310547,-1.794021606445312,1,10416.54773425,stationary,1,2016-03-02 02:34:43.129,null,0,0,0,0,null,10415.68623054167,0,0.2667847,97.41119,192.168.1.101,100.78.239.175,2,1,0.42,0
2016-03-02 02:34:43.214,15,234B9614-18C8-49ED-8B56-CAB6C4F40872,my_iOS_device_1,1456907683.000058,40.79923387620672,-96.68571752505068,371.5601,0,-1,3,5,-9999,1456907683.201339,0.3220691680908203,52.11991882324219,-0.2020263671875,12.41244506835938,9.135309219360352,25,10416.61621625,0.0859832763671875,0.9210052490234375,-0.41217041015625,10416.57923725,-0.05517430619982563,0.02545662422784942,-0.009340238575125904,10416.57923725,0.3319663567638551,0.2062047873999679,-1.136923336702492,-0.03694187849760056,-0.00517859123647213,-0.002878248924389482,0.002519510453566909,0.007831991650164127,-0.001115487422794104,XArbitraryCorrectedZVertical,-0.5424484530249681,-0.002931107497842023,0.08385421358381719,0.835888482564446,0.08607301861047745,0.9073444008827209,-0.4114821553230286,-1.649957656860352,52.41648483276367,-1.754541397094727,1,10416.54773425,stationary,1,2016-03-02 02:34:43.129,null,0,0,0,0,null,10415.68623054167,0,0.2667847,97.41119,192.168.1.101,100.78.239.175,2,1,0.42,0
2016-03-02 02:34:43.250,16,234B9614-18C8-49ED-8B56-CAB6C4F40872,my_iOS_device_1,1456907683.000058,40.79923387620672,-96.68571752505068,371.5601,0,-1,3,5,-9999,1456907683.201339,0.3220691680908203,52.11991882324219,-0.2020263671875,12.41244506835938,9.135309219360352,25,10416.64651325,0.089141845703125,0.9214935302734375,-0.414215087890625,10416.61425625,-0.04452965132277891,0.03609861594380605,-0.009191101554081467,10416.61425625,0.3322461878946517,0.2065176777567322,-1.138294099104262,-0.02629903517663479,0.005463428795337677,-0.002729791915044188,-0.0007110516889952123,0.01273449696600437,0.0002948791952803731,XArbitraryCorrectedZVertical,-0.5430213572076954,-0.003008744380256359,0.08376687940338112,0.8355249026741117,0.08594664931297302,0.9079198241233826,-0.4102375209331512,-1.65323543548584,52.41762924194336,-1.716924667358398,1,10416.54773425,stationary,1,2016-03-02 02:34:43.129,null,0,0,0,0,null,10415.68623054167,0,0.2667847,97.41119,192.168.1.101,100.78.239.175,2,1,0.42,0
2016-03-02 02:34:43.291,17,234B9614-18C8-49ED-8B56-CAB6C4F40872,my_iOS_device_1,1456907683.000058,40.79923387620672,-96.68571752505068,371.5601,0,-1,3,5,-9999,1456907683.261279,-0.2329769134521484,52.18951416015625,-0.334228515625,12.39671993255615,9.119584083557129,25,10416.67680925,0.0859832763671875,0.9177398681640625,-0.410797119140625,10416.64926725,-0.03283251518293288,0.03185380348232876,-0.009019061347662349,10416.64926725,0.3323343309969546,0.206736754876389,-1.139136901817829,-0.01460319012403488,0.001218858757056296,-0.002558025764301419,0.003262427169829607,0.01322079729288816,-0.004745469428598881,XArbitraryCorrectedZVertical,-0.5433746904176909,-0.003022664634055754,0.08367072696281953,0.8353047460427236,0.08587941527366638,0.9082727432250977,-0.4094696044921875,-1.66567850112915,52.42095184326172,-1.599485397338867,1,10416.54773425,stationary,1,2016-03-02 02:34:43.129,null,0,0,0,0,null,10415.68623054167,0,0.2667847,97.41119,192.168.1.101,100.78.239.175,2,1,0.42,0
2016-03-02 02:34:43.300,18,234B9614-18C8-49ED-8B56-CAB6C4F40872,my_iOS_device_1,1456907683.000058,40.79923387620672,-96.68571752505068,371.5601,0,-1,3,5,-9999,1456907683.261279,-0.2329769134521484,52.18951416015625,-0.334228515625,12.39671993255615,9.119584083557129,25,10416.70709025,0.08673095703125,0.9170989990234375,-0.411529541015625,10416.68427925,-0.02541933997258831,0.02761165418194154,-0.006777744974251662,10416.68427925,0.3325343439936407,0.2068290704675097,-1.139608203355531,-0.007191212382167578,-0.003022999968379736,-0.000316732854116708,0.0001539748482173309,0.009270054288208485,-0.001754422555677593,XArbitraryCorrectedZVertical,-0.5435707316736266,-0.003084055940738276,0.0836880560848897,0.8351752256475777,0.08582930266857147,0.9084697961807251,-0.4090426862239838,-1.66567850112915,52.42095184326172,-1.599485397338867,1,10416.54773425,stationary,1,2016-03-02 02:34:43.129,null,0,0,0,0,null,10415.68623054167,0,0.2667847,97.41119,192.168.1.101,100.78.239.175,2,1,0.42,0
2016-03-02 02:34:43.337,19,234B9614-18C8-49ED-8B56-CAB6C4F40872,my_iOS_device_1,1456907683.000058,40.79923387620672,-96.68571752505068,371.5601,0,-1,3,5,-9999,1456907683.319019,-0.5798778533935547,52.3287353515625,-0.46636962890625,12.39950180053711,9.122365951538086,25,10416.73738425,0.08563232421875,0.922149658203125,-0.4116363525390625,10416.71929825,-0.02223819405048866,0.03399738184373354,-0.005669071012451675,10416.68427925,0.3325343439936407,0.2068290704675097,-1.139608203355531,-0.007191212382167578,-0.003022999968379736,-0.000316732854116708,0.0001539748482173309,0.009270054288208485,-0.001754422555677593,XArbitraryCorrectedZVertical,-0.5435707316736266,-0.003084055940738276,0.0836880560848897,0.8351752256475777,0.08582930266857147,0.9084697961807251,-0.4090426862239838,-1.66567850112915,52.42095184326172,-1.599485397338867,1,10416.54773425,stationary,1,2016-03-02 02:34:43.129,null,0,0,0,0,null,10415.68623054167,0,0.2667847,97.41119,192.168.1.101,100.78.239.175,2,1,0.42,0
2016-03-02 02:34:43.373,20,234B9614-18C8-49ED-8B56-CAB6C4F40872,my_iOS_device_1,1456907683.000058,40.79923387620672,-96.68571752505068,371.5601,0,-1,3,5,-9999,1456907683.319019,-0.5798778533935547,52.3287353515625,-0.46636962890625,12.39950180053711,9.122365951538086,25,10416.76769525,0.0879058837890625,0.9205322265625,-0.4142303466796875,10416.75431025,-0.007364705678505125,0.0297578957044364,-0.004385161050924473,10416.71929825,0.332662836581784,0.2069390948650702,-1.139911545999634,-0.00401116069406271,0.003363027004525065,0.0007918203482404351,0.001340523012913764,0.01167627237737179,-0.002918594982475042,XArbitraryCorrectedZVertical,-0.5436990051202882,-0.0031023990939552,0.0836853260178933,0.8350919309634999,0.08581767976284027,0.9085965752601624,-0.4087635278701782,-1.670985698699951,52.42224884033203,-1.550533294677734,1,10416.54773425,stationary,1,2016-03-02 02:34:43.129,null,0,0,0,0,null,10415.68623054167,0,0.2667847,97.41119,192.168.1.101,100.78.239.175,2,1,0.42,0
2016-03-02 02:34:43.401,21,234B9614-18C8-49ED-8B56-CAB6C4F40872,my_iOS_device_1,1456907683.000058,40.79923387620672,-96.68571752505068,371.5601,0,-1,3,5,-9999,1456907683.379048,-0.8574008941650391,51.91108703613281,-0.26806640625,12.42027187347412,9.143136024475098,25,10416.79799225,0.0821990966796875,0.917083740234375,-0.4140167236328125,10416.78932125,-0.008429171166209797,0.02869369653284073,-0.004400074753028917,10416.75431025,0.3327006564257654,0.2070099471368534,-1.139888737122553,0.01086153648793697,-0.0008763674995861948,0.002075368771329522,0.001322560710832477,0.0129980556666851,-0.00452182674780488,XArbitraryCorrectedZVertical,-0.5436925980098303,-0.003080887962697477,0.0836838481834902,0.8350963301032298,0.08585090190172195,0.9085870385169983,-0.4087777435779572,-1.670549869537354,52.42265319824219,-1.53746223449707,1,10416.54773425,stationary,1,2016-03-02 02:34:43.129,null,0,0,0,0,null,10415.68623054167,0,0.2667847,97.41119,192.168.1.101,100.78.239.175,2,1,0.42,0
2016-03-02 02:34:43.451,22,234B9614-18C8-49ED-8B56-CAB6C4F40872,my_iOS_device_1,1456907683.000058,40.79923387620672,-96.68571752505068,371.5601,0,-1,3,5,-9999,1456907683.436384,-0.6145668029785156,52.15470886230469,-0.56549072265625,12.44199848175049,9.164862632751465,25,10416.82828725,0.084991455078125,0.9193267822265625,-0.4161529541015625,10416.78932125,-0.008429171166209797,0.02869369653284073,-0.004400074753028917,10416.78932125,0.3325732838941032,0.2067967290786109,-1.139443678006562,0.009797160513699055,-0.001940414076671004,0.002060248516499996,-0.0001534012408228591,0.009369347244501114,-0.00821242667734623,XArbitraryCorrectedZVertical,-0.5435021287693126,-0.003092223577782219,0.08372746337977616,0.8352158918821868,0.08584675937891006,0.9084010124206543,-0.409191757440567,-1.669803142547607,52.42266845703125,-1.537578582763672,1,10416.54773425,stationary,1,2016-03-02 02:34:43.129,null,0,0,0,0,null,10415.68623054167,0,0.2667847,97.41119,192.168.1.101,100.78.239.175,2,1,0.42,0
2016-03-02 02:34:43.453,23,234B9614-18C8-49ED-8B56-CAB6C4F40872,my_iOS_device_1,1456907683.000058,40.79923387620672,-96.68571752505068,371.5601,0,-1,3,5,-9999,1456907683.436384,-0.6145668029785156,52.15470886230469,-0.56549072265625,12.44199848175049,9.164862632751465,25,10416.85858225,0.0860595703125,0.916839599609375,-0.417144775390625,10416.82434125,-0.01269848470971582,0.02869343021673173,-0.003396329338178052,10416.82434125,0.332282603419305,0.2064115919894329,-1.139092491937779,0.005528060253709555,-0.00194086495321244,0.003063229145482183,-1.418955548615486e-07,0.009241576306521893,-0.006280259229242802,XArbitraryCorrectedZVertical,-0.5433430214074565,-0.003140123579773735,0.08374133403563974,0.8353178375239265,0.08575453609228134,0.9082541465759277,-0.4095369875431061,-1.671161651611328,52.4215202331543,-1.574764251708984,1,10416.54773425,stationary,1,2016-03-02 02:34:43.129,null,0,0,0,0,null,10415.68623054167,0,0.2667847,97.41119,192.168.1.101,100.78.239.175,2,1,0.42,0
2016-03-02 02:34:43.489,24,234B9614-18C8-49ED-8B56-CAB6C4F40872,my_iOS_device_1,1456907683.000058,40.79923387620672,-96.68571752505068,371.5601,0,-1,3,5,-9999,1456907683.436384,-0.6145668029785156,52.15470886230469,-0.56549072265625,12.44199848175049,9.164862632751465,25,10416.88888025,0.08599853515625,0.919525146484375,-0.41497802734375,10416.85933925,-0.01585619481422278,0.03400217553369568,-0.005576393006516917,10416.85933925,0.3321961193405867,0.2063662787582694,-1.138854215246501,0.002371039008721709,0.003367908298969269,0.0008828112622722983,0.0002792492450680584,0.008685173466801643,-0.007392076309770346,XArbitraryCorrectedZVertical,-0.5432439255455956,-0.003112527464943126,0.08373828031581367,0.8353826966967526,0.08578032255172729,0.9081544280052185,-0.4097526967525482,-1.669597625732422,52.42107772827148,-1.591119766235352,1,10416.54773425,stationary,1,2016-03-02 02:34:43.129,null,0,0,0,0,null,10415.68623054167,0,0.2667847,97.41119,192.168.1.101,100.78.239.175,2,1,0.42,0
2016-03-02 02:34:43.532,25,234B9614-18C8-49ED-8B56-CAB6C4F40872,my_iOS_device_1,1456907683.000058,40.79923387620672,-96.68571752505068,371.5601,0,-1,3,5,-9999,1456907683.498205,-0.1635932922363281,51.98068237304688,-0.46636962890625,12.43169498443604,9.154559135437012,25,10416.91917725,0.086669921875,0.921875,-0.4137115478515625,10416.89433925,-0.008439823810570114,0.03401362712638302,-0.003337207161978293,10416.89433925,0.3322186466718679,0.2065261687628248,-1.138654081873559,0.009787706658244133,0.003379396628588438,0.003121721791103482,0.000115431277663447,0.01145452074706554,-0.005061167292296886,XArbitraryCorrectedZVertical,-0.5431688263612761,-0.003032516363626584,0.08372170022279889,0.8354334843813835,0.08588310331106186,0.9080706238746643,-0.4099168479442596,-1.668100357055664,52.4208869934082,-1.59907341003418,1,10416.54773425,stationary,1,2016-03-02 02:34:43.129,null,0,0,0,0,null,10415.68623054167,0,0.2667847,97.41119,192.168.1.101,100.78.239.175,2,1,0.42,0
2016-03-02 02:34:43.543,26,234B9614-18C8-49ED-8B56-CAB6C4F40872,my_iOS_device_1,1456907683.000058,40.79923387620672,-96.68571752505068,371.5601,0,-1,3,5,-9999,1456907683.498205,-0.1635932922363281,51.98068237304688,-0.46636962890625,12.43169498443604,9.154559135437012,25,10416.94947625,0.0880584716796875,0.9170074462890625,-0.41143798828125,10416.92938125,-0.002078863546915854,0.02551414850739513,-0.002174737346158706,10416.89433925,0.3322186466718679,0.2065261687628248,-1.138654081873559,0.009787706658244133,0.003379396628588438,0.003121721791103482,0.000115431277663447,0.01145452074706554,-0.005061167292296886,XArbitraryCorrectedZVertical,-0.5431688263612761,-0.003032516363626584,0.08372170022279889,0.8354334843813835,0.08588310331106186,0.9080706238746643,-0.4099168479442596,-1.668100357055664,52.4208869934082,-1.59907341003418,1,10416.54773425,stationary,1,2016-03-02 02:34:43.129,null,0,0,0,0,null,10415.68623054167,0,0.2667847,97.41119,192.168.1.101,100.78.239.175,2,1,0.42,0
2016-03-02 02:34:43.575,27,234B9614-18C8-49ED-8B56-CAB6C4F40872,my_iOS_device_1,1456907683.000058,40.79923387620672,-96.68571752505068,371.5601,0,-1,3,5,-9999,1456907683.553573,0.4955234527587891,51.66744995117188,-1.09429931640625,12.39650630950928,9.119370460510254,25,10416.97977425,0.0873870849609375,0.914093017578125,-0.413726806640625,10416.96439425,0.001113733967871137,0.02764334579891348,-0.002129463607627359,10416.92938125,0.3322664071291646,0.2065375165491993,-1.13823769452731,0.01615852303802967,-0.005139081738889217,0.004298850893974304,0.00122343294788152,0.01031673420220613,-0.0007705957978032529,XArbitraryCorrectedZVertical,-0.5429991120172136,-0.003000493357159518,0.08377485498675363,0.8355385898090386,0.08596529066562653,0.9078961610794067,-0.4102859199047089,-1.667240142822266,52.42078399658203,-1.603263854980469,1,10416.54773425,stationary,1,2016-03-02 02:34:43.129,null,0,0,0,0,null,10415.68623054167,0,0.2667847,97.41119,192.168.1.101,100.78.239.175,2,1,0.42,0
2016-03-02 02:34:43.612,28,234B9614-18C8-49ED-8B56-CAB6C4F40872,my_iOS_device_1,1456907683.000058,40.79923387620672,-96.68571752505068,371.5601,0,-1,3,5,-9999,1456907683.553573,0.4955234527587891,51.66744995117188,-1.09429931640625,12.39650630950928,9.119370460510254,25,10417.01005725,0.087158203125,0.91748046875,-0.4197845458984375,10416.99940525,2.316950148368937e-05,0.03083860647479056,-1.544633432245958e-05,10416.96439425,0.3323756663486074,0.2065760576461111,-1.137776582438583,0.01935015618801117,-0.003009486477822065,0.004344313405454159,0.001411678618751466,0.00748888636007905,-0.000532058475073427,XArbitraryCorrectedZVertical,-0.5428121488066,-0.002969465679391112,0.08385022586833348,0.8356526150281393,0.08606696128845215,0.9077027440071106,-0.4106923043727875,-1.660943031311035,52.42025756835938,-1.626951217651367,1,10416.54773425,stationary,1,2016-03-02 02:34:43.129,null,0,0,0,0,null,10417.00171425,0,0.2667847,97.41119,192.168.1.101,100.78.239.175,2,1,0.42,0
2016-03-02 02:34:43.636,29,234B9614-18C8-49ED-8B56-CAB6C4F40872,my_iOS_device_1,1456907683.000058,40.79923387620672,-96.68571752505068,371.5601,0,-1,3,5,-9999,1456907683.615207,0.1486167907714844,51.45864868164062,-1.2264404296875,12.37063503265381,9.093499183654785,25,10417.04034625,0.0846099853515625,0.9181671142578125,-0.4191436767578125,10417.03442325,-0.01056955373430648,0.03082182855992305,-0.003366501933969165,10416.99940525,0.3325231843201533,0.2067230181098905,-1.137017033112546,0.01825952343642712,0.0001860024203779176,0.006458392832428217,0.002049071015790105,0.01061548292636871,-0.006034614983946085,XArbitraryCorrectedZVertical,-0.5425076828728627,-0.002874612184310714,0.08393820489837173,0.8358418082311649,0.08626879751682281,0.9073837995529175,-0.4113543033599854,-1.652595520019531,52.41962051391602,-1.655637741088867,1,10416.54773425,stationary,1,2016-03-02 02:34:43.129,null,0,0,0,0,null,10417.00171425,0,0.2667847,97.41119,192.168.1.101,100.78.239.175,2,1,0.42,0
2016-03-02 02:34:43.669,30,234B9614-18C8-49ED-8B56-CAB6C4F40872,my_iOS_device_1,1456907683.000058,40.79923387620672,-96.68571752505068,371.5601,0,-1,3,5,-9999,1456907683.615207,0.1486167907714844,51.45864868164062,-1.2264404296875,12.37063503265381,9.093499183654785,25,10417.07064625,0.0864410400390625,0.9144744873046875,-0.416717529296875,10417.03442325,-0.01056955373430648,0.03082182855992305,-0.003366501933969165,10417.03442325,0.3326170032312039,0.2067798022762955,-1.136374376296656,0.007667743135243654,0.0001693873346084729,0.003107321448624134,0.0005021987017244101,0.01073319278657436,-0.007772962562739849,XArbitraryCorrectedZVertical,-0.542247236273375,-0.002814134632723111,0.08401805263722786,0.8360029797980395,0.08641186356544495,0.9071134924888611,-0.411920040845871,-1.633869171142578,52.41825103759766,-1.716455459594727,1,10416.54773425,stationary,1,2016-03-02 02:34:43.129,null,0,0,0,0,null,10417.00171425,0,0.2667847,97.41119,192.168.1.101,100.78.239.175,2,1,0.42,0
2016-03-02 02:34:43.695,31,234B9614-18C8-49ED-8B56-CAB6C4F40872,my_iOS_device_1,1456907683.000058,40.79923387620672,-96.68571752505068,371.5601,0,-1,3,5,-9999,1456907683.672026,-0.05952644348144531,51.3890380859375,-1.09429931640625,12.35887813568115,9.081742286682129,25,10417.10094725,0.0888519287109375,0.917724609375,-0.416900634765625,10417.06941925,-0.01801521950995002,0.03081623592163389,-0.003474626274226382,10417.06941925,0.3324949382786745,0.2066051104174841,-1.136164110605257,0.0002365210093557835,0.0001481820509070531,0.003010855754837394,-0.001311279484070837,0.008029351942241192,-0.006365759298205376,XArbitraryCorrectedZVertical,-0.5421541066403193,-0.002833722612818079,0.08403271514269506,0.8360618382960292,0.0863790288567543,0.9070249795913696,-0.4121218025684357,-1.634811878204346,52.41790008544922,-1.726306915283203,1,10416.54773425,stationary,1,2016-03-02 02:34:43.129,null,0,0,0,0,null,10417.00171425,0,0.2667847,97.41119,192.168.1.101,100.78.239.175,2,1,0.42,0
2016-03-02 02:34:43.725,32,234B9614-18C8-49ED-8B56-CAB6C4F40872,my_iOS_device_1,1456907683.000058,40.79923387620672,-96.68571752505068,371.5601,0,-1,3,5,-9999,1456907683.672026,-0.05952644348144531,51.3890380859375,-1.09429931640625,12.35887813568115,9.081742286682129,25,10417.13124425,0.0881805419921875,0.9168853759765625,-0.41650390625,10417.10441925,-0.01587563589018036,0.02762470367128293,-0.004507666461068118,10417.10441925,0.3327144039065165,0.2068089619018819,-1.136112450605016,0.002375802723690867,-0.003043074626475573,0.001977799227461219,0.002379268873482943,0.01072139479219913,-0.004750604741275311,XArbitraryCorrectedZVertical,-0.542141243691465,-0.002802998594303067,0.08407370346997603,0.8360661621381366,0.08647266030311584,0.9070032238960266,-0.4121500253677368,-1.633958339691162,52.41773223876953,-1.732074737548828,1,10416.54773425,stationary,1,2016-03-02 02:34:43.129,null,0,0,0,0,null,10417.00171425,0,0.2667847,97.41119,192.168.1.101,100.78.239.175,2,1,0.42,0
2016-03-02 02:34:43.772,33,234B9614-18C8-49ED-8B56-CAB6C4F40872,my_iOS_device_1,1456907683.000058,40.79923387620672,-96.68571752505068,371.5601,0,-1,3,5,-9999,1456907683.730317,-0.1982860565185547,52.1546630859375,-1.0281982421875,12.35497951507568,9.07784366607666,25,10417.16154425,0.086578369140625,0.91705322265625,-0.4185943603515625,10417.13946525,-0.01482581778847112,0.02869183232007768,-0.003427222006822972,10417.13946525,0.332876462235789,0.2068938556497056,-1.13597045275232,0.003425773000344634,-0.001975646475329995,0.003058503847569227,0.001646437798626721,0.009941969066858292,-0.004235176835209131,XArbitraryCorrectedZVertical,-0.5420865320677768,-0.002797687770703928,0.08413082546120149,0.8360959089130169,0.08653410524129868,0.9069433808326721,-0.412268728017807,-1.628453254699707,52.41783905029297,-1.734052658081055,1,10416.54773425,stationary,1,2016-03-02 02:34:43.129,null,0,0,0,0,null,10417.00171425,0,0.2667847,97.41119,192.168.1.101,100.78.239.175,2,1,0.42,0
2016-03-02 02:34:43.785,34,234B9614-18C8-49ED-8B56-CAB6C4F40872,my_iOS_device_1,1456907683.000058,40.79923387620672,-96.68571752505068,371.5601,0,-1,3,5,-9999,1456907683.730317,-0.1982860565185547,52.1546630859375,-1.0281982421875,12.35497951507568,9.07784366607666,25,10417.19185225,0.08935546875,0.91448974609375,-0.4205169677734375,10417.17447725,-0.01485271571548092,0.03188789194428177,-0.001297758399195613,10417.13946525,0.332876462235789,0.2068938556497056,-1.13597045275232,0.003425773000344634,-0.001975646475329995,0.003058503847569227,0.001646437798626721,0.009941969066858292,-0.004235176835209131,XArbitraryCorrectedZVertical,-0.5420865320677768,-0.002797687770703928,0.08413082546120149,0.8360959089130169,0.08653410524129868,0.9069433808326721,-0.412268728017807,-1.628453254699707,52.41783905029297,-1.734052658081055,1,10417.19278425,unknown,1,2016-03-02 02:34:43.776,null,0,0,0,0,null,10417.00171425,0,0.2667847,97.41119,192.168.1.101,100.78.239.175,2,1,0.42,0
2016-03-02 02:34:43.815,35,234B9614-18C8-49ED-8B56-CAB6C4F40872,my_iOS_device_1,1456907683.000058,40.79923387620672,-96.68571752505068,371.5601,0,-1,3,5,-9999,1456907683.789141,-0.3023567199707031,52.60710144042969,-1.259521484375,12.35922431945801,9.082088470458984,25,10417.22212525,0.0874176025390625,0.914825439453125,-0.4177093505859375,10417.20948925,-0.02325632053522595,0.03611459491034653,-0.008882174867632275,10417.17447725,0.3331062514133689,0.2071389984925298,-1.135763460316856,0.003398832166567445,0.001220518373884261,0.005187632981687784,-0.0002479920512996614,0.008045542053878307,-0.007368592545390129,XArbitraryCorrectedZVertical,-0.5420119005423194,-0.002737427563727048,0.08417851793808767,0.8361396912469717,0.08667377382516861,0.9068561792373657,-0.4124312102794647,-1.617022037506104,52.41779708862305,-1.745931625366211,1,10417.19278425,unknown,1,2016-03-02 02:34:43.776,null,0,0,0,0,null,10417.00171425,0,0.2667847,97.41119,192.168.1.101,100.78.239.175,2,1,0.42,0
2016-03-02 02:34:43.851,36,234B9614-18C8-49ED-8B56-CAB6C4F40872,my_iOS_device_1,1456907683.000058,40.79923387620672,-96.68571752505068,371.5601,0,-1,3,5,-9999,1456907683.848021,-0.3717365264892578,52.05026245117188,-0.9290771484375,12.36311435699463,9.085978507995605,25,10417.25243025,0.088531494140625,0.9171905517578125,-0.4154510498046875,10417.24450625,-0.02114922748075526,0.02867532072131919,-0.007782023021320542,10417.20948925,0.3333073900307953,0.2074353587377008,-1.135516472347288,-0.005003638565540314,0.00544753298163414,-0.002396309282630682,0.001933510298840702,0.01063684280961752,-0.008868854492902756,XArbitraryCorrectedZVertical,-0.541923122687077,-0.002644080416038677,0.08420387893151354,0.8361949800786447,0.0868421271443367,0.9067520499229431,-0.4126246869564056,-1.611320018768311,52.41762161254883,-1.756565093994141,1,10417.19278425,unknown,1,2016-03-02 02:34:43.776,null,0,0,0,0,null,10417.00171425,0,0.2667847,97.41119,192.168.1.101,100.78.239.175,2,1,0.42,0
2016-03-02 02:34:43.875,37,234B9614-18C8-49ED-8B56-CAB6C4F40872,my_iOS_device_1,1456907683.000058,40.79923387620672,-96.68571752505068,371.5601,0,-1,3,5,-9999,1456907683.848021,-0.3717365264892578,52.05026245117188,-0.9290771484375,12.36311435699463,9.085978507995605,25,10417.28273325,0.0875244140625,0.915924072265625,-0.4158935546875,10417.24450625,-0.02114922748075526,0.02867532072131919,-0.007782023021320542,10417.24450625,0.3330502058135074,0.2072776203120221,-1.135731349562857,-0.002862404799088836,-0.002008807845413685,-0.001281952019780874,0.0003754895878955722,0.008547356352210045,-0.002331973286345601,XArbitraryCorrectedZVertical,-0.5420046801139287,-0.002661172565233629,0.08412032396618503,0.8361504744906848,0.08673693984746933,0.9068426489830017,-0.4124476909637451,-1.613203525543213,52.41751480102539,-1.757926940917969,1,10417.19278425,unknown,1,2016-03-02 02:34:43.776,null,0,0,0,0,null,10417.00171425,0,0.2667847,97.41119,192.168.1.101,100.78.239.175,2,1,0.42,0
2016-03-02 02:34:43.910,38,234B9614-18C8-49ED-8B56-CAB6C4F40872,my_iOS_device_1,1456907683.000058,40.79923387620672,-96.68571752505068,371.5601,0,-1,3,5,-9999,1456907683.907183,-0.5451869964599609,51.87623596191406,-0.433349609375,12.37278366088867,9.095647811889648,25,10417.31303925,0.086151123046875,0.91754150390625,-0.4188995361328125,10417.27952025,-0.0211907727937605,0.03187430982272237,-0.00458702866155248,10417.27952025,0.3332338510592388,0.2075033013012839,-1.135821189584794,-0.002904308494180441,0.001190543756820261,0.00191333144903183,0.002160767326131463,0.009760715998709202,-0.004170785192400217,XArbitraryCorrectedZVertical,-0.5420506599430275,-0.002625304339354192,0.08412808753409437,0.8361200001915436,0.08681323379278183,0.9068804979324341,-0.4123483896255493,-1.617045402526855,52.41761016845703,-1.751564025878906,1,10417.19278425,unknown,1,2016-03-02 02:34:43.776,null,0,0,0,0,null,10417.00171425,0,0.2667847,97.41119,192.168.1.101,100.78.239.175,2,1,0.42,0
2016-03-02 02:34:43.936,39,234B9614-18C8-49ED-8B56-CAB6C4F40872,my_iOS_device_1,1456907683.000058,40.79923387620672,-96.68571752505068,371.5601,0,-1,3,5,-9999,1456907683.907183,-0.5451869964599609,51.87623596191406,-0.433349609375,12.37278366088867,9.095647811889648,25,10417.34331025,0.0873565673828125,0.9165496826171875,-0.4193572998046875,10417.31453225,-0.02012470940940178,0.03506530944085531,-0.004573180223884068,10417.31453225,0.3334017733125373,0.2076865286696897,-1.135884152812659,-0.001838531112298369,0.004381751641631126,0.001927024335600436,-0.0007258867844939232,0.01063445396721363,-0.00662294402718544,XArbitraryCorrectedZVertical,-0.5420838884839916,-0.002600327040628867,0.08414312171796533,0.8360970226073705,0.0868770107626915,0.9069070219993591,-0.4122765958309174,-1.615385055541992,52.41779327392578,-1.747550964355469,1,10417.19278425,unknown,1,2016-03-02 02:34:43.776,null,0,0,0,0,null,10417.00171425,0,0.2667847,97.41119,192.168.1.101,100.78.239.175,2,1,0.42,0
2016-03-02 02:34:43.967,40,234B9614-18C8-49ED-8B56-CAB6C4F40872,my_iOS_device_1,1456907683.000058,40.79923387620672,-96.68571752505068,371.5601,0,-1,3,5,-9999,1456907683.964972,-0.1635932922363281,51.56297302246094,-0.66461181640625,12.36820316314697,9.091067314147949,25,10417.37362325,0.08587646484375,0.9155731201171875,-0.4162445068359375,10417.34953525,-0.02222434561282025,0.03293105214326581,-0.006734069132374362,10417.34953525,0.3333708342005992,0.20772104910133,-1.135886734277975,-0.003937778528779745,0.002247646916657686,-0.0002338744961889461,0.000465808465378359,0.009641545824706554,-0.007085997611284256,XArbitraryCorrectedZVertical,-0.5420864359637561,-0.002577760545663243,0.08412060534495279,0.836097706521838,0.08689075708389282,0.9069081544876099,-0.4122712910175323,-1.610034465789795,52.41815185546875,-1.741783142089844,1,10417.19278425,unknown,1,2016-03-02 02:34:43.776,null,0,0,0,0,null,10417.00171425,0,0.2667847,97.41119,192.168.1.101,100.78.239.175,2,1,0.42,0
2016-03-02 02:34:44.012,41,234B9614-18C8-49ED-8B56-CAB6C4F40872,my_iOS_device_1,1456907683.000058,40.79923387620672,-96.68571752505068,371.5601,0,-1,3,5,-9999,1456907683.964972,-0.1635932922363281,51.56297302246094,-0.66461181640625,12.36820316314697,9.091067314147949,25,10417.40391825,0.08795166015625,0.915679931640625,-0.4153594970703125,10417.38454725,-0.0190634397150052,0.03187590771937641,-0.004556135992907561,10417.38454725,0.3333143098591936,0.2076716421102185,-1.135916827562585,-0.0007497276528738439,0.001172952470369637,0.001961251487955451,-4.225283919367939e-05,0.007599447853863239,-0.002484997734427452,XArbitraryCorrectedZVertical,-0.5420967330594093,-0.002586014719755256,0.08410773486606414,0.8360922996116409,0.08686476200819016,0.9069207906723022,-0.4122488796710968,-1.612200736999512,52.41804885864258,-1.742944717407227,1,10417.19278425,unknown,1,2016-03-02 02:34:43.776,null,0,0,0,0,null,10417.00171425,0,0.2667847,97.41119,192.168.1.101,100.78.239.175,2,1,0.42,0
2016-03-02 02:34:44.027,42,234B9614-18C8-49ED-8B56-CAB6C4F40872,my_iOS_device_1,1456907683.000058,40.79923387620672,-96.68571752505068,371.5601,0,-1,3,5,-9999,1456907684.024455,0.1486225128173828,51.66738891601562,-0.96209716796875,12.3516674041748,9.074531555175781,25,10417.43422225,0.0890655517578125,0.9147491455078125,-0.41741943359375,10417.41954625,-0.02011405676504146,0.02974537884731303,-0.005636047814934692,10417.38454725,0.3333143098591936,0.2076716421102185,-1.135916827562585,-0.0007497276528738439,0.001172952470369637,0.001961251487955451,-4.225283919367939e-05,0.007599447853863239,-0.002484997734427452,XArbitraryCorrectedZVertical,-0.5420967330594093,-0.002586014719755256,0.08410773486606414,0.8360922996116409,0.08686476200819016,0.9069207906723022,-0.4122488796710968,-1.612200736999512,52.41804885864258,-1.742944717407227,1,10417.19278425,unknown,1,2016-03-02 02:34:43.776,null,0,0,0,0,null,10417.00171425,0,0.2667847,97.41119,192.168.1.101,100.78.239.175,2,1,0.42,0
2016-03-02 02:34:44.094,43,234B9614-18C8-49ED-8B56-CAB6C4F40872,my_iOS_device_1,1456907684.000058,40.79923387620672,-96.68571752505068,371.773,0,-1,3,5,-9999,1456907684.083816,0.1139316558837891,51.77180480957031,-0.5986328125,12.32732391357422,9.050188064575195,25,10417.46451925,0.0865478515625,0.917724609375,-0.4172821044921875,10417.45459225,-0.02221289402013291,0.02867452177299216,-0.007797469355643002,10417.41954625,0.3334788343664837,0.207809142033962,-1.135902548710636,-0.001800260972231627,-0.0009573887218721211,0.0008813454769551754,0.00108857755549252,0.007651239633560181,-0.004559469409286976,XArbitraryCorrectedZVertical,-0.5420964673752613,-0.002571741676664933,0.08414049361711604,0.8360892198431197,0.08692412078380585,0.9069147706031799,-0.4122496247291565,-1.61008358001709,52.41815185546875,-1.741622924804688,1,10417.19278425,unknown,1,2016-03-02 02:34:43.776,null,0,0,0,0,null,10417.00171425,0,0.2667847,97.41119,192.168.1.101,100.78.239.175,2,1,0.42,0
2016-03-02 02:34:44.095,44,234B9614-18C8-49ED-8B56-CAB6C4F40872,my_iOS_device_1,1456907684.000058,40.79923387620672,-96.68571752505068,371.773,0,-1,3,5,-9999,1456907684.083816,0.1139316558837891,51.77180480957031,-0.5986328125,12.32732391357422,9.050188064575195,25,10417.49480025,0.0874786376953125,0.9174957275390625,-0.417083740234375,10417.48960525,-0.01584154742822734,0.0339992460564966,-0.00664192375865762,10417.45459225,0.3334864753347642,0.2077630642610691,-1.135952357934141,-0.003898829687386751,-0.002028052695095539,-0.001280160387977958,7.929352432256564e-05,0.009537604637444019,-0.005057430360466242,XArbitraryCorrectedZVertical,-0.5421148800123707,-0.002597910909162655,0.08415181885814714,0.8360760606015126,0.08689580112695694,0.9069358110427856,-0.4122094213962555,-1.609141826629639,52.4182014465332,-1.74107551574707,1,10417.19278425,unknown,1,2016-03-02 02:34:43.776,null,0,0,0,0,null,10417.00171425,0,0.2667847,97.41119,192.168.1.101,100.78.239.175,2,1,0.42,0
2016-03-02 02:34:44.119,45,234B9614-18C8-49ED-8B56-CAB6C4F40872,my_iOS_device_1,1456907684.000058,40.79923387620672,-96.68571752505068,371.773,0,-1,3,5,-9999,1456907684.083816,0.1139316558837891,51.77180480957031,-0.5986328125,12.32732391357422,9.050188064575195,25,10417.52511025,0.085235595703125,0.913787841796875,-0.420379638671875,10417.52460025,-0.01479732196480727,0.02762257314241087,-0.005557750878886362,10417.48960525,0.3333359492816353,0.2076174143828286,-1.135937365707529,0.002472487278282642,0.003296740353107452,-0.0001249512570211664,-1.605791476322338e-05,0.008750462904572487,-0.004894144367426634,XArbitraryCorrectedZVertical,-0.5421028200535096,-0.002616542596034208,0.08412968336685007,0.836086049740974,0.08683856576681137,0.9069294929504395,-0.4122353792190552,-1.611062526702881,52.41825866699219,-1.73756217956543,1,10417.19278425,unknown,1,2016-03-02 02:34:43.776,null,0,0,0,0,null,10417.00171425,0,0.2667847,97.41119,192.168.1.101,100.78.239.175,2,1,0.42,0
2016-03-02 02:34:44.172,46,234B9614-18C8-49ED-8B56-CAB6C4F40872,my_iOS_device_1,1456907684.000058,40.79923387620672,-96.68571752505068,371.773,0,-1,3,5,-9999,1456907684.145593,-0.02483177185058594,51.70219421386719,-0.59857177734375,12.31557655334473,9.038440704345703,25,10417.55537725,0.086395263671875,0.91522216796875,-0.4173736572265625,10417.55963325,-0.02120462123142891,0.0329406395231901,-0.003522030541629792,10417.52460025,0.3331749015445471,0.2074677893405211,-1.135819857535449,0.003516636323183775,-0.003079859539866447,0.0009589506662450731,-0.0008765960810706019,0.008677903562784195,-0.003479875158518553,XArbitraryCorrectedZVertical,-0.5420486990868605,-0.002624044516957899,0.08411318410994117,0.8361227747570923,0.08679883927106857,0.9068799614906311,-0.4123526513576508,-1.612910747528076,52.41811370849609,-1.740291595458984,1,10417.19278425,unknown,1,2016-03-02 02:34:43.776,null,0,0,0,0,null,10417.00171425,0,0.2667847,97.41119,192.168.1.101,100.78.239.175,2,1,0.42,0
2016-03-02 02:34:44.178,47,234B9614-18C8-49ED-8B56-CAB6C4F40872,my_iOS_device_1,1456907684.000058,40.79923387620672,-96.68571752505068,371.773,0,-1,3,5,-9999,1456907684.145593,-0.02483177185058594,51.70219421386719,-0.59857177734375,12.31557655334473,9.038440704345703,25,10417.58569525,0.0879974365234375,0.9170989990234375,-0.416961669921875,10417.55963325,-0.02120462123142891,0.0329406395231901,-0.003522030541629792,10417.55963325,0.3331255658437821,0.2074068153182437,-1.135681436856883,-0.002850620076060295,0.002218173583969474,0.003011563327163458,-0.00040427953354083,0.008400547318160534,-0.004892884287983179,XArbitraryCorrectedZVertical,-0.5419896076878905,-0.002622742578632416,0.08412117892864095,0.8361602798718348,0.08679953962564468,0.906821608543396,-0.4124807715415955,-1.614799022674561,52.4175910949707,-1.754135131835938,1,10417.19278425,unknown,1,2016-03-02 02:34:43.776,null,0,0,0,0,null,10417.00171425,0,0.2667847,97.41119,192.168.1.101,100.78.239.175,2,1,0.42,0
2016-03-02 02:34:44.222,48,234B9614-18C8-49ED-8B56-CAB6C4F40872,my_iOS_device_1,1456907684.000058,40.79923387620672,-96.68571752505068,371.773,0,-1,3,5,-9999,1456907684.208694,-0.2329769134521484,51.42378234863281,-0.73077392578125,12.31278324127197,9.035647392272949,25,10417.61599325,0.0872344970703125,0.91668701171875,-0.418060302734375,10417.59464625,-0.02012710625438285,0.0318751087710494,-0.00457158232723002,10417.59464625,0.3332180923671123,0.2075498165697223,-1.135836095434551,-0.001773325260728598,0.001152680837549269,0.001961646601557732,0.001167809823527932,0.010212198831141,-0.004630556795746088,XArbitraryCorrectedZVertical,-0.542058730730006,-0.002603033018306567,0.08410758954743916,0.8361168997448838,0.08682962507009506,0.9068868160247803,-0.4123311042785645,-1.615202903747559,52.41765594482422,-1.751947402954102,1,10417.19278425,unknown,1,2016-03-02 02:34:43.776,null,0,0,0,0,null,10417.00171425,0,0.2667847,97.41119,192.168.1.101,100.78.239.175,2,1,0.42,0
2016-03-02 02:34:44.251,49,234B9614-18C8-49ED-8B56-CAB6C4F40872,my_iOS_device_1,1456907684.000058,40.79923387620672,-96.68571752505068,371.773,0,-1,3,5,-9999,1456907684.208694,-0.2329769134521484,51.42378234863281,-0.73077392578125,12.31278324127197,9.035647392272949,25,10417.64629025,0.089141845703125,0.916473388671875,-0.4180755615234375,10417.62965725,-0.01587403799352631,0.02975150411782021,-0.00450873172550415,10417.59464625,0.3332180923671123,0.2075498165697223,-1.135836095434551,-0.001773325260728598,0.001152680837549269,0.001961646601557732,0.001167809823527932,0.010212198831141,-0.004630556795746088,XArbitraryCorrectedZVertical,-0.542058730730006,-0.002603033018306567,0.08410758954743916,0.8361168997448838,0.08682962507009506,0.9068868160247803,-0.4123311042785645,-1.615202903747559,52.41765594482422,-1.751947402954102,1,10417.19278425,unknown,1,2016-03-02 02:34:43.776,null,0,0,0,0,null,10417.00171425,0,0.2667847,97.41119,192.168.1.101,100.78.239.175,2,1,0.42,0
2016-03-02 02:34:44.269,50,234B9614-18C8-49ED-8B56-CAB6C4F40872,my_iOS_device_1,1456907684.000058,40.79923387620672,-96.68571752505068,371.773,0,-1,3,5,-9999,1456907684.26035,-0.2329769134521484,51.70219421386719,-1.1934814453125,12.31252479553223,9.035388946533203,25,10417.67657025,0.0884857177734375,0.91326904296875,-0.4180450439453125,10417.66467625,-0.01376055335243942,0.03081943171494199,-0.003412840936936544,10417.62965725,0.3334088078342662,0.2077424499848289,-1.135839069907619,0.002479465445503592,-0.0009706422570161521,0.002024494344368577,0.001668773009441793,0.01050086226314306,-0.003948025871068239,XArbitraryCorrectedZVertical,-0.542067802142813,-0.00257447994661145,0.08413484948076194,0.8361083644097277,0.0869084969162941,0.9068880677223206,-0.4123117327690125,-1.612606048583984,52.41802597045898,-1.74322509765625,1,10417.19278425,unknown,1,2016-03-02 02:34:43.776,null,0,0,0,0,null,10417.00171425,0,0.2667847,97.41119,192.168.1.101,100.78.239.175,2,1,0.42,0
2016-03-02 02:34:44.333,51,234B9614-18C8-49ED-8B56-CAB6C4F40872,my_iOS_device_1,1456907684.000058,40.79923387620672,-96.68571752505068,371.773,0,-1,3,5,-9999,1456907684.298091,-0.4758071899414062,51.59779357910156,-0.8961181640625,12.31893062591553,9.041794776916504,25,10417.70686625,0.088104248046875,0.9147796630859375,-0.4151458740234375,10417.69968825,-0.01480637671251354,0.03506930418249044,-0.00449594855227177,10417.66467625,0.3336900777263324,0.2079918302147666,-1.135600535102926,0.004593375138938427,9.757879888638854e-05,0.003120680805295706,0.00175016769208014,0.008495686575770378,-0.005848515778779984,XArbitraryCorrectedZVertical,-0.5419804249018959,-0.002523286087308074,0.08420573170090442,0.8361580274082122,0.08705598115921021,0.9067875146865845,-0.4125016927719116,-1.610171318054199,52.41803741455078,-1.745096206665039,1,10417.19278425,unknown,1,2016-03-02 02:34:43.776,null,0,0,0,0,null,10417.00171425,0,0.2667847,97.41119,192.168.1.101,100.78.239.175,2,1,0.42,0
2016-03-02 02:34:44.334,52,234B9614-18C8-49ED-8B56-CAB6C4F40872,my_iOS_device_1,1456907684.000058,40.79923387620672,-96.68571752505068,371.773,0,-1,3,5,-9999,1456907684.298091,-0.4758071899414062,51.59779357910156,-0.8961181640625,12.31893062591553,9.041794776916504,25,10417.73717625,0.0897674560546875,0.9145965576171875,-0.4160308837890625,10417.69968825,-0.01480637671251354,0.03506930418249044,-0.00449594855227177,10417.69968825,0.333897565850156,0.2082308459215994,-1.135376555547057,0.003606042359024286,0.004330276511609554,0.002051153453066945,0.001258638687431812,0.008666430599987507,-0.002527320524677634,XArbitraryCorrectedZVertical,-0.5418986665517319,-0.002457810081275018,0.08424733552523901,0.8362070203101333,0.08719655871391296,0.9066930413246155,-0.4126795828342438,-1.600806713104248,52.41790008544922,-1.757900238037109,1,10417.19278425,unknown,1,2016-03-02 02:34:43.776,null,0,0,0,0,null,10417.00171425,0,0.2667847,97.41119,192.168.1.101,100.78.239.175,2,1,0.42,0
2016-03-02 02:34:44.361,53,234B9614-18C8-49ED-8B56-CAB6C4F40872,my_iOS_device_1,1456907684.000058,40.79923387620672,-96.68571752505068,371.773,0,-1,3,5,-9999,1456907684.347372,-0.4064273834228516,51.73703002929688,-0.89605712890625,12.33078765869141,9.053651809692383,25,10417.76747025,0.0870513916015625,0.9136199951171875,-0.419952392578125,10417.73470025,-0.01268064153041229,0.0329441016326072,-0.004463990619190819,10417.73470025,0.3341399987523601,0.2085707395919437,-1.135243643224855,0.005731239449232817,0.002205415396019816,0.002083327854052186,0.002100504236295819,0.01084347162395716,-0.002271239878609776,XArbitraryCorrectedZVertical,-0.541858357058281,-0.002368453027149308,0.08426826298615034,0.8362312904750993,0.08736177533864975,0.9066370129585266,-0.4127678275108337,-1.592739582061768,52.41780853271484,-1.767885208129883,1,10417.19278425,unknown,1,2016-03-02 02:34:43.776,null,0,0,0,0,null,10417.00171425,0,0.2667847,97.41119,192.168.1.101,100.78.239.175,2,1,0.42,0
2016-03-02 02:34:44.412,54,234B9614-18C8-49ED-8B56-CAB6C4F40872,my_iOS_device_1,1456907684.000058,40.79923387620672,-96.68571752505068,371.773,0,-1,3,5,-9999,1456907684.406185,-1.030851364135742,51.87625122070312,-0.49951171875,12.36926460266113,9.092128753662109,25,10417.79776725,0.090911865234375,0.921966552734375,-0.4207916259765625,10417.76970225,-0.02328641425554385,0.03505705364147606,-0.006750580731132853,10417.73470025,0.3341399987523601,0.2085707395919437,-1.135243643224855,0.005731239449232817,0.002205415396019816,0.002083327854052186,0.002100504236295819,0.01084347162395716,-0.002271239878609776,XArbitraryCorrectedZVertical,-0.541858357058281,-0.002368453027149308,0.08426826298615034,0.8362312904750993,0.08736177533864975,0.9066370129585266,-0.4127678275108337,-1.592739582061768,52.41780853271484,-1.767885208129883,1,10417.19278425,unknown,1,2016-03-02 02:34:43.776,null,0,0,0,0,null,10417.00171425,0,0.2667847,97.41119,192.168.1.101,100.78.239.175,2,1,0.42,0
2016-03-02 02:34:44.421,55,234B9614-18C8-49ED-8B56-CAB6C4F40872,my_iOS_device_1,1456907684.000058,40.79923387620672,-96.68571752505068,371.773,0,-1,3,5,-9999,1456907684.406185,-1.030851364135742,51.87625122070312,-0.49951171875,12.36926460266113,9.092128753662109,25,10417.82806425,0.089508056640625,0.9175567626953125,-0.4122467041015625,10417.80473025,-0.02116227697009665,0.03080505064505555,-0.00671755753361587,10417.76970225,0.3342384037275681,0.208750438827451,-1.135150461660807,-0.004873873200267553,0.004318600054830313,-0.0002031845651799813,-0.0004020644992124289,0.007022316101938486,-0.007117629516869783,XArbitraryCorrectedZVertical,-0.5418277199826008,-0.002310906644040009,0.08426890117827779,0.8362512384822751,0.0874534547328949,0.9065976738929749,-0.4128347635269165,-1.584187030792236,52.41780853271484,-1.775432586669922,1,10417.19278425,unknown,1,2016-03-02 02:34:43.776,null,0,0,0,0,null,10417.00171425,0,0.2667847,97.41119,192.168.1.101,100.78.239.175,2,1,0.42,0
2016-03-02 02:34:44.460,56,234B9614-18C8-49ED-8B56-CAB6C4F40872,my_iOS_device_1,1456907684.000058,40.79923387620672,-96.68571752505068,371.773,0,-1,3,5,-9999,1456907684.406185,-1.030851364135742,51.87625122070312,-0.49951171875,12.36926460266113,9.092128753662109,25,10417.85835625,0.0881500244140625,0.909637451171875,-0.4128875732421875,10417.83972425,-0.006274940160444701,0.02549923480529069,-0.006498645692011357,10417.83972425,0.3344893463299132,0.2088997455138997,-1.135177920367863,0.01213664561510086,-0.005238519981503487,4.909635754302144e-05,0.002959428820759058,0.007590563036501408,0.001420395099557936,XArbitraryCorrectedZVertical,-0.5418449478413288,-0.00231913769071078,0.0843309644800545,0.8362337965719018,0.08750993013381958,0.9066092371940613,-0.4127973616123199,-1.584078788757324,52.41783905029297,-1.774713516235352,1,10417.84048925,stationary,1,2016-03-02 02:34:44.422,null,0,0,0,0,null,10417.00171425,0,0.2667847,97.41119,192.168.1.101,100.78.239.175,2,1,0.42,0
2016-03-02 02:34:44.492,57,234B9614-18C8-49ED-8B56-CAB6C4F40872,my_iOS_device_1,1456907684.000058,40.79923387620672,-96.68571752505068,371.773,0,-1,3,5,-9999,1456907684.465003,-0.8227119445800781,52.36349487304688,-0.83001708984375,12.40180969238281,9.124673843383789,25,10417.88865625,0.08831787109375,0.914581298828125,-0.4196319580078125,10417.87475525,-0.004188353446367618,0.02976322202661656,-0.003273291295816392,10417.83972425,0.3344893463299132,0.2088997455138997,-1.135177920367863,0.01213664561510086,-0.005238519981503487,4.909635754302144e-05,0.002959428820759058,0.007590563036501408,0.001420395099557936,XArbitraryCorrectedZVertical,-0.5418449478413288,-0.00231913769071078,0.0843309644800545,0.8362337965719018,0.08750993013381958,0.9066092371940613,-0.4127973616123199,-1.584078788757324,52.41783905029297,-1.774713516235352,1,10417.84048925,stationary,1,2016-03-02 02:34:44.422,null,0,0,0,0,null,10417.00171425,0,0.2667847,97.41119,192.168.1.101,100.78.239.175,2,1,0.42,0
2016-03-02 02:34:44.512,58,234B9614-18C8-49ED-8B56-CAB6C4F40872,my_iOS_device_1,1456907684.000058,40.79923387620672,-96.68571752505068,371.773,0,-1,3,5,-9999,1456907684.465003,-0.8227119445800781,52.36349487304688,-0.83001708984375,12.40180969238281,9.124673843383789,25,10417.91895025,0.0868072509765625,0.9152374267578125,-0.4221038818359375,10417.87475525,-0.004188353446367618,0.02976322202661656,-0.003273291295816392,10417.87475525,0.3345183906146503,0.2088114569440046,-1.134693512670833,0.01428005937486887,-0.000992173096165061,0.003285922575742006,-0.0007725218310952187,0.005201081279665232,-0.002597866347059608,XArbitraryCorrectedZVertical,-0.5416431539350388,-0.00231672623125038,0.08440957102486736,0.8363565931432987,0.08756451308727264,0.9064047336578369,-0.4132346510887146,-1.577672004699707,52.41788864135742,-1.778905868530273,1,10417.84048925,stationary,1,2016-03-02 02:34:44.422,null,0,0,0,0,null,10417.00171425,0,0.2667847,97.41119,192.168.1.101,100.78.239.175,2,1,0.42,0
2016-03-02 02:34:44.542,59,234B9614-18C8-49ED-8B56-CAB6C4F40872,my_iOS_device_1,1456907684.000058,40.79923387620672,-96.68571752505068,371.773,0,-1,3,5,-9999,1456907684.52336,-0.4064273834228516,52.36349487304688,-1.3587646484375,12.42297077178955,9.145834922790527,25,10417.94924525,0.0845794677734375,0.9141845703125,-0.4192962646484375,10417.90975425,-0.01585619481422278,0.03400217553369568,-0.005576393006516917,10417.90975425,0.3342664477007151,0.2084593088035576,-1.134256603808324,0.002613011747598648,0.003246632637456059,0.0009821105049923062,-0.001059897127561271,0.00968870148062706,-0.006574184168130159,XArbitraryCorrectedZVertical,-0.5414499321097861,-0.002353231917771784,0.08443790331548084,0.8364787348172867,0.08750093728303909,0.9062201380729675,-0.4136528670787811,-1.574488162994385,52.41743469238281,-1.795137405395508,1,10417.84048925,stationary,1,2016-03-02 02:34:44.422,null,0,0,0,0,null,10417.00171425,0,0.2667847,97.41119,192.168.1.101,100.78.239.175,2,1,0.42,0
