loggingTime,loggingSample,identifierForVendor,deviceID,locationTimestamp_since1970,locationLatitude,locationLongitude,locationAltitude,locationSpeed,locationCourse,locationVerticalAccuracy,locationHorizontalAccuracy,locationFloor,locationHeadingTimestamp_since1970,locationHeadingX,locationHeadingY,locationHeadingZ,locationTrueHeading,locationMagneticHeading,locationHeadingAccuracy,accelerometerTimestamp_sinceReboot,accelerometerAccelerationX,accelerometerAccelerationY,accelerometerAccelerationZ,gyroTimestamp_sinceReboot,gyroRotationX,gyroRotationY,gyroRotationZ,motionTimestamp_sinceReboot,motionYaw,motionRoll,motionPitch,motionRotationRateX,motionRotationRateY,motionRotationRateZ,motionUserAccelerationX,motionUserAccelerationY,motionUserAccelerationZ,motionAttitudeReferenceFrame,motionQuaternionX,motionQuaternionY,motionQuaternionZ,motionQuaternionW,motionGravityX,motionGravityY,motionGravityZ,motionMagneticFieldX,motionMagneticFieldY,motionMagneticFieldZ,motionMagneticFieldCalibrationAccuracy,activityTimestamp_sinceReboot,activity,activityActivityConfidence,activityActivityStartDate,pedometerStartDate,pedometerNumberofSteps,pedometerDistance,pedometerFloorAscended,pedometerFloorDescended,pedometerEndDate,altimeterTimestamp_sinceReboot,altimeterReset,altimeterRelativeAltitude,altimeterPressure,IP_en0,IP_pdp_ip0,deviceOrientation,batteryState,batteryLevel,state
2016-03-02 02:35:00.838,1,234B9614-18C8-49ED-8B56-CAB6C4F40872,my_iOS_device_1,1456907700.000058,40.79923387620672,-96.68571752505068,371.3362,0,-1,3,5,-9999,1456907700.835328,-0.5167522430419922,49.95867919921875,-2.050048828125,9.002766609191895,5.725630283355713,25,10434.24765725,0.05120849609375,0.9234771728515625,-0.419921875,10434.22625125,-0.07961520078791882,0.03713272139508383,-0.01076689397108135,10434.22625125,0.3003721804251497,0.1093603796125245,-1.121898801401516,-0.06288562715053558,0.006086667999625206,-0.00478692539036274,0.0003341152332723141,0.01212932635098696,-0.001359211746603251,XArbitraryCorrectedZVertical,-0.5321398289065759,-0.03372209132208419,0.09775569742325461,0.8403177057931334,0.04736486077308655,0.9009261131286621,-0.431380033493042,-0.3327574729919434,51.95586013793945,-1.583950042724609,1,10433.34998325,stationary,1,2016-03-02 02:34:59.933,null,0,0,0,0,null,10434.07270125,0,-0.01245117,97.41444,192.168.1.101,100.78.239.175,2,1,0.42,0
2016-03-02 02:35:00.891,2,234B9614-18C8-49ED-8B56-CAB6C4F40872,my_iOS_device_1,1456907700.000058,40.79923387620672,-96.68571752505068,371.3362,0,-1,3,5,-9999,1456907700.835328,-0.5167522430419922,49.95867919921875,-2.050048828125,9.002766609191895,5.725630283355713,25,10434.27795525,0.0504913330078125,0.90362548828125,-0.4353790283203125,10434.26126425,0.003309510286641469,0.02124989496996026,-0.007423028906377861,10434.22625125,0.3003721804251497,0.1093603796125245,-1.121898801401516,-0.06288562715053558,0.006086667999625206,-0.00478692539036274,0.0003341152332723141,0.01212932635098696,-0.001359211746603251,XArbitraryCorrectedZVertical,-0.5321398289065759,-0.03372209132208419,0.09775569742325461,0.8403177057931334,0.04736486077308655,0.9009261131286621,-0.431380033493042,-0.3327574729919434,51.95586013793945,-1.583950042724609,1,10433.34998325,stationary,1,2016-03-02 02:34:59.933,null,0,0,0,0,null,10434.07270125,0,-0.01245117,97.41444,192.168.1.101,100.78.239.175,2,1,0.42,0
2016-03-02 02:35:00.910,3,234B9614-18C8-49ED-8B56-CAB6C4F40872,my_iOS_device_1,1456907700.000058,40.79923387620672,-96.68571752505068,371.3362,0,-1,3,5,-9999,1456907700.894099,-0.27392578125,49.92385864257812,-1.950927734375,8.475101470947266,5.197965621948242,25,10434.30825025,0.0458984375,0.902130126953125,-0.44085693359375,10434.29627225,-0.01473633557584446,0.03080105590342044,-0.009821471784103223,10434.26126425,0.3007243379939327,0.1095757884033248,-1.123351247852674,0.02003153786063194,-0.009795507416129112,-0.001443053944967687,0.001757632591761649,0.01711518876254559,0.006515212822705507,XArbitraryCorrectedZVertical,-0.5327481941779867,-0.03383816979146306,0.09775523859841481,0.8399275285355412,0.04731463268399239,0.9015554785728455,-0.4300686717033386,-0.3448398113250732,51.96055603027344,-1.418855667114258,1,10433.34998325,stationary,1,2016-03-02 02:34:59.933,null,0,0,0,0,null,10434.07270125,0,-0.01245117,97.41444,192.168.1.101,100.78.239.175,2,1,0.42,0
2016-03-02 02:35:00.940,4,234B9614-18C8-49ED-8B56-CAB6C4F40872,my_iOS_device_1,1456907700.000058,40.79923387620672,-96.68571752505068,371.3362,0,-1,3,5,-9999,1456907700.894099,-0.27392578125,49.92385864257812,-1.950927734375,8.475101470947266,5.197965621948242,25,10434.33854025,0.0466766357421875,0.912139892578125,-0.437713623046875,10434.33130525,-0.03383439638502069,0.03609488751827995,-0.01329876121941968,10434.29627225,0.3004982124340708,0.1091647499185282,-1.122709937004289,0.001986270537599921,-0.0002439680829411373,-0.003841066034510732,0.0004828799574170262,-0.003160742111504078,-0.008073222823441029,XArbitraryCorrectedZVertical,-0.5324653675315461,-0.03390078199812395,0.09780992159343375,0.8400979636907202,0.04720083624124527,0.9012777805328369,-0.4306627511978149,-0.3430261611938477,51.96130752563477,-1.39134407043457,1,10433.34998325,stationary,1,2016-03-02 02:34:59.933,null,0,0,0,0,null,10434.07270125,0,-0.01245117,97.41444,192.168.1.101,100.78.239.175,2,1,0.42,0
2016-03-02 02:35:00.971,5,234B9614-18C8-49ED-8B56-CAB6C4F40872,my_iOS_device_1,1456907700.000058,40.79923387620672,-96.68571752505068,371.3362,0,-1,3,5,-9999,1456907700.952372,0.1423511505126953,49.78468322753906,-1.752685546875,7.312650680541992,4.035514354705811,25,10434.36883425,0.04815673828125,0.91290283203125,-0.4346160888671875,10434.33130525,-0.03383439638502069,0.03609488751827995,-0.01329876121941968,10434.33130525,0.2998064553690971,0.1086996650891195,-1.1225681024255,-0.01710831746459007,0.005049717146903276,-0.007318822667002678,-0.001238036318682134,0.008268513716757298,-0.01158635318279266,XArbitraryCorrectedZVertical,-0.532395401345233,-0.03390099673489087,0.09765201877243837,0.8401606645615435,0.04701440408825874,0.9012163281440735,-0.4308117032051086,-0.3437392711639404,51.96073532104492,-1.412338256835938,1,10433.34998325,stationary,1,2016-03-02 02:34:59.933,null,0,0,0,0,null,10434.07270125,0,-0.01245117,97.41444,192.168.1.101,100.78.239.175,2,1,0.42,0
2016-03-02 02:35:00.990,6,234B9614-18C8-49ED-8B56-CAB6C4F40872,my_iOS_device_1,1456907700.000058,40.79923387620672,-96.68571752505068,371.3362,0,-1,3,5,-9999,1456907700.952372,0.1423511505126953,49.78468322753906,-1.752685546875,7.312650680541992,4.035514354705811,25,10434.39912725,0.0511016845703125,0.9081268310546875,-0.43792724609375,10434.36632925,-0.03699769912781681,0.03395983127236342,-0.01547509646223244,10434.36632925,0.2992878326397715,0.1082792539018833,-1.123213337213056,-0.02027104794979095,0.002914835698902607,-0.0094951456412673,0.001935624051839113,0.009682801552116871,-0.008101226761937141,XArbitraryCorrectedZVertical,-0.5326519392699592,-0.03398939576331141,0.09750588156860669,0.8400114497000162,0.04677043110132217,0.9014958143234253,-0.430253267288208,-0.3606345653533936,51.96050262451172,-1.416702270507812,1,10433.34998325,stationary,1,2016-03-02 02:34:59.933,null,0,0,0,0,null,10434.07270125,0,-0.01245117,97.41444,192.168.1.101,100.78.239.175,2,1,0.42,0
2016-03-02 02:35:01.054,7,234B9614-18C8-49ED-8B56-CAB6C4F40872,my_iOS_device_1,1456907700.000058,40.79923387620672,-96.68571752505068,371.3362,0,-1,3,5,-9999,1456907701.012741,0.1423511505126953,49.85429382324219,-1.8848876953125,7.268800735473633,3.991664409637451,25,10434.42942125,0.0436859130859375,0.9134521484375,-0.432037353515625,10434.40134125,-0.0359657242054111,0.0307762885052827,-0.01332699072697452,10434.40134125,0.299110982714739,0.108165462114733,-1.123719465368234,-0.01923821493983269,-0.0002681225014384836,-0.007346306927502155,0.004429476335644722,0.006412113085389137,-0.008122322149574757,XArbitraryCorrectedZVertical,-0.5328597887974854,-0.03402916010557278,0.09743040557440642,0.8398867648765589,0.04667221009731293,0.9017147421836853,-0.4298049211502075,-0.3814322948455811,51.96175003051758,-1.364715576171875,1,10433.34998325,stationary,1,2016-03-02 02:34:59.933,null,0,0,0,0,null,10434.07270125,0,-0.01245117,97.41444,192.168.1.101,100.78.239.175,2,1,0.42,0
2016-03-02 02:35:01.061,8,234B9614-18C8-49ED-8B56-CAB6C4F40872,my_iOS_device_1,1456907700.000058,40.79923387620672,-96.68571752505068,371.3362,0,-1,3,5,-9999,1456907701.012741,0.1423511505126953,49.85429382324219,-1.8848876953125,7.268800735473633,3.991664409637451,25,10434.45971425,0.0426788330078125,0.9183349609375,-0.4330902099609375,10434.43635225,-0.03069133366650917,0.03078907167851508,-0.01005316679894012,10434.43635225,0.2987364447369691,0.1078557927325638,-1.124343863873927,-0.01396373845636845,-0.0002552615478634834,-0.00407271645963192,-0.002792578190565109,0.01146765891462564,-0.002777839079499245,XArbitraryCorrectedZVertical,-0.5331106061877106,-0.03410754115617188,0.09731682111959918,0.8397375742061471,0.04647849127650261,0.9019845128059387,-0.4292595088481903,-0.3835794925689697,51.96212005615234,-1.34979248046875,1,10433.34998325,stationary,1,2016-03-02 02:34:59.933,null,0,0,0,0,null,10434.07270125,0,-0.01245117,97.41444,192.168.1.101,100.78.239.175,2,1,0.42,0
2016-03-02 02:35:01.091,9,234B9614-18C8-49ED-8B56-CAB6C4F40872,my_iOS_device_1,1456907701.000058,40.79923387620672,-96.68571752505068,371.4112,0,-1,3,5,-9999,1456907701.07473,-0.3779964447021484,50.30670166015625,-2.11614990234375,7.290471076965332,4.01333475112915,25,10434.48999725,0.048919677734375,0.9095458984375,-0.4346160888671875,10434.47136925,-0.007335410906514254,0.02975203675003823,-0.00651622255520588,10434.43635225,0.2987364447369691,0.1078557927325638,-1.124343863873927,-0.01396373845636845,-0.0002552615478634834,-0.00407271645963192,-0.002792578190565109,0.01146765891462564,-0.002777839079499245,XArbitraryCorrectedZVertical,-0.5331106061877106,-0.03410754115617188,0.09731682111959918,0.8397375742061471,0.04647849127650261,0.9019845128059387,-0.4292595088481903,-0.3835794925689697,51.96212005615234,-1.34979248046875,1,10433.34998325,stationary,1,2016-03-02 02:34:59.933,null,0,0,0,0,null,10434.07270125,0,-0.01245117,97.41444,192.168.1.101,100.78.239.175,2,1,0.42,0
2016-03-02 02:35:01.131,10,234B9614-18C8-49ED-8B56-CAB6C4F40872,my_iOS_device_1,1456907701.000058,40.79923387620672,-96.68571752505068,371.4112,0,-1,3,5,-9999,1456907701.07473,-0.3779964447021484,50.30670166015625,-2.11614990234375,7.290471076965332,4.01333475112915,25,10434.52030525,0.0499420166015625,0.9067230224609375,-0.4322052001953125,10434.50638125,-0.02221529086511398,0.02548432110318625,-0.007795871458988954,10434.47136925,0.2983674429344869,0.1074360997335964,-1.124615722311513,0.009390274062752724,-0.001292368513531983,-0.0005366514669731259,-0.0004651494964491576,0.01539389137178659,-0.003704088740050793,XArbitraryCorrectedZVertical,-0.533209474171306,-0.03420631620365366,0.09725689693746027,0.8396777242393823,0.04627203568816185,0.9021018147468567,-0.4290351569652557,-0.3962068557739258,51.96282196044922,-1.318853378295898,1,10433.34998325,stationary,1,2016-03-02 02:34:59.933,null,0,0,0,0,null,10434.07270125,0,-0.01245117,97.41444,192.168.1.101,100.78.239.175,2,1,0.42,0
2016-03-02 02:35:01.141,11,234B9614-18C8-49ED-8B56-CAB6C4F40872,my_iOS_device_1,1456907701.000058,40.79923387620672,-96.68571752505068,371.4112,0,-1,3,5,-9999,1456907701.132411,-0.6555156707763672,50.44590759277344,-2.05010986328125,7.322975158691406,4.045839309692383,25,10434.55058325,0.0475921630859375,0.9136962890625,-0.429779052734375,10434.54139425,-0.02853310791910896,0.03291161106730824,-0.01215440089901263,10434.50638125,0.2983141081639968,0.1072656690137459,-1.124440964280672,-0.00548905786126852,-0.005559766665101051,-0.001816005213186145,0.001132232369855046,0.002728228690102696,-0.005721478722989559,XArbitraryCorrectedZVertical,-0.5331294683665083,-0.03425021092177979,0.09729077361911533,0.8397228104438089,0.04621579125523567,0.9020264148712158,-0.4291997849941254,-0.3962068557739258,51.96282196044922,-1.318853378295898,1,10433.34998325,stationary,1,2016-03-02 02:34:59.933,null,0,0,0,0,null,10434.07270125,0,-0.01245117,97.41444,192.168.1.101,100.78.239.175,2,1,0.42,0
2016-03-02 02:35:01.171,12,234B9614-18C8-49ED-8B56-CAB6C4F40872,my_iOS_device_1,1456907701.000058,40.79923387620672,-96.68571752505068,371.4112,0,-1,3,5,-9999,1456907701.132411,-0.6555156707763672,50.44590759277344,-2.05010986328125,7.322975158691406,4.045839309692383,25,10434.58088725,0.0445709228515625,0.9145660400390625,-0.4346160888671875,10434.54139425,-0.02853310791910896,0.03291161106730824,-0.01215440089901263,10434.54139425,0.2983269209904357,0.1072577880199979,-1.124944417590063,-0.01180755998939276,0.001868174062110484,-0.006173825357109308,0.0009858718840405345,0.01033877022564411,-0.0005421941168606281,XArbitraryCorrectedZVertical,-0.5333380911926059,-0.03429565272660914,0.09726704836031397,0.83959121600357,0.04616378620266914,0.9022436141967773,-0.4287485778331757,-0.4027204513549805,51.96264266967773,-1.323862075805664,1,10433.34998325,stationary,1,2016-03-02 02:34:59.933,null,0,0,0,0,null,10434.07270125,0,-0.01245117,97.41444,192.168.1.101,100.78.239.175,2,1,0.42,0
2016-03-02 02:35:01.211,13,234B9614-18C8-49ED-8B56-CAB6C4F40872,my_iOS_device_1,1456907701.000058,40.79923387620672,-96.68571752505068,371.4112,0,-1,3,5,-9999,1456907701.179645,-1.245241165161133,50.1326904296875,-1.88494873046875,7.39684009552002,4.119703769683838,25,10434.61119225,0.044769287109375,0.90948486328125,-0.4366607666015625,10434.57641225,-0.01155758649872588,0.03399658289540652,-0.008711199925649189,10434.57641225,0.2980365554196424,0.1071321829209756,-1.12515457688274,0.005166895687580109,0.002953453455120325,-0.002730520674958825,0.0003123206843156368,0.0113467974588275,-0.003425742033869028,XArbitraryCorrectedZVertical,-0.5334242940810514,-0.03428709542356452,0.09716563349823246,0.8395485437057422,0.04608965665102005,0.9023342132568359,-0.4285658299922943,-0.4089760780334473,51.96334838867188,-1.294048309326172,1,10433.34998325,stationary,1,2016-03-02 02:34:59.933,null,0,0,0,0,null,10434.07270125,0,-0.01245117,97.41444,192.168.1.101,100.78.239.175,2,1,0.42,0
2016-03-02 02:35:01.239,14,234B9614-18C8-49ED-8B56-CAB6C4F40872,my_iOS_device_1,1456907701.000058,40.79923387620672,-96.68571752505068,371.4112,0,-1,3,5,-9999,1456907701.179645,-1.245241165161133,50.1326904296875,-1.88494873046875,7.39684009552002,4.119703769683838,25,10434.64148725,0.0452880859375,0.9093017578125,-0.4381866455078125,10434.61142425,-0.008385229008223489,0.02868490810124347,-0.007596667009451027,10434.61142425,0.2975702645104877,0.1066816108450906,-1.124738979106795,0.008340165019035339,-0.002358491532504559,-0.001616983441635966,-0.001167191890999675,0.007329845800995827,-0.007701369002461433,XArbitraryCorrectedZVertical,-0.5332376939981323,-0.03432000819091,0.09711573834489148,0.8396715024955028,0.04593648016452789,0.9021550416946411,-0.4289593994617462,-0.4121503829956055,51.96337127685547,-1.292085647583008,1,10433.34998325,stationary,1,2016-03-02 02:34:59.933,null,0,0,0,0,null,10434.07270125,0,-0.01245117,97.41444,192.168.1.101,100.78.239.175,2,1,0.42,0
2016-03-02 02:35:01.263,15,234B9614-18C8-49ED-8B56-CAB6C4F40872,my_iOS_device_1,1456907701.000058,40.79923387620672,-96.68571752505068,371.4112,0,-1,3,5,-9999,1456907701.242459,-1.661518096923828,50.55027770996094,-1.4884033203125,7.491645812988281,4.214509963989258,25,10434.67178225,0.0458221435546875,0.912445068359375,-0.4339447021484375,10434.64641625,-0.02324566789086564,0.03079466431680425,-0.009945042458682898,10434.64641625,0.2972332584601099,0.1062854595965065,-1.124528231684854,-0.006518459878861904,-0.0002487297169864178,-0.003965626936405897,-0.0004986253916285932,0.007237679325044155,-0.009020039811730385,XArbitraryCorrectedZVertical,-0.5331366512863194,-0.03438034372108029,0.09709286037553019,0.8397358391094943,0.04578671231865883,0.9020640850067139,-0.4291666150093079,-0.420440673828125,51.96269989013672,-1.316267013549805,1,10433.34998325,stationary,1,2016-03-02 02:34:59.933,null,0,0,0,0,null,10434.07270125,0,-0.01245117,97.41444,192.168.1.101,100.78.239.175,2,1,0.42,0
2016-03-02 02:35:01.297,16,234B9614-18C8-49ED-8B56-CAB6C4F40872,my_iOS_device_1,1456907701.000058,40.79923387620672,-96.68571752505068,371.4112,0,-1,3,5,-9999,1456907701.242459,-1.661518096923828,50.55027770996094,-1.4884033203125,7.491645812988281,4.214509963989258,25,10434.70207625,0.0459747314453125,0.9140625,-0.42919921875,10434.68145325,-0.02219345294417533,0.03505199363540492,-0.0088661959010918,10434.64641625,0.2972332584601099,0.1062854595965065,-1.124528231684854,-0.006518459878861904,-0.0002487297169864178,-0.003965626936405897,-0.0004986253916285932,0.007237679325044155,-0.009020039811730385,XArbitraryCorrectedZVertical,-0.5331366512863194,-0.03438034372108029,0.09709286037553019,0.8397358391094943,0.04578671231865883,0.9020640850067139,-0.4291666150093079,-0.420440673828125,51.96269989013672,-1.316267013549805,1,10433.34998325,stationary,1,2016-03-02 02:34:59.933,null,0,0,0,0,null,10434.07270125,0,-0.01245117,97.41444,192.168.1.101,100.78.239.175,2,1,0.42,0
2016-03-02 02:35:01.324,17,234B9614-18C8-49ED-8B56-CAB6C4F40872,my_iOS_device_1,1456907701.000058,40.79923387620672,-96.68571752505068,371.4112,0,-1,3,5,-9999,1456907701.3031,-1.210552215576172,50.93305969238281,-1.455322265625,7.565889358520508,4.288753509521484,25,10434.73237825,0.046722412109375,0.9112091064453125,-0.431671142578125,10434.71646525,-0.01372886173546748,0.03400377343034973,-0.005545500337871998,10434.68145325,0.2969835902038132,0.1060435171487853,-1.124697348734919,-0.005465602967888117,0.004008620046079159,-0.002887076698243618,0.0001554149494040757,0.01030801143497229,-0.004918734543025494,XArbitraryCorrectedZVertical,-0.5331995010069589,-0.0344283068393667,0.09704211603671059,0.8396998341843478,0.04566672816872597,0.9021370410919189,-0.4290259778499603,-0.4325423240661621,51.96250915527344,-1.319574356079102,1,10433.34998325,stationary,1,2016-03-02 02:34:59.933,null,0,0,0,0,null,10434.07270125,0,-0.01245117,97.41444,192.168.1.101,100.78.239.175,2,1,0.42,0
2016-03-02 02:35:01.371,18,234B9614-18C8-49ED-8B56-CAB6C4F40872,my_iOS_device_1,1456907701.000058,40.79923387620672,-96.68571752505068,371.4112,0,-1,3,5,-9999,1456907701.35651,-0.4820632934570312,51.38545227050781,-1.68658447265625,7.604290008544922,4.327154159545898,25,10434.76267525,0.0472564697265625,0.9100494384765625,-0.43536376953125,10434.75147725,-0.01584394427320841,0.03080904538669068,-0.006640325862003573,10434.71646525,0.2969900366867108,0.1061701901788233,-1.124902448993519,0.002997574163600802,0.002960691228508949,0.0004335313569754362,0.0001206778906635009,0.008632626384496689,-0.004208249971270561,XArbitraryCorrectedZVertical,-0.5332907857011329,-0.03439252857409222,0.09699842008638376,0.8396483778137686,0.04570146650075912,0.9022255539894104,-0.4288361966609955,-0.4338448047637939,51.9627571105957,-1.309652328491211,1,10433.34998325,stationary,1,2016-03-02 02:34:59.933,null,0,0,0,0,null,10434.07270125,0,-0.01245117,97.41444,192.168.1.101,100.78.239.175,2,1,0.42,0
2016-03-02 02:35:01.386,19,234B9614-18C8-49ED-8B56-CAB6C4F40872,my_iOS_device_1,1456907701.000058,40.79923387620672,-96.68571752505068,371.4112,0,-1,3,5,-9999,1456907701.35651,-0.4820632934570312,51.38545227050781,-1.68658447265625,7.604290008544922,4.327154159545898,25,10434.79297125,0.044281005859375,0.9133758544921875,-0.435455322265625,10434.75147725,-0.01584394427320841,0.03080904538669068,-0.006640325862003573,10434.75147725,0.2970496283171727,0.1062208463507772,-1.124889299764427,0.000757773348595947,-0.0002030958130490035,-0.0006845571915619075,0.0006164957885630429,0.01025572884827852,-0.004687049891799688,XArbitraryCorrectedZVertical,-0.5332867526781607,-0.03438614582890841,0.09701074089148656,0.8396497773147441,0.04572444781661034,0.902219831943512,-0.4288456737995148,-0.4325089454650879,51.96282958984375,-1.307146072387695,1,10433.34998325,stationary,1,2016-03-02 02:34:59.933,null,0,0,0,0,null,10434.07270125,0,-0.01245117,97.41444,192.168.1.101,100.78.239.175,2,1,0.42,0
2016-03-02 02:35:01.415,20,234B9614-18C8-49ED-8B56-CAB6C4F40872,my_iOS_device_1,1456907701.000058,40.79923387620672,-96.68571752505068,371.4112,0,-1,3,5,-9999,1456907701.393884,-0.4473743438720703,51.21144104003906,-1.98406982421875,7.61823558807373,4.341099262237549,25,10434.82326925,0.0472869873046875,0.9079742431640625,-0.436004638671875,10434.78647125,-0.01904959127733679,0.03080957801890869,-0.005621134112830248,10434.78647125,0.2971379964553571,0.1063079859514895,-1.124837631307209,-0.002447359496727586,-0.0002021839609369636,0.0003349202161189169,0.001932212500832975,0.01131561119109392,-0.005758575163781643,XArbitraryCorrectedZVertical,-0.5332679855578903,-0.03436917107726271,0.09702778932771314,0.8396604216924047,0.04576676338911057,0.9021975994110107,-0.4288880228996277,-0.4312727451324463,51.96279144287109,-1.309049606323242,1,10433.34998325,stationary,1,2016-03-02 02:34:59.933,null,0,0,0,0,null,10434.07270125,0,-0.01245117,97.41444,192.168.1.101,100.78.239.175,2,1,0.42,0
2016-03-02 02:35:01.452,21,234B9614-18C8-49ED-8B56-CAB6C4F40872,my_iOS_device_1,1456907701.000058,40.79923387620672,-96.68571752505068,371.4112,0,-1,3,5,-9999,1456907701.447555,-0.2045440673828125,50.68943786621094,-1.95098876953125,7.625813484191895,4.348677635192871,25,10434.85356225,0.0467987060546875,0.9103546142578125,-0.4339141845703125,10434.82150025,-0.01485351466380794,0.03082449172101313,-0.001297225766977597,10434.82150025,0.2972453172223832,0.1064112985877211,-1.124796564137821,0.001748923328705132,-0.000187064622878097,0.004658863414078951,0.0009531818795949221,0.01011262182146311,-0.00743544939905405,XArbitraryCorrectedZVertical,-0.5332540854061544,-0.03435126842328578,0.09704783159666087,0.839667665887964,0.04581500589847565,0.9021798372268677,-0.4289201498031616,-0.432166576385498,51.96275329589844,-1.310312271118164,1,10433.34998325,stationary,1,2016-03-02 02:34:59.933,null,0,0,0,0,null,10434.07270125,0,-0.01245117,97.41444,192.168.1.101,100.78.239.175,2,1,0.42,0
2016-03-02 02:35:01.475,22,234B9614-18C8-49ED-8B56-CAB6C4F40872,my_iOS_device_1,1456907701.000058,40.79923387620672,-96.68571752505068,371.4112,0,-1,3,5,-9999,1456907701.447555,-0.2045440673828125,50.68943786621094,-1.95098876953125,7.625813484191895,4.348677635192871,25,10434.88384925,0.0460205078125,0.913543701171875,-0.4322509765625,10434.85650125,-0.01913827454163643,0.02976375465883457,0.000772583032231987,10434.85650125,0.2978333463158232,0.1068975348621594,-1.12458989277656,-0.002534994157031178,-0.001247486448846757,0.006728862877935171,0.0007552556926384568,0.008263925090432167,-0.004830989520996809,XArbitraryCorrectedZVertical,-0.5331817060214783,-0.03428805595884241,0.09717783918772895,0.8397011761057567,0.04604345187544823,0.9020906686782837,-0.4290831983089447,-0.4290142059326172,51.96273422241211,-1.312017440795898,1,10433.34998325,stationary,1,2016-03-02 02:34:59.933,null,0,0,0,0,null,10434.07270125,0,-0.01245117,97.41444,192.168.1.101,100.78.239.175,2,1,0.42,0
2016-03-02 02:35:01.530,23,234B9614-18C8-49ED-8B56-CAB6C4F40872,my_iOS_device_1,1456907701.000058,40.79923387620672,-96.68571752505068,371.4112,0,-1,3,5,-9999,1456907701.503126,-0.4126853942871094,50.2718505859375,-1.88494873046875,7.651176452636719,4.374040126800537,25,10434.91415625,0.04510498046875,0.9095306396484375,-0.4350433349609375,10434.89153525,-0.02117532645943804,0.03293478056879192,-0.005653092045911199,10434.89153525,0.2980669674559751,0.1071154862016064,-1.124832537418023,-0.004653627052903175,0.001947116805240512,0.0002890628820750862,-9.305790445068851e-05,0.01134832575917244,-0.003395472420379519,XArbitraryCorrectedZVertical,-0.5332891361305098,-0.03427747366461581,0.09720279588710416,0.8396304952513781,0.04611356556415558,0.9021953940391541,-0.4288555085659027,-0.4100403785705566,51.96284103393555,-1.313846588134766,1,10433.34998325,stationary,1,2016-03-02 02:34:59.933,null,0,0,0,0,null,10434.07270125,0,-0.01245117,97.41444,192.168.1.101,100.78.239.175,2,1,0.42,0
2016-03-02 02:35:01.536,24,234B9614-18C8-49ED-8B56-CAB6C4F40872,my_iOS_device_1,1456907701.000058,40.79923387620672,-96.68571752505068,371.4112,0,-1,3,5,-9999,1456907701.503126,-0.4126853942871094,50.2718505859375,-1.88494873046875,7.651176452636719,4.374040126800537,25,10434.94446525,0.04510498046875,0.915008544921875,-0.43792724609375,10434.92654725,-0.02223419930885354,0.03931438296007674,-0.005671734173541753,10434.89153525,0.2980669674559751,0.1071154862016064,-1.124832537418023,-0.004653627052903175,0.001947116805240512,0.0002890628820750862,-9.305790445068851e-05,0.01134832575917244,-0.003395472420379519,XArbitraryCorrectedZVertical,-0.5332891361305098,-0.03427747366461581,0.09720279588710416,0.8396304952513781,0.04611356556415558,0.9021953940391541,-0.4288555085659027,-0.4100403785705566,51.96284103393555,-1.313846588134766,1,10433.34998325,stationary,1,2016-03-02 02:34:59.933,null,0,0,0,0,null,10434.07270125,0,-0.01245117,97.41444,192.168.1.101,100.78.239.175,2,1,0.42,0
2016-03-02 02:35:01.567,25,234B9614-18C8-49ED-8B56-CAB6C4F40872,my_iOS_device_1,1456907701.000058,40.79923387620672,-96.68571752505068,371.4112,0,-1,3,5,-9999,1456907701.561942,-0.9330310821533203,49.68023681640625,-1.98406982421875,7.695076942443848,4.417941093444824,25,10434.97474825,0.0510101318359375,0.9129638671875,-0.430877685546875,10434.96155325,-0.01272857843003372,0.02763588894786126,-0.00126473520167863,10434.92654725,0.297742548259734,0.1068978352119808,-1.124881048955614,-0.005711722187697887,0.00832646619528532,0.0002694514987524599,-0.00255852285772562,0.006978647317737341,-0.005672005470842123,XArbitraryCorrectedZVertical,-0.5333042838153833,-0.03428606580355428,0.09712163418460444,0.8396299153372194,0.04601555317640305,0.9022163152694702,-0.4288220107555389,-0.411860466003418,51.96296691894531,-1.308223724365234,1,10433.34998325,stationary,1,2016-03-02 02:34:59.933,null,0,0,0,0,null,10434.07270125,0,-0.01245117,97.41444,192.168.1.101,100.78.239.175,2,1,0.42,0
2016-03-02 02:35:01.611,26,234B9614-18C8-49ED-8B56-CAB6C4F40872,my_iOS_device_1,1456907701.000058,40.79923387620672,-96.68571752505068,371.4112,0,-1,3,5,-9999,1456907701.561942,-0.9330310821533203,49.68023681640625,-1.98406982421875,7.695076942443848,4.417941093444824,25,10435.00504925,0.0494384765625,0.9061126708984375,-0.4327850341796875,10434.99657725,-0.006347378142094857,0.02657728241455477,-0.001171524563525857,10434.96155325,0.2978834998510504,0.1070942398651241,-1.124814668431553,0.003794304095208645,-0.003352005500346422,0.004676129203289747,0.001577538554556668,0.01317182928323746,-0.005560470744967461,XArbitraryCorrectedZVertical,-0.5332838203807883,-0.0342361003635523,0.09713254422574956,0.8396436894327257,0.04610617831349373,0.9021876454353333,-0.4288725256919861,-0.4182295799255371,51.96292877197266,-1.307693481445312,1,10433.34998325,stationary,1,2016-03-02 02:34:59.933,null,0,0,0,0,null,10434.07270125,0,-0.01245117,97.41444,192.168.1.101,100.78.239.175,2,1,0.42,0
2016-03-02 02:35:01.627,27,234B9614-18C8-49ED-8B56-CAB6C4F40872,my_iOS_device_1,1456907701.000058,40.79923387620672,-96.68571752505068,371.4112,0,-1,3,5,-9999,1456907701.620405,-0.7248935699462891,49.61061096191406,-2.05010986328125,7.738635063171387,4.461498737335205,25,10435.03534125,0.04522705078125,0.90850830078125,-0.436004638671875,10434.99657725,-0.006347378142094857,0.02657728241455477,-0.001171524563525857,10434.99657725,0.2987116533555139,0.1078217481655167,-1.124676768797317,0.01017427910119295,-0.004409628920257092,0.004770675674080849,0.002961138961836696,0.006227535661309958,-0.000953840441070497,XArbitraryCorrectedZVertical,-0.5332477187953184,-0.03414088029966844,0.09729479804121276,0.8396517093212345,0.04643156006932259,0.9021281599998474,-0.4289625287055969,-0.4147348403930664,51.96292114257812,-1.309076309204102,1,10433.34998325,stationary,1,2016-03-02 02:34:59.933,null,0,0,0,0,null,10434.07270125,0,-0.01245117,97.41444,192.168.1.101,100.78.239.175,2,1,0.42,0
2016-03-02 02:35:01.657,28,234B9614-18C8-49ED-8B56-CAB6C4F40872,my_iOS_device_1,1456907701.000058,40.79923387620672,-96.68571752505068,371.4112,0,-1,3,5,-9999,1456907701.620405,-0.7248935699462891,49.61061096191406,-2.05010986328125,7.738635063171387,4.461498737335205,25,10435.06563825,0.0480499267578125,0.9125213623046875,-0.43646240234375,10435.03159025,-0.006327937066137278,0.03295475427696751,-0.002240251108974655,10435.03159025,0.2992050046599085,0.1082800981016268,-1.124235398662303,0.01019376423209906,0.001968287630006671,0.003702460322529078,0.0009514839621260762,0.006646942347288132,-0.001616966328583658,XArbitraryCorrectedZVertical,-0.5330782018091464,-0.03404591289697341,0.09740720816467849,0.8397501666379709,0.04667119681835175,0.9019376635551453,-0.4293370246887207,-0.3851027488708496,51.96264266967773,-1.329158782958984,1,10433.34998325,stationary,1,2016-03-02 02:34:59.933,null,0,0,0,0,null,10434.07270125,0,-0.01245117,97.41444,192.168.1.101,100.78.239.175,2,1,0.42,0
2016-03-02 02:35:01.699,29,234B9614-18C8-49ED-8B56-CAB6C4F40872,my_iOS_device_1,1456907701.000058,40.79923387620672,-96.68571752505068,371.4112,0,-1,3,5,-9999,1456907701.686888,-0.7942752838134766,49.54103088378906,-2.05010986328125,7.787773132324219,4.510637283325195,25,10435.09592425,0.0478515625,0.9107818603515625,-0.437103271484375,10435.06660025,-0.01160392550169326,0.03081517065719786,-0.005513009772573031,10435.06660025,0.2992062653976862,0.1083184378516204,-1.123792255412563,0.004852368030697107,-0.0001477382029406726,0.0004202085256110877,0.001319065107963979,0.01077517680823803,-0.006729875691235065,XArbitraryCorrectedZVertical,-0.5328958751296274,-0.03399592706471948,0.09742512686692263,0.8398658273008857,0.04673086106777191,0.9017462134361267,-0.4297325313091278,-0.3851027488708496,51.96264266967773,-1.329158782958984,1,10433.34998325,stationary,1,2016-03-02 02:34:59.933,null,0,0,0,0,null,10434.07270125,0,-0.01245117,97.41444,192.168.1.101,100.78.239.175,2,1,0.42,0
2016-03-02 02:35:01.717,30,234B9614-18C8-49ED-8B56-CAB6C4F40872,my_iOS_device_1,1456907701.000058,40.79923387620672,-96.68571752505068,371.4112,0,-1,3,5,-9999,1456907701.686888,-0.7942752838134766,49.54103088378906,-2.05010986328125,7.787773132324219,4.510637283325195,25,10435.12622825,0.0479736328125,0.909576416015625,-0.43536376953125,10435.10159625,-0.02116227697009665,0.03080505064505555,-0.00671755753361587,10435.10159625,0.2990905236439276,0.1082240597233976,-1.123733606531315,-0.004705460276454687,-0.0001577416114741936,-0.0007844507344998419,0.001155546051450074,0.009061029180884361,-0.007313760463148355,XArbitraryCorrectedZVertical,-0.5328688687658254,-0.03400019311723686,0.09740532128683421,0.839885086754865,0.0466960147023201,0.9017208218574524,-0.4297895133495331,-0.3793833255767822,51.96182632446289,-1.362218856811523,1,10433.34998325,stationary,1,2016-03-02 02:34:59.933,null,0,0,0,0,null,10434.07270125,0,-0.01245117,97.41444,192.168.1.101,100.78.239.175,2,1,0.42,0
2016-03-02 02:35:01.771,31,234B9614-18C8-49ED-8B56-CAB6C4F40872,my_iOS_device_1,1456907701.000058,40.79923387620672,-96.68571752505068,371.4112,0,-1,3,5,-9999,1456907701.738373,-0.5167560577392578,50.306640625,-1.91796875,7.818148612976074,4.541012287139893,25,10435.15653225,0.05096435546875,0.912567138671875,-0.4342193603515625,10435.13662525,-0.02331650797586175,0.0339995123726056,-0.00461898659463343,10435.10159625,0.2990905236439276,0.1082240597233976,-1.123733606531315,-0.004705460276454687,-0.0001577416114741936,-0.0007844507344998419,0.001155546051450074,0.009061029180884361,-0.007313760463148355,XArbitraryCorrectedZVertical,-0.5328688687658254,-0.03400019311723686,0.09740532128683421,0.839885086754865,0.0466960147023201,0.9017208218574524,-0.4297895133495331,-0.3793833255767822,51.96182632446289,-1.362218856811523,1,10433.34998325,stationary,1,2016-03-02 02:34:59.933,null,0,0,0,0,null,10434.07270125,0,-0.01245117,97.41444,192.168.1.101,100.78.239.175,2,1,0.42,0
2016-03-02 02:35:01.777,32,234B9614-18C8-49ED-8B56-CAB6C4F40872,my_iOS_device_1,1456907701.000058,40.79923387620672,-96.68571752505068,371.4112,0,-1,3,5,-9999,1456907701.738373,-0.5167560577392578,50.306640625,-1.91796875,7.818148612976074,4.541012287139893,25,10435.18682425,0.0483856201171875,0.9105377197265625,-0.4355621337890625,10435.17162125,-0.01695075402224534,0.03188043509322955,-0.003459712572121938,10435.13662525,0.2992549880339892,0.1084925678543003,-1.123878940645195,-0.00685914745554328,0.003037059679627419,0.001314327353611588,0.001802017097361386,0.009288124740123749,-0.004008112475275993,XArbitraryCorrectedZVertical,-0.5329395570808847,-0.03394248392891566,0.09739378628605598,0.8398439061373428,0.04679722711443901,0.9017836451530457,-0.4296466708183289,-0.3798141479492188,51.96184158325195,-1.361677169799805,1,10433.34998325,stationary,1,2016-03-02 02:34:59.933,null,0,0,0,0,null,10434.07270125,0,-0.01245117,97.41444,192.168.1.101,100.78.239.175,2,1,0.42,0
2016-03-02 02:35:01.809,33,234B9614-18C8-49ED-8B56-CAB6C4F40872,my_iOS_device_1,1456907701.000058,40.79923387620672,-96.68571752505068,371.4112,0,-1,3,5,-9999,1456907701.799163,-0.6902008056640625,50.41105651855469,-1.88494873046875,7.858932495117188,4.581796646118164,25,10435.21713925,0.04736328125,0.90966796875,-0.438507080078125,10435.20665925,-0.01798352789297807,0.03400057763704163,-0.005607285675161836,10435.17162125,0.2997509674395025,0.1089909252695375,-1.124024757155436,-0.0004938524798490107,0.0009185571689158678,0.002474251901730895,0.00297550018876791,0.01177333202213049,-0.004696264397352934,XArbitraryCorrectedZVertical,-0.5330160242153776,-0.03387667087772399,0.0974601427841118,0.8397903367319566,0.04699703305959702,0.9018466472625732,-0.4294925928115845,-0.3775045871734619,51.9620246887207,-1.355152130126953,1,10433.34998325,stationary,1,2016-03-02 02:34:59.933,null,0,0,0,0,null,10434.07270125,0,-0.01245117,97.41444,192.168.1.101,100.78.239.175,2,1,0.42,0
2016-03-02 02:35:01.852,34,234B9614-18C8-49ED-8B56-CAB6C4F40872,my_iOS_device_1,1456907701.000058,40.79923387620672,-96.68571752505068,371.4112,0,-1,3,5,-9999,1456907701.799163,-0.6902008056640625,50.41105651855469,-1.88494873046875,7.858932495117188,4.581796646118164,25,10435.24744425,0.0479736328125,0.9081268310546875,-0.4365386962890625,10435.20665925,-0.01798352789297807,0.03400057763704163,-0.005607285675161836,10435.20665925,0.2999842173356768,0.1092505340809802,-1.123938402387481,-0.001585678546689451,0.003063951386138797,0.0003217942139599472,0.001634807442314923,0.008468970656394958,-0.006538415793329477,XArbitraryCorrectedZVertical,-0.5329888439982541,-0.03382313270683843,0.09749429988332649,0.8398057807359739,0.04711702466011047,0.9018093347549438,-0.4295577704906464,-0.3665378093719482,51.96233367919922,-1.346303939819336,1,10433.34998325,stationary,1,2016-03-02 02:34:59.933,null,0,0,0,0,null,10434.07270125,0,-0.01245117,97.41444,192.168.1.101,100.78.239.175,2,1,0.42,0
2016-03-02 02:35:01.869,35,234B9614-18C8-49ED-8B56-CAB6C4F40872,my_iOS_device_1,1456907701.000058,40.79923387620672,-96.68571752505068,371.4112,0,-1,3,5,-9999,1456907701.855935,-0.5167522430419922,50.306640625,-2.05010986328125,7.884257316589355,4.607120990753174,25,10435.27771825,0.047119140625,0.912017822265625,-0.434967041015625,10435.24167225,-0.02114523273912014,0.03399232183766239,-0.007784686182410621,10435.24167225,0.2997987553841099,0.1091762664524164,-1.123806325061211,-0.004746188875287771,0.003055757377296686,-0.001855883980169892,-0.001443802029825747,0.00709172710776329,-0.005531512200832367,XArbitraryCorrectedZVertical,-0.5329334724645656,-0.0337946620298915,0.09744447725107114,0.8398478484811458,0.04709810018539429,0.9017522931098938,-0.429679661989212,-0.3627560138702393,51.96208190917969,-1.357175827026367,1,10433.34998325,stationary,1,2016-03-02 02:34:59.933,null,0,0,0,0,null,10434.07270125,0,-0.01245117,97.41444,192.168.1.101,100.78.239.175,2,1,0.42,0
2016-03-02 02:35:01.899,36,234B9614-18C8-49ED-8B56-CAB6C4F40872,my_iOS_device_1,1456907701.000058,40.79923387620672,-96.68571752505068,371.4112,0,-1,3,5,-9999,1456907701.855935,-0.5167522430419922,50.306640625,-2.05010986328125,7.884257316589355,4.607120990753174,25,10435.30803625,0.048370361328125,0.912689208984375,-0.4325408935546875,10435.27668325,-0.02227068461578763,0.02974963990505716,-0.003535878979298205,10435.27668325,0.2999115131774331,0.1093261185663441,-1.123950415740403,-0.005871242843568325,-0.001186740817502141,0.002392935566604137,0.0006727355648763478,0.007090487983077765,-0.004111341200768948,XArbitraryCorrectedZVertical,-0.532998748392379,-0.03377295026033381,0.0974428761302245,0.8398074826615558,0.04714830964803696,0.9018145203590393,-0.4295434355735779,-0.3645839691162109,51.96210098266602,-1.355869293212891,1,10433.34998325,stationary,1,2016-03-02 02:34:59.933,null,0,0,0,0,null,10434.07270125,0,-0.01245117,97.41444,192.168.1.101,100.78.239.175,2,1,0.42,0
2016-03-02 02:35:01.942,37,234B9614-18C8-49ED-8B56-CAB6C4F40872,my_iOS_device_1,1456907701.000058,40.79923387620672,-96.68571752505068,371.4112,0,-1,3,5,-9999,1456907701.91473,-0.03109359741210938,50.37623596191406,-1.5213623046875,7.891648292541504,4.614511966705322,25,10435.33832525,0.05035400390625,0.9091644287109375,-0.4364166259765625,10435.31167925,-0.01476722824448938,0.02868011441128133,-0.007689345015385785,10435.31167925,0.3001975100981469,0.1095938275139448,-1.124121459235259,0.00163127516862005,-0.002255730330944061,-0.001760084996931255,0.001123932655900717,0.01080076955258846,-0.003163417335599661,XArbitraryCorrectedZVertical,-0.5330780405232374,-0.03375003069584939,0.09748089815250861,0.8397536618766925,0.04724643006920815,0.9018884301185608,-0.4293774664402008,-0.3584797382354736,51.96244049072266,-1.34442138671875,1,10433.34998325,stationary,1,2016-03-02 02:34:59.933,null,0,0,0,0,null,10434.07270125,0,-0.01245117,97.41444,192.168.1.101,100.78.239.175,2,1,0.42,0
2016-03-02 02:35:01.960,38,234B9614-18C8-49ED-8B56-CAB6C4F40872,my_iOS_device_1,1456907701.000058,40.79923387620672,-96.68571752505068,371.4112,0,-1,3,5,-9999,1456907701.91473,-0.03109359741210938,50.37623596191406,-1.5213623046875,7.891648292541504,4.614511966705322,25,10435.36864125,0.0487213134765625,0.911346435546875,-0.4383392333984375,10435.34670825,-0.01263749832075301,0.0318719129777413,-0.007660050243394913,10435.31167925,0.3001975100981469,0.1095938275139448,-1.124121459235259,0.00163127516862005,-0.002255730330944061,-0.001760084996931255,0.001123932655900717,0.01080076955258846,-0.003163417335599661,XArbitraryCorrectedZVertical,-0.5330780405232374,-0.03375003069584939,0.09748089815250861,0.8397536618766925,0.04724643006920815,0.9018884301185608,-0.4293774664402008,-0.3584797382354736,51.96244049072266,-1.34442138671875,1,10433.34998325,stationary,1,2016-03-02 02:34:59.933,null,0,0,0,0,null,10434.07270125,0,-0.01245117,97.41444,192.168.1.101,100.78.239.175,2,1,0.42,0
2016-03-02 02:35:02.011,39,234B9614-18C8-49ED-8B56-CAB6C4F40872,my_iOS_device_1,1456907701.000058,40.79923387620672,-96.68571752505068,371.4112,0,-1,3,5,-9999,1456907701.973298,-0.2739219665527344,50.41105651855469,-1.81884765625,7.896240234375,4.619104385375977,25,10435.39893825,0.0455322265625,0.90789794921875,-0.439697265625,10435.38170725,-0.0200514724794246,0.03505066205485988,-0.009900833984587585,10435.34670825,0.3002380817033332,0.1096376542108116,-1.123892872723361,0.003761478466913104,0.0009365921723656356,-0.001730072777718306,0.003066200762987137,0.007374754641205072,-0.006836310494691133,XArbitraryCorrectedZVertical,-0.5329845088700567,-0.03372470092113818,0.09750058615601824,0.8398117607842581,0.04728780314326286,0.901789665222168,-0.4295803010463715,-0.3565540313720703,51.96237564086914,-1.347475051879883,1,10433.34998325,stationary,1,2016-03-02 02:34:59.933,null,0,0,0,0,null,10435.38663525,0,0.01245117,97.41415,192.168.1.101,100.78.239.175,2,1,0.42,0
2016-03-02 02:35:02.021,40,234B9614-18C8-49ED-8B56-CAB6C4F40872,my_iOS_device_1,1456907701.000058,40.79923387620672,-96.68571752505068,371.4112,0,-1,3,5,-9999,1456907701.973298,-0.2739219665527344,50.41105651855469,-1.81884765625,7.896240234375,4.619104385375977,25,10435.42923725,0.043243408203125,0.9084930419921875,-0.435211181640625,10435.38170725,-0.0200514724794246,0.03505066205485988,-0.009900833984587585,10435.38170725,0.3001356014241391,0.1096708163800863,-1.123668240557297,-0.003703344380483031,0.004140732809901237,-0.00397225096821785,-0.0007849126704968512,0.007487116847187281,-0.006956970319151878,XArbitraryCorrectedZVertical,-0.5328945045169275,-0.03366603400122554,0.09746280027850229,0.839875614464522,0.04732421785593033,0.9016925692558289,-0.4297800958156586,-0.3543846607208252,51.9621696472168,-1.355947494506836,1,10433.34998325,stationary,1,2016-03-02 02:34:59.933,null,0,0,0,0,null,10435.38663525,0,0.01245117,97.41415,192.168.1.101,100.78.239.175,2,1,0.42,0
2016-03-02 02:35:02.051,41,234B9614-18C8-49ED-8B56-CAB6C4F40872,my_iOS_device_1,1456907701.000058,40.79923387620672,-96.68571752505068,371.4112,0,-1,3,5,-9999,1456907702.03272,-0.3086147308349609,50.16744995117188,-1.984130859375,7.906465530395508,4.629329204559326,25,10435.45953625,0.047027587890625,0.91204833984375,-0.4326171875,10435.41674325,-0.0242930891475938,0.03291773633781542,-0.01102708480958209,10435.41674325,0.2996029149364001,0.1092446001669028,-1.123715344887435,-0.007943763397634029,0.002007662318646908,-0.005099053028970957,-0.001848319079726934,0.007405715528875589,-0.006200861651450396,XArbitraryCorrectedZVertical,-0.5329022945122591,-0.03370673656452223,0.09734971968182579,0.8398821539309002,0.04713640362024307,0.901712954044342,-0.4297580122947693,-0.3541648387908936,51.96200561523438,-1.362302780151367,1,10433.34998325,stationary,1,2016-03-02 02:34:59.933,null,0,0,0,0,null,10435.38663525,0,0.01245117,97.41415,192.168.1.101,100.78.239.175,2,1,0.42,0
2016-03-02 02:35:02.094,42,234B9614-18C8-49ED-8B56-CAB6C4F40872,my_iOS_device_1,1456907702.000058,40.79923387620672,-96.68571752505068,371.5192,0,-1,3,5,-9999,1456907702.03272,-0.3086147308349609,50.16744995117188,-1.984130859375,7.906465530395508,4.629329204559326,25,10435.48983125,0.0465087890625,0.9116668701171875,-0.4339752197265625,10435.48676625,-0.0212110128180451,0.02443343773704098,-0.003517769483885666,10435.45175425,0.2992054206888471,0.1088389963867801,-1.124025061756455,-0.00909751933068037,-0.00116604077629745,0.001279209740459919,-0.001842029625549912,0.007653327193111181,-0.002629465889185667,XArbitraryCorrectedZVertical,-0.5330179839861425,-0.03379509670756381,0.09727153839081512,0.8398142461312254,0.04693175107240677,0.9018467664718628,-0.4294994473457336,-0.3764758110046387,51.96202850341797,-1.355449676513672,1,10433.34998325,stationary,1,2016-03-02 02:34:59.933,null,0,0,0,0,null,10435.38663525,0,0.01245117,97.41415,192.168.1.101,100.78.239.175,2,1,0.42,0
2016-03-02 02:35:02.111,43,234B9614-18C8-49ED-8B56-CAB6C4F40872,my_iOS_device_1,1456907702.000058,40.79923387620672,-96.68571752505068,371.5192,0,-1,3,5,-9999,1456907702.094208,-0.4820671081542969,50.06304931640625,-2.01708984375,7.932958602905273,4.65582275390625,25,10435.52011425,0.0485992431640625,0.9118194580078125,-0.43389892578125,10435.48676625,-0.0212110128180451,0.02443343773704098,-0.003517769483885666,10435.48676625,0.299385565881482,0.1088752880943046,-1.124290493964993,-0.004861983936280012,-0.00647676782682538,0.002409039065241814,1.470933511882322e-05,0.01150596234947443,-0.004654424730688334,XArbitraryCorrectedZVertical,-0.5331270075031856,-0.0338483959785198,0.09732093561928605,0.8397371704590465,0.04692132398486137,0.9019614458084106,-0.4292597472667694,-0.3772695064544678,51.9625244140625,-1.336069107055664,1,10433.34998325,stationary,1,2016-03-02 02:34:59.933,null,0,0,0,0,null,10435.38663525,0,0.01245117,97.41415,192.168.1.101,100.78.239.175,2,1,0.42,0
2016-03-02 02:35:02.141,44,234B9614-18C8-49ED-8B56-CAB6C4F40872,my_iOS_device_1,1456907702.000058,40.79923387620672,-96.68571752505068,371.5192,0,-1,3,5,-9999,1456907702.094208,-0.4820671081542969,50.06304931640625,-2.01708984375,7.932958602905273,4.65582275390625,25,10435.55041325,0.049224853515625,0.91033935546875,-0.435028076171875,10435.52178325,-0.0211907727937605,0.03187430982272237,-0.00458702866155248,10435.48676625,0.299385565881482,0.1088752880943046,-1.124290493964993,-0.004861983936280012,-0.00647676782682538,0.002409039065241814,1.470933511882322e-05,0.01150596234947443,-0.004654424730688334,XArbitraryCorrectedZVertical,-0.5331270075031856,-0.0338483959785198,0.09732093561928605,0.8397371704590465,0.04692132398486137,0.9019614458084106,-0.4292597472667694,-0.3772695064544678,51.9625244140625,-1.336069107055664,1,10433.34998325,stationary,1,2016-03-02 02:34:59.933,null,0,0,0,0,null,10435.38663525,0,0.01245117,97.41415,192.168.1.101,100.78.239.175,2,1,0.42,0
2016-03-02 02:35:02.172,45,234B9614-18C8-49ED-8B56-CAB6C4F40872,my_iOS_device_1,1456907702.000058,40.79923387620672,-96.68571752505068,371.5192,0,-1,3,5,-9999,1456907702.153441,-0.655517578125,50.16744995117188,-2.18231201171875,7.963376045227051,4.686239719390869,25,10435.58072625,0.048858642578125,0.9117279052734375,-0.4346160888671875,10435.55679725,-0.02438017451523939,0.03399871342427858,-0.00463443292895589,10435.52178325,0.2995585592610324,0.1089863092898847,-1.124381698781497,-0.004841670859605074,0.0009643915109336376,0.001339833717793226,0.001639208756387234,0.009818633086979389,-0.00472615472972393,XArbitraryCorrectedZVertical,-0.5331673813788709,-0.03385495376095324,0.09735827582958252,0.8397069439196817,0.04696003347635269,0.9020008444786072,-0.4291727840900421,-0.3763132095336914,51.96265029907227,-1.331497192382812,1,10433.34998325,stationary,1,2016-03-02 02:34:59.933,null,0,0,0,0,null,10435.38663525,0,0.01245117,97.41415,192.168.1.101,100.78.239.175,2,1,0.42,0
2016-03-02 02:35:02.202,46,234B9614-18C8-49ED-8B56-CAB6C4F40872,my_iOS_device_1,1456907702.000058,40.79923387620672,-96.68571752505068,371.5192,0,-1,3,5,-9999,1456907702.153441,-0.655517578125,50.16744995117188,-2.18231201171875,7.963376045227051,4.686239719390869,25,10435.61102225,0.0491485595703125,0.912841796875,-0.4323577880859375,10435.59178525,-0.02117372856278399,0.0350615810153292,-0.00565415731034723,10435.55679725,0.2996818609461478,0.1091325404579877,-1.124497640321949,-0.00807474460452795,0.003112571779638529,0.001291998894885182,0.002213451778516173,0.008288481272757053,-0.005966136697679758,XArbitraryCorrectedZVertical,-0.5332205881366747,-0.03383540606013589,0.09736381004822352,0.8396733044326328,0.04701140150427818,0.9020508527755737,-0.4290619492530823,-0.3727090358734131,51.96279525756836,-1.326810836791992,1,10433.34998325,stationary,1,2016-03-02 02:34:59.933,null,0,0,0,0,null,10435.38663525,0,0.01245117,97.41415,192.168.1.101,100.78.239.175,2,1,0.42,0
2016-03-02 02:35:02.253,47,234B9614-18C8-49ED-8B56-CAB6C4F40872,my_iOS_device_1,1456907702.000058,40.79923387620672,-96.68571752505068,371.5192,0,-1,3,5,-9999,1456907702.208169,-0.5861396789550781,49.81944274902344,-1.984130859375,7.997721672058105,4.720585823059082,25,10435.64132925,0.0466156005859375,0.9109039306640625,-0.4334259033203125,10435.62682625,-0.01691986135360042,0.03400137658536866,-0.005591839340839376,10435.59178525,0.2997702305164212,0.1093008440183885,-1.124700881868479,-0.004868111573159695,0.004175659269094467,0.0002722090575844049,-0.0003717194485943764,0.009024749509990215,-0.002662041457369924,XArbitraryCorrectedZVertical,-0.5333117287929136,-0.03380405158264188,0.09734331757538436,0.8396190591881112,0.04706361517310143,0.9021385908126831,-0.4288717806339264,-0.3711302280426025,51.96292114257812,-1.322244644165039,1,10433.34998325,stationary,1,2016-03-02 02:34:59.933,null,0,0,0,0,null,10435.38663525,0,0.01245117,97.41415,192.168.1.101,100.78.239.175,2,1,0.42,0
2016-03-02 02:35:02.262,48,234B9614-18C8-49ED-8B56-CAB6C4F40872,my_iOS_device_1,1456907702.000058,40.79923387620672,-96.68571752505068,371.5192,0,-1,3,5,-9999,1456907702.208169,-0.5861396789550781,49.81944274902344,-1.984130859375,7.997721672058105,4.720585823059082,25,10435.67162925,0.048126220703125,0.9080657958984375,-0.4353790283203125,10435.62682625,-0.01691986135360042,0.03400137658536866,-0.005591839340839376,10435.62682625,0.2998301023875656,0.1094997807356261,-1.124922708426326,-0.0006148124812170863,0.003115796018391848,0.0003347524325363338,0.001014418434351683,0.01027183886617422,-0.003526470856741071,XArbitraryCorrectedZVertical,-0.5334125540649004,-0.03375369429464425,0.0973015074799074,0.8395618809412202,0.04712706059217453,0.9022342562675476,-0.4286634624004364,-0.3699748516082764,51.96343231201172,-1.302230834960938,1,10433.34998325,stationary,1,2016-03-02 02:34:59.933,null,0,0,0,0,null,10435.38663525,0,0.01245117,97.41415,192.168.1.101,100.78.239.175,2,1,0.42,0
2016-03-02 02:35:02.293,49,234B9614-18C8-49ED-8B56-CAB6C4F40872,my_iOS_device_1,1456907702.000058,40.79923387620672,-96.68571752505068,371.5192,0,-1,3,5,-9999,1456907702.26701,-0.5861358642578125,50.16746520996094,-1.78582763671875,8.025253295898438,4.748116970062256,25,10435.70193125,0.0511627197265625,0.911163330078125,-0.434326171875,10435.66183725,-0.02011165992006039,0.03293557951711894,-0.005637645711588739,10435.66183725,0.2995981798060354,0.1093984321628031,-1.124912112614251,-0.003806366119533777,0.00205007684417069,0.0002885979774873704,-0.001155705074779689,0.006782145239412785,-0.005862047430127859,XArbitraryCorrectedZVertical,-0.5334071362895322,-0.03373356300451002,0.09723184380322737,0.8395742029344663,0.04708465933799744,0.9022296667098999,-0.4286777377128601,-0.3707141876220703,51.96350860595703,-1.299139022827148,1,10433.34998325,stationary,1,2016-03-02 02:34:59.933,null,0,0,0,0,null,10435.38663525,0,0.01245117,97.41415,192.168.1.101,100.78.239.175,2,1,0.42,0
2016-03-02 02:35:02.332,50,234B9614-18C8-49ED-8B56-CAB6C4F40872,my_iOS_device_1,1456907702.000058,40.79923387620672,-96.68571752505068,371.5192,0,-1,3,5,-9999,1456907702.325358,-0.2392330169677734,50.09788513183594,-1.78582763671875,8.035741806030273,4.758605480194092,25,10435.73223125,0.05145263671875,0.911224365234375,-0.4334716796875,10435.69683225,-0.02541774207593427,0.02973845462847882,-0.006778810238687693,10435.69683225,0.2996926695462602,0.1095411027470354,-1.124958846789687,-0.009148173034191132,-0.00112630263902247,-0.0008533032960258424,0.002709254156798124,0.009554349817335606,-0.005956458393484354,XArbitraryCorrectedZVertical,-0.5334318940277651,-0.033702493748121,0.09723053090901877,0.8395598729145277,0.04714120924472809,0.9022498726844788,-0.4286291003227234,-0.3737802505493164,51.96346282958984,-1.300088882446289,1,10433.34998325,stationary,1,2016-03-02 02:34:59.933,null,0,0,0,0,null,10435.38663525,0,0.01245117,97.41415,192.168.1.101,100.78.239.175,2,1,0.42,0
2016-03-02 02:35:02.354,51,234B9614-18C8-49ED-8B56-CAB6C4F40872,my_iOS_device_1,1456907702.000058,40.79923387620672,-96.68571752505068,371.5192,0,-1,3,5,-9999,1456907702.325358,-0.2392330169677734,50.09788513183594,-1.78582763671875,8.035741806030273,4.758605480194092,25,10435.76253025,0.0482330322265625,0.910308837890625,-0.4349212646484375,10435.73184525,-0.02327416371452948,0.03186392349447106,-0.007814513586619509,10435.69683225,0.2996926695462602,0.1095411027470354,-1.124958846789687,-0.009148173034191132,-0.00112630263902247,-0.0008533032960258424,0.002709254156798124,0.009554349817335606,-0.005956458393484354,XArbitraryCorrectedZVertical,-0.5334318940277651,-0.033702493748121,0.09723053090901877,0.8395598729145277,0.04714120924472809,0.9022498726844788,-0.4286291003227234,-0.3737802505493164,51.96346282958984,-1.300088882446289,1,10433.34998325,stationary,1,2016-03-02 02:34:59.933,null,0,0,0,0,null,10435.38663525,0,0.01245117,97.41415,192.168.1.101,100.78.239.175,2,1,0.42,0
2016-03-02 02:35:02.412,52,234B9614-18C8-49ED-8B56-CAB6C4F40872,my_iOS_device_1,1456907702.000058,40.79923387620672,-96.68571752505068,371.5192,0,-1,3,5,-9999,1456907702.390979,-0.03109359741210938,50.23707580566406,-1.98406982421875,8.031143188476562,4.754006862640381,25,10435.79283425,0.0475006103515625,0.9123687744140625,-0.433746337890625,10435.76687825,-0.02112818850814364,0.03717959303026922,-0.008851814831205371,10435.76687825,0.2999572176177536,0.1099959640862173,-1.125300506067034,-0.004858317319303751,0.006315907463431358,-0.002925106324255466,0.0009307025466114283,0.007911713793873787,-0.006620062980800867,XArbitraryCorrectedZVertical,-0.5335914725838412,-0.03360862389562486,0.09719881426936089,0.8394658964426606,0.04730232805013657,0.902397096157074,-0.428301215171814,-0.3659255504608154,51.9638557434082,-1.286399841308594,1,10433.34998325,stationary,1,2016-03-02 02:34:59.933,null,0,0,0,0,null,10435.38663525,0,0.01245117,97.41415,192.168.1.101,100.78.239.175,2,1,0.42,0
2016-03-02 02:35:02.414,53,234B9614-18C8-49ED-8B56-CAB6C4F40872,my_iOS_device_1,1456907702.000058,40.79923387620672,-96.68571752505068,371.5192,0,-1,3,5,-9999,1456907702.390979,-0.03109359741210938,50.23707580566406,-1.98406982421875,8.031143188476562,4.754006862640381,25,10435.82313625,0.042755126953125,0.9098968505859375,-0.4345703125,10435.80189125,-0.02328401741056278,0.03824725431128199,-0.006752178627786901,10435.80189125,0.2997364155156496,0.1099782732698694,-1.125392929550737,-0.007013637106865644,0.007383548188954592,-0.0008258517482317984,0.0002150118525605649,0.009931827895343304,-0.005527200177311897,XArbitraryCorrectedZVertical,-0.5336327093125911,-0.03356430707354975,0.0971050562898079,0.8394523076895606,0.04728559777140617,0.9024369716644287,-0.4282191395759583,-0.3677272796630859,51.9639892578125,-1.280557632446289,1,10433.34998325,stationary,1,2016-03-02 02:34:59.933,null,0,0,0,0,null,10435.38663525,0,0.01245117,97.41415,192.168.1.101,100.78.239.175,2,1,0.42,0
2016-03-02 02:35:02.445,54,234B9614-18C8-49ED-8B56-CAB6C4F40872,my_iOS_device_1,1456907702.000058,40.79923387620672,-96.68571752505068,371.5192,0,-1,3,5,-9999,1456907702.390979,-0.03109359741210938,50.23707580566406,-1.98406982421875,8.031143188476562,4.754006862640381,25,10435.85342225,0.0457000732421875,0.910369873046875,-0.437347412109375,10435.80189125,-0.02328401741056278,0.03824725431128199,-0.006752178627786901,10435.80189125,0.2997364155156496,0.1099782732698694,-1.125392929550737,-0.007013637106865644,0.007383548188954592,-0.0008258517482317984,0.0002150118525605649,0.009931827895343304,-0.005527200177311897,XArbitraryCorrectedZVertical,-0.5336327093125911,-0.03356430707354975,0.0971050562898079,0.8394523076895606,0.04728559777140617,0.9024369716644287,-0.4282191395759583,-0.3677272796630859,51.9639892578125,-1.280557632446289,1,10433.34998325,stationary,1,2016-03-02 02:34:59.933,null,0,0,0,0,null,10435.38663525,0,0.01245117,97.41415,192.168.1.101,100.78.239.175,2,1,0.42,0
2016-03-02 02:35:02.491,55,234B9614-18C8-49ED-8B56-CAB6C4F40872,my_iOS_device_1,1456907702.000058,40.79923387620672,-96.68571752505068,371.5192,0,-1,3,5,-9999,1456907702.445304,0.1076679229736328,50.79388427734375,-2.2484130859375,8.018682479858398,4.741546154022217,25,10435.88371525,0.0492706298828125,0.9140167236328125,-0.4340057373046875,10435.87192025,-0.02649605600130735,0.02974058515735089,-0.005728725820869449,10435.87192025,0.298900014431036,0.1092770010960763,-1.125730539791586,-0.0102565148845315,-0.001104975584894419,0.0001940485381055623,0.0005638105212710798,0.009054007939994335,-0.009214993566274643,XArbitraryCorrectedZVertical,-0.5337529776341582,-0.03366158287008828,0.09691999817859143,0.83939333489039,0.04695205762982368,0.9025823473930359,-0.4279493093490601,-0.3890736103057861,51.96419906616211,-1.265708923339844,1,10433.34998325,stationary,1,2016-03-02 02:34:59.933,null,0,0,0,0,null,10435.38663525,0,0.01245117,97.41415,192.168.1.101,100.78.239.175,2,1,0.42,0
2016-03-02 02:35:02.505,56,234B9614-18C8-49ED-8B56-CAB6C4F40872,my_iOS_device_1,1456907702.000058,40.79923387620672,-96.68571752505068,371.5192,0,-1,3,5,-9999,1456907702.502241,-0.2739219665527344,50.27189636230469,-1.81884765625,8.022418022155762,4.745282173156738,25,10435.91403925,0.04998779296875,0.9126739501953125,-0.428619384765625,10435.90691525,-0.01798752263461319,0.02868357652069843,-0.005604622514071757,10435.87192025,0.298900014431036,0.1092770010960763,-1.125730539791586,-0.0102565148845315,-0.001104975584894419,0.0001940485381055623,0.0005638105212710798,0.009054007939994335,-0.009214993566274643,XArbitraryCorrectedZVertical,-0.5337529776341582,-0.03366158287008828,0.09691999817859143,0.83939333489039,0.04695205762982368,0.9025823473930359,-0.4279493093490601,-0.3890736103057861,51.96419906616211,-1.265708923339844,1,10433.34998325,stationary,1,2016-03-02 02:34:59.933,null,0,0,0,0,null,10435.38663525,0,0.01245117,97.41415,192.168.1.101,100.78.239.175,2,1,0.42,0
2016-03-02 02:35:02.535,57,234B9614-18C8-49ED-8B56-CAB6C4F40872,my_iOS_device_1,1456907702.000058,40.79923387620672,-96.68571752505068,371.5192,0,-1,3,5,-9999,1456907702.502241,-0.2739219665527344,50.27189636230469,-1.81884765625,8.022418022155762,4.745282173156738,25,10435.94433925,0.048126220703125,0.9095001220703125,-0.4288482666015625,10435.90691525,-0.01798752263461319,0.02868357652069843,-0.005604622514071757,10435.90691525,0.2993578351073244,0.1096228540669236,-1.126004498629638,-0.001748704118654132,-0.002161315176635981,0.0003188934933859855,0.002792713232338428,0.01153009198606014,0.002104361308738589,XArbitraryCorrectedZVertical,-0.5338758215376852,-0.03365982215918099,0.09700268133930819,0.839305726992648,0.04707301035523415,0.9027002453804016,-0.4276872575283051,-0.3928964138031006,51.96427917480469,-1.261186599731445,1,10433.34998325,stationary,1,2016-03-02 02:34:59.933,null,0,0,0,0,null,10435.38663525,0,0.01245117,97.41415,192.168.1.101,100.78.239.175,2,1,0.42,0
2016-03-02 02:35:02.571,58,234B9614-18C8-49ED-8B56-CAB6C4F40872,my_iOS_device_1,1456907702.000058,40.79923387620672,-96.68571752505068,371.5192,0,-1,3,5,-9999,1456907702.561142,-0.6208267211914062,50.27189636230469,-1.62054443359375,8.04436206817627,4.767225742340088,25,10435.97463825,0.0481109619140625,0.9097900390625,-0.43695068359375,10435.94194925,-0.001010403317576063,0.031895348795334,-0.002162486805144341,10435.94194925,0.2996184951281038,0.1098284288032784,-1.125920555522567,0.01522717159241438,0.001050843624398112,0.003761283587664366,-0.0004468233673833311,0.005600026343017817,0.00241413339972496,XArbitraryCorrectedZVertical,-0.5338465491573672,-0.03363662781076823,0.09706245605511003,0.8393183656079732,0.04716923460364342,0.9026641249656677,-0.4277528822422028,-0.3835704326629639,51.96477127075195,-1.243539810180664,1,10433.34998325,stationary,1,2016-03-02 02:34:59.933,null,0,0,0,0,null,10435.38663525,0,0.01245117,97.41415,192.168.1.101,100.78.239.175,2,1,0.42,0
2016-03-02 02:35:02.596,59,234B9614-18C8-49ED-8B56-CAB6C4F40872,my_iOS_device_1,1456907702.000058,40.79923387620672,-96.68571752505068,371.5192,0,-1,3,5,-9999,1456907702.561142,-0.6208267211914062,50.27189636230469,-1.62054443359375,8.04436206817627,4.767225742340088,25,10436.00493725,0.0473785400390625,0.91241455078125,-0.4362030029296875,10435.97696025,-0.01052561157632017,0.03081304012832579,-0.006563094190391275,10435.97696025,0.2995098770662241,0.1096945674530105,-1.125407750708575,0.005712457001209259,-3.139022010145709e-05,-0.000639661040622741,0.0009483178146183491,0.00734670739620924,-0.008731442503631115,XArbitraryCorrectedZVertical,-0.5336288973685798,-0.03362409071688907,0.09708473977049492,0.8394546883068504,0.04716264456510544,0.9024433493614197,-0.4282192289829254,-0.3806352615356445,51.96475219726562,-1.245227813720703,1,10433.34998325,stationary,1,2016-03-02 02:34:59.933,null,0,0,0,0,null,10435.38663525,0,0.01245117,97.41415,192.168.1.101,100.78.239.175,2,1,0.42,0
