loggingTime,loggingSample,identifierForVendor,deviceID,locationTimestamp_since1970,locationLatitude,locationLongitude,locationAltitude,locationSpeed,locationCourse,locationVerticalAccuracy,locationHorizontalAccuracy,locationFloor,locationHeadingTimestamp_since1970,locationHeadingX,locationHeadingY,locationHeadingZ,locationTrueHeading,locationMagneticHeading,locationHeadingAccuracy,accelerometerTimestamp_sinceReboot,accelerometerAccelerationX,accelerometerAccelerationY,accelerometerAccelerationZ,gyroTimestamp_sinceReboot,gyroRotationX,gyroRotationY,gyroRotationZ,motionTimestamp_sinceReboot,motionYaw,motionRoll,motionPitch,motionRotationRateX,motionRotationRateY,motionRotationRateZ,motionUserAccelerationX,motionUserAccelerationY,motionUserAccelerationZ,motionAttitudeReferenceFrame,motionQuaternionX,motionQuaternionY,motionQuaternionZ,motionQuaternionW,motionGravityX,motionGravityY,motionGravityZ,motionMagneticFieldX,motionMagneticFieldY,motionMagneticFieldZ,motionMagneticFieldCalibrationAccuracy,activityTimestamp_sinceReboot,activity,activityActivityConfidence,activityActivityStartDate,pedometerStartDate,pedometerNumberofSteps,pedometerDistance,pedometerFloorAscended,pedometerFloorDescended,pedometerEndDate,altimeterTimestamp_sinceReboot,altimeterReset,altimeterRelativeAltitude,altimeterPressure,IP_en0,IP_pdp_ip0,deviceOrientation,batteryState,batteryLevel,state
2016-03-02 02:42:34.279,1,234B9614-18C8-49ED-8B56-CAB6C4F40872,my_iOS_device_1,1456908153.995615,40.79925877045914,-96.68577049867872,371.4192,0,-1,3,5,-9999,1456908154.259315,26.9085693359375,45.54966735839844,5.26702880859375,282.80126953125,279.5241394042969,25,10887.68439075,0.0248870849609375,1.013626098632812,0.0293121337890625,10887.66299975,-0.109195729963756,0.07216740448340322,-0.02400333722099318,10887.66299975,2.055806108847532,1.684936008861233,-1.535193230337322,-0.08868642151355743,0.0418291948735714,-0.0177743062376976,0.01024456042796373,0.01367998775094748,-0.008509618230164051,XArbitraryCorrectedZVertical,0.6985886982596083,0.1183252149176479,-0.1423778847544847,-0.6911595417206288,0.03536396101117134,0.999366283416748,0.004054051823914051,26.56469345092773,44.07778930664062,9.434562683105469,1,10887.37175975,stationary,1,2016-03-02 02:42:33.957,2016-03-02 02:41:14.235,15,30.25477,0,1,2016-03-02 02:42:24.944,10886.57952375,0,-2.19754,97.42587,192.168.1.101,100.78.239.175,2,1,0.38,0
2016-03-02 02:42:34.306,2,234B9614-18C8-49ED-8B56-CAB6C4F40872,my_iOS_device_1,1456908153.995615,40.79925877045914,-96.68577049867872,371.4192,0,-1,3,5,-9999,1456908154.259315,26.9085693359375,45.54966735839844,5.26702880859375,282.80126953125,279.5241394042969,25,10887.71467675,0.0401153564453125,1.01727294921875,0.003082275390625,10887.69801775,0.007530354298308054,0.05423021559339253,-0.003115632159283701,10887.66299975,2.055806108847532,1.684936008861233,-1.535193230337322,-0.08868642151355743,0.0418291948735714,-0.0177743062376976,0.01024456042796373,0.01367998775094748,-0.008509618230164051,XArbitraryCorrectedZVertical,0.6985886982596083,0.1183252149176479,-0.1423778847544847,-0.6911595417206288,0.03536396101117134,0.999366283416748,0.004054051823914051,26.56469345092773,44.07778930664062,9.434562683105469,1,10887.37175975,stationary,1,2016-03-02 02:42:33.957,2016-03-02 02:41:14.235,15,30.25477,0,1,2016-03-02 02:42:24.944,10886.57952375,0,-2.19754,97.42587,192.168.1.101,100.78.239.175,2,1,0.38,0
2016-03-02 02:42:34.336,3,234B9614-18C8-49ED-8B56-CAB6C4F40872,my_iOS_device_1,1456908153.995615,40.79925877045914,-96.68577049867872,371.4192,0,-1,3,5,-9999,1456908154.318799,26.76990127563477,45.41043090820312,4.93719482421875,282.1165161132812,278.8393859863281,25,10887.74496575,0.0363922119140625,1.011184692382812,0.014801025390625,10887.73301875,-0.01049418627545724,0.05314151533976814,-0.007639810219110311,10887.69801775,2.087872083149466,1.717831776944198,-1.535535856517978,0.02803328074514866,0.02389251627027988,0.003111497964709997,-0.003912690561264753,0.01536157634109259,-0.003242200473323464,XArbitraryCorrectedZVertical,0.6989939453024587,0.1182787737703753,-0.1418484908146204,-0.6908665585766091,0.03487277403473854,0.9993784427642822,0.005164807662367821,26.56186294555664,44.06521987915039,9.501025199890137,1,10887.37175975,stationary,1,2016-03-02 02:42:33.957,2016-03-02 02:41:14.235,15,30.25477,0,1,2016-03-02 02:42:24.944,10886.57952375,0,-2.19754,97.42587,192.168.1.101,100.78.239.175,2,1,0.38,0
2016-03-02 02:42:34.358,4,234B9614-18C8-49ED-8B56-CAB6C4F40872,my_iOS_device_1,1456908153.995615,40.79925877045914,-96.68577049867872,371.4192,0,-1,3,5,-9999,1456908154.318799,26.76990127563477,45.41043090820312,4.93719482421875,282.1165161132812,278.8393859863281,25,10887.77525775,0.0385284423828125,1.00836181640625,0.00830078125,10887.73301875,-0.01049418627545724,0.05314151533976814,-0.007639810219110311,10887.73301875,2.077338560516336,1.708174210202678,-1.535492135388123,0.01004893612116575,0.02279423736035824,-0.001414391794241965,0.003319993382319808,0.01803340576589108,0.004992890637367964,XArbitraryCorrectedZVertical,0.6989362864571186,0.1179192619785505,-0.1415991493354488,-0.6910374780252057,0.03496430814266205,0.9993768930435181,0.004833769518882036,26.53155326843262,44.06852722167969,9.570112228393555,1,10887.37175975,stationary,1,2016-03-02 02:42:33.957,2016-03-02 02:41:14.235,15,30.25477,0,1,2016-03-02 02:42:24.944,10886.57952375,0,-2.19754,97.42587,192.168.1.101,100.78.239.175,2,1,0.38,0
2016-03-02 02:42:34.386,5,234B9614-18C8-49ED-8B56-CAB6C4F40872,my_iOS_device_1,1456908153.995615,40.79925877045914,-96.68577049867872,371.4192,0,-1,3,5,-9999,1456908154.377938,26.70056915283203,45.61929321289062,4.80523681640625,281.7795715332031,278.50244140625,25,10887.80554775,0.0385589599609375,1.005020141601562,0.004852294921875,10887.76803475,0.003206445952455403,0.05955866830242307,0.002147573103039898,10887.76803475,2.071060401907135,1.702820777951785,-1.535235823193844,0.02374620735645294,0.02921172231435776,0.008373374119400978,0.00160636892542243,0.008765142410993576,0.007648859173059464,XArbitraryCorrectedZVertical,0.6989538744651768,0.1174887337882731,-0.141386389298567,-0.6911365767516957,0.03524360805749893,0.9993677735328674,0.004680242389440536,26.52949142456055,44.06954956054688,9.571136474609375,1,10887.37175975,stationary,1,2016-03-02 02:42:33.957,2016-03-02 02:41:14.235,15,30.25477,0,1,2016-03-02 02:42:24.944,10886.57952375,0,-2.19754,97.42587,192.168.1.101,100.78.239.175,2,1,0.38,0
2016-03-02 02:42:34.417,6,234B9614-18C8-49ED-8B56-CAB6C4F40872,my_iOS_device_1,1456908153.995615,40.79925877045914,-96.68577049867872,371.4192,0,-1,3,5,-9999,1456908154.377938,26.70056915283203,45.61929321289062,4.80523681640625,281.7795715332031,278.50244140625,25,10887.83581975,0.0400390625,1.023086547851562,0.00457763671875,10887.80305375,-0.03925313025500492,0.05844573328287896,-0.004862932150484689,10887.80305375,2.068241676027321,1.700973025562255,-1.534900693800852,-0.01871376298367977,0.0280989482998848,0.001363812247291207,0.00491255009546876,0.009631605818867683,-0.00156105391215533,XArbitraryCorrectedZVertical,0.6990232308931992,0.117029127766708,-0.1411703213771079,-0.6911885750560938,0.03558427467942238,0.9993557929992676,0.004658588208258152,26.53469276428223,44.06062316894531,9.597776412963867,1,10887.37175975,stationary,1,2016-03-02 02:42:33.957,2016-03-02 02:41:14.235,15,30.25477,0,1,2016-03-02 02:42:24.944,10886.57952375,0,-2.19754,97.42587,192.168.1.101,100.78.239.175,2,1,0.38,0
2016-03-02 02:42:34.460,7,234B9614-18C8-49ED-8B56-CAB6C4F40872,my_iOS_device_1,1456908153.995615,40.79925877045914,-96.68577049867872,371.4192,0,-1,3,5,-9999,1456908154.437641,26.70056915283203,45.758544921875,4.409423828125,281.1329650878906,277.8558349609375,25,10887.86610975,0.034576416015625,1.011428833007812,0.0175933837890625,10887.83805875,-0.01265241202285745,0.05101897595097499,-0.005538576119037792,10887.83805875,2.078273018818312,1.711884204297807,-1.534685539088608,0.007884613238275051,0.02067249268293381,0.0006886774208396673,0.004294855520129204,0.02373847179114819,-0.0004991682944819331,XArbitraryCorrectedZVertical,0.6992290215703699,0.1166926643515284,-0.1408946817798739,-0.6910935436874122,0.03574420884251595,0.9993481040000916,0.005076805129647255,22.93837547302246,45.2879638671875,6.973511695861816,1,10887.37175975,stationary,1,2016-03-02 02:42:33.957,2016-03-02 02:41:14.235,15,30.25477,0,1,2016-03-02 02:42:24.944,10886.57952375,0,-2.19754,97.42587,192.168.1.101,100.78.239.175,2,1,0.38,0
2016-03-02 02:42:34.477,8,234B9614-18C8-49ED-8B56-CAB6C4F40872,my_iOS_device_1,1456908153.995615,40.79925877045914,-96.68577049867872,371.4192,0,-1,3,5,-9999,1456908154.437641,26.70056915283203,45.758544921875,4.409423828125,281.1329650878906,277.8558349609375,25,10887.89641175,0.0342864990234375,1.009246826171875,0.0062713623046875,10887.87307475,-0.00943051973607959,0.05314231428809517,-0.007624363884787851,10887.87307475,2.081591814840853,1.715867882623111,-1.534703398265638,0.01110524218529463,0.02279605343937874,-0.001397169544361532,-0.001129623153246939,0.01208011247217655,0.01237680576741695,XArbitraryCorrectedZVertical,0.6993140345994728,0.1164824873717805,-0.1406426855496716,-0.6910943106040291,0.0357060395181179,0.9993487000465393,0.005216577555984259,22.93849182128906,45.28617095947266,6.984757900238037,1,10887.37175975,stationary,1,2016-03-02 02:42:33.957,2016-03-02 02:41:14.235,15,30.25477,0,1,2016-03-02 02:42:24.944,10887.89180975,0,-2.21106,97.42603,192.168.1.101,100.78.239.175,2,1,0.38,0
2016-03-02 02:42:34.507,9,234B9614-18C8-49ED-8B56-CAB6C4F40872,my_iOS_device_1,1456908153.995615,40.79925877045914,-96.68577049867872,371.4192,0,-1,3,5,-9999,1456908154.49398,27.04723739624023,45.34083557128906,4.47540283203125,281.133056640625,277.8559265136719,25,10887.92670175,0.0336151123046875,1.00958251953125,0.009307861328125,10887.90806875,-0.01686633181568983,0.04675339083299507,-0.008794823183877675,10887.87307475,2.081591814840853,1.715867882623111,-1.534703398265638,0.01110524218529463,0.02279605343937874,-0.001397169544361532,-0.001129623153246939,0.01208011247217655,0.01237680576741695,XArbitraryCorrectedZVertical,0.6993140345994728,0.1164824873717805,-0.1406426855496716,-0.6910943106040291,0.0357060395181179,0.9993487000465393,0.005216577555984259,22.93849182128906,45.28617095947266,6.984757900238037,1,10887.37175975,stationary,1,2016-03-02 02:42:33.957,2016-03-02 02:41:14.235,15,30.25477,0,1,2016-03-02 02:42:24.944,10887.89180975,0,-2.21106,97.42603,192.168.1.101,100.78.239.175,2,1,0.38,0
2016-03-02 02:42:34.541,10,234B9614-18C8-49ED-8B56-CAB6C4F40872,my_iOS_device_1,1456908153.995615,40.79925877045914,-96.68577049867872,371.4192,0,-1,3,5,-9999,1456908154.49398,27.04723739624023,45.34083557128906,4.47540283203125,281.133056640625,277.8559265136719,25,10887.95699275,0.035369873046875,1.015655517578125,0.0034332275390625,10887.94310075,-0.02330931744091853,0.04357011438202336,-0.004623780284595574,10887.90806875,2.074849119555056,1.709841099232364,-1.534823407968831,0.003692575497552752,0.01640507951378822,-0.002569605363532901,0.0003469104703981429,0.01006162818521261,-0.007502369582653046,XArbitraryCorrectedZVertical,0.6992701427782129,0.1162480200574641,-0.1403797089286479,-0.6912316562287624,0.03561805561184883,0.9993530511856079,0.004984669387340546,22.93050003051758,45.28620910644531,7.010705471038818,1,10887.37175975,stationary,1,2016-03-02 02:42:33.957,2016-03-02 02:41:14.235,15,30.25477,0,1,2016-03-02 02:42:24.944,10887.89180975,0,-2.21106,97.42603,192.168.1.101,100.78.239.175,2,1,0.38,0
2016-03-02 02:42:34.568,11,234B9614-18C8-49ED-8B56-CAB6C4F40872,my_iOS_device_1,1456908153.995615,40.79925877045914,-96.68577049867872,371.4192,0,-1,3,5,-9999,1456908154.552768,27.3245735168457,45.61929321289062,4.80523681640625,281.1405944824219,277.8634643554688,25,10887.98728275,0.03643798828125,1.011825561523438,0.0021514892578125,10887.94310075,-0.02330931744091853,0.04357011438202336,-0.004623780284595574,10887.94310075,2.082160308808022,1.717656616665823,-1.534869325687985,-0.002751081017777324,0.01322201080620289,0.001601120340637863,-0.0007120594382286072,0.01448502670973539,0.002876761602237821,XArbitraryCorrectedZVertical,0.699388660055656,0.1161188559103836,-0.1401583360723881,-0.691178380967627,0.03553261607885361,0.9993547201156616,0.005256173200905323,22.92509460449219,45.28855133056641,7.013248920440674,1,10887.37175975,stationary,1,2016-03-02 02:42:33.957,2016-03-02 02:41:14.235,15,30.25477,0,1,2016-03-02 02:42:24.944,10887.89180975,0,-2.21106,97.42603,192.168.1.101,100.78.239.175,2,1,0.38,0
2016-03-02 02:42:34.621,12,234B9614-18C8-49ED-8B56-CAB6C4F40872,my_iOS_device_1,1456908153.995615,40.79925877045914,-96.68577049867872,371.4192,0,-1,3,5,-9999,1456908154.611327,27.28990745544434,45.72372436523438,4.97015380859375,281.1591186523438,277.8819885253906,25,10888.01756975,0.036956787109375,1.00811767578125,-0.00616455078125,10887.97808975,-0.02115908117678856,0.03505865153813011,-0.006719688062487934,10887.97808975,2.080125306292116,1.715959469134473,-1.534850189283314,-0.0006004114402458072,0.004710773937404156,-0.0004948947462253273,0.002342423656955361,0.01501977257430553,-0.006220966577529907,XArbitraryCorrectedZVertical,0.6993899142475605,0.115987334346173,-0.1400549049534098,-0.6912201600926751,0.03556040674448013,0.9993540048599243,0.005198627710342407,22.91662406921387,45.29000091552734,7.031571388244629,1,10887.37175975,stationary,1,2016-03-02 02:42:33.957,2016-03-02 02:41:14.235,15,30.25477,0,1,2016-03-02 02:42:24.944,10887.89180975,0,-2.21106,97.42603,192.168.1.101,100.78.239.175,2,1,0.38,0
2016-03-02 02:42:34.639,13,234B9614-18C8-49ED-8B56-CAB6C4F40872,my_iOS_device_1,1456908153.995615,40.79925877045914,-96.68577049867872,371.4192,0,-1,3,5,-9999,1456908154.611327,27.28990745544434,45.72372436523438,4.97015380859375,281.1591186523438,277.8819885253906,25,10888.04786475,0.039276123046875,1.012619018554688,0.0029296875,10888.01311175,-0.02961781343109823,0.02440653981003118,-0.01110005542345027,10888.01311175,2.077996674032511,1.713799412810895,-1.535112815934188,-0.009057503193616867,-0.005941199604421854,-0.004875894635915756,-0.001040535280480981,0.008967887610197067,-0.009738328866660595,XArbitraryCorrectedZVertical,0.6993340710806656,0.1160778030296259,-0.1399868877434508,-0.6912752504823624,0.03531177714467049,0.9993634223937988,0.005084398668259382,22.90768623352051,45.2939453125,7.035280704498291,1,10887.37175975,stationary,1,2016-03-02 02:42:33.957,2016-03-02 02:41:14.235,15,30.25477,0,1,2016-03-02 02:42:24.944,10887.89180975,0,-2.21106,97.42603,192.168.1.101,100.78.239.175,2,1,0.38,0
2016-03-02 02:42:34.669,14,234B9614-18C8-49ED-8B56-CAB6C4F40872,my_iOS_device_1,1456908153.995615,40.79925877045914,-96.68577049867872,371.4192,0,-1,3,5,-9999,1456908154.611327,27.28990745544434,45.72372436523438,4.97015380859375,281.1591186523438,277.8819885253906,25,10888.07815675,0.0348358154296875,1.015350341796875,-0.0021820068359375,10888.04813975,-0.03500272515523845,0.01378026074450601,-0.006909837764319591,10888.04813975,2.079444797830392,1.7148366686146,-1.535064812502941,-0.01442006602883339,-0.01654699444770813,-0.0006871261866763234,0.003922164440155029,0.01325732097029686,-0.002198221860453486,XArbitraryCorrectedZVertical,0.6993277488999483,0.1162095276939558,-0.1401407262419542,-0.6912283429808477,0.03535395860671997,0.9993616938591003,0.00512790959328413,22.90393829345703,45.29741668701172,7.02510404586792,1,10887.37175975,stationary,1,2016-03-02 02:42:33.957,2016-03-02 02:41:14.235,15,30.25477,0,1,2016-03-02 02:42:24.944,10887.89180975,0,-2.21106,97.42603,192.168.1.101,100.78.239.175,2,1,0.38,0
2016-03-02 02:42:34.700,15,234B9614-18C8-49ED-8B56-CAB6C4F40872,my_iOS_device_1,1456908153.995615,40.79925877045914,-96.68577049867872,371.4192,0,-1,3,5,-9999,1456908154.670053,27.22057342529297,45.65412902832031,5.03619384765625,281.1779479980469,277.9008178710938,25,10888.10844675,0.0330352783203125,1.010772705078125,0.0019989013671875,10888.08315075,-0.0371249982279226,0.001014930691429198,-0.007999869598489024,10888.08315075,2.088518806332066,1.723072905036121,-1.535059158556096,-0.01654131896793842,-0.02931215614080429,-0.001777069759555161,-0.0004802948969881982,0.01598884724080563,-0.007601779885590076,XArbitraryCorrectedZVertical,0.6993780298576034,0.1165343630823534,-0.1403983399019834,-0.691070488247217,0.0353161096572876,0.999361515045166,0.005419773049652576,22.90619659423828,45.29647064208984,7.023825168609619,1,10887.37175975,stationary,1,2016-03-02 02:42:33.957,2016-03-02 02:41:14.235,15,30.25477,0,1,2016-03-02 02:42:24.944,10887.89180975,0,-2.21106,97.42603,192.168.1.101,100.78.239.175,2,1,0.38,0
2016-03-02 02:42:34.725,16,234B9614-18C8-49ED-8B56-CAB6C4F40872,my_iOS_device_1,1456908153.995615,40.79925877045914,-96.68577049867872,371.4192,0,-1,3,5,-9999,1456908154.670053,27.22057342529297,45.65412902832031,5.03619384765625,281.1779479980469,277.9008178710938,25,10888.13873575,0.03070068359375,1.01318359375,0.007598876953125,10888.11816775,-0.03500325778745646,-0.006427272974797234,-0.007965248504317993,10888.08315075,2.088518806332066,1.723072905036121,-1.535059158556096,-0.01654131896793842,-0.02931215614080429,-0.001777069759555161,-0.0004802948969881982,0.01598884724080563,-0.007601779885590076,XArbitraryCorrectedZVertical,0.6993780298576034,0.1165343630823534,-0.1403983399019834,-0.691070488247217,0.0353161096572876,0.999361515045166,0.005419773049652576,22.90619659423828,45.29647064208984,7.023825168609619,1,10887.37175975,stationary,1,2016-03-02 02:42:33.957,2016-03-02 02:41:14.235,15,30.25477,0,1,2016-03-02 02:42:24.944,10887.89180975,0,-2.21106,97.42603,192.168.1.101,100.78.239.175,2,1,0.38,0
2016-03-02 02:42:34.750,17,234B9614-18C8-49ED-8B56-CAB6C4F40872,my_iOS_device_1,1456908153.995615,40.79925877045914,-96.68577049867872,371.4192,0,-1,3,5,-9999,1456908154.74086,27.3245735168457,45.61929321289062,5.069091796875,281.2002258300781,277.923095703125,25,10888.16901775,0.04443359375,1.01220703125,0.005645751953125,10888.15317675,-0.02874056816802613,-0.02873337763308292,-0.0004026699568199808,10888.11816775,2.093857353352881,1.727210290431812,-1.535172867288681,-0.01441782712936401,-0.03675423935055733,-0.001742842490784824,-0.002145857084542513,0.0114071536809206,-0.003549239132553339,XArbitraryCorrectedZVertical,0.6993445469313326,0.1170097214681297,-0.1407582733086867,-0.6909508218784527,0.03518113493919373,0.9993655681610107,0.005548140499740839,22.91317367553711,45.29369354248047,7.018994331359863,1,10887.37175975,stationary,1,2016-03-02 02:42:33.957,2016-03-02 02:41:14.235,15,30.25477,0,1,2016-03-02 02:42:24.944,10887.89180975,0,-2.21106,97.42603,192.168.1.101,100.78.239.175,2,1,0.38,0
2016-03-02 02:42:34.788,18,234B9614-18C8-49ED-8B56-CAB6C4F40872,my_iOS_device_1,1456908153.995615,40.79925877045914,-96.68577049867872,371.4192,0,-1,3,5,-9999,1456908154.74086,27.3245735168457,45.61929321289062,5.069091796875,281.2002258300781,277.923095703125,25,10888.19929875,0.07147216796875,1.010787963867188,0.0054168701171875,10888.18818875,-0.02566275289622156,-0.08188634456553839,0.004997954417751706,10888.15317675,2.104690862428506,1.736395415091168,-1.535179280297811,-0.008155210874974728,-0.05906009301543236,0.005818690173327923,0.0002932790666818619,0.01413824781775475,-0.002223137998953462,XArbitraryCorrectedZVertical,0.6993559897186722,0.1176273519055438,-0.1412864405892321,-0.6907265359271525,0.03512237221002579,0.9993658065795898,0.005869988352060318,22.91456985473633,45.29645156860352,6.996597290039062,1,10887.37175975,stationary,1,2016-03-02 02:42:33.957,2016-03-02 02:41:14.235,15,30.25477,0,1,2016-03-02 02:42:24.944,10887.89180975,0,-2.21106,97.42603,192.168.1.101,100.78.239.175,2,1,0.38,0
2016-03-02 02:42:34.813,19,234B9614-18C8-49ED-8B56-CAB6C4F40872,my_iOS_device_1,1456908153.995615,40.79925877045914,-96.68577049867872,371.4192,0,-1,3,5,-9999,1456908154.789741,27.04723739624023,45.61929321289062,5.2669677734375,281.2286071777344,277.9514770507812,25,10888.22962975,0.074371337890625,1.0103759765625,0.00054931640625,10888.18818875,-0.02566275289622156,-0.08188634456553839,0.004997954417751706,10888.18818875,2.106609993818462,1.735301532830234,-1.534371123691065,-0.005077430978417397,-0.1122129112482071,0.01122198347002268,0.01693094521760941,0.01131395902484655,0.003069376572966576,XArbitraryCorrectedZVertical,0.6992579986660642,0.118406775985244,-0.142598990991554,-0.6904227795130271,0.03592550009489059,0.9993366599082947,0.005963826552033424,22.93529510498047,45.29121017456055,6.96256160736084,1,10887.37175975,stationary,1,2016-03-02 02:42:33.957,2016-03-02 02:41:14.235,15,30.25477,0,1,2016-03-02 02:42:24.944,10887.89180975,0,-2.21106,97.42603,192.168.1.101,100.78.239.175,2,1,0.38,0
2016-03-02 02:42:34.861,20,234B9614-18C8-49ED-8B56-CAB6C4F40872,my_iOS_device_1,1456908153.995615,40.79925877045914,-96.68577049867872,371.4192,0,-1,3,5,-9999,1456908154.846611,26.70056533813477,45.27120971679688,5.20098876953125,282.0639343261719,278.7868041992188,25,10888.25991775,0.0491943359375,1.008834838867188,0.0023345947265625,10888.22319575,-0.0363385667580222,-0.134000944988972,0.004869590053209887,10888.22319575,2.097830008466341,1.721464990537749,-1.531638930231532,-0.01573903858661652,-0.1642841845750809,0.01110198814421892,0.03978732228279114,0.01160029321908951,-0.005143572110682726,XArbitraryCorrectedZVertical,0.6990918724994489,0.1191996261689598,-0.1453119740421093,-0.6898887106819277,0.03870388865470886,0.9992334246635437,0.005875993985682726,23.04617118835449,45.24773406982422,6.878605842590332,1,10887.37175975,stationary,1,2016-03-02 02:42:33.957,2016-03-02 02:41:14.235,15,30.25477,0,1,2016-03-02 02:42:24.944,10887.89180975,0,-2.21106,97.42603,192.168.1.101,100.78.239.175,2,1,0.38,0
2016-03-02 02:42:34.876,21,234B9614-18C8-49ED-8B56-CAB6C4F40872,my_iOS_device_1,1456908153.995615,40.79925877045914,-96.68577049867872,371.4192,0,-1,3,5,-9999,1456908154.846611,26.70056533813477,45.27120971679688,5.20098876953125,282.0639343261719,278.7868041992188,25,10888.29020775,0.0225067138671875,1.0098876953125,0.0109710693359375,10888.25819375,-0.05364964647575526,-0.1722434056102918,0.02382117700243176,10888.25819375,2.108715247687018,1.725733634742756,-1.529588522378413,-0.03304901719093323,-0.2025265991687775,0.03006010875105858,0.01697555929422379,0.00948539562523365,-0.006113172508776188,XArbitraryCorrectedZVertical,0.6989811192851368,0.1208472231698048,-0.1482525385103161,-0.6890881861999122,0.04070266336202621,0.9991510510444641,0.006357313133776188,23.22197341918945,45.17887496948242,6.73853588104248,1,10887.37175975,stationary,1,2016-03-02 02:42:33.957,2016-03-02 02:41:14.235,15,30.25477,0,1,2016-03-02 02:42:24.944,10887.89180975,0,-2.21106,97.42603,192.168.1.101,100.78.239.175,2,1,0.38,0
2016-03-02 02:42:34.905,22,234B9614-18C8-49ED-8B56-CAB6C4F40872,my_iOS_device_1,1456908153.995615,40.79925877045914,-96.68577049867872,371.4192,0,-1,3,5,-9999,1456908154.846611,26.70056533813477,45.27120971679688,5.20098876953125,282.0639343261719,278.7868041992188,25,10888.32050175,0.011199951171875,1.012557983398438,0.0160064697265625,10888.29319975,-0.05273272011244098,-0.1530691783939393,0.03554787423037767,10888.29319975,2.131804771844892,1.741916525498447,-1.528450073276463,-0.03213241323828697,-0.1833521127700806,0.04178470000624657,-0.01920858770608902,0.01078416407108307,0.003762237727642059,XArbitraryCorrectedZVertical,0.6989162297096014,0.1229655222293509,-0.1509228111839554,-0.6881990186390149,0.04171530157327652,0.9991035461425781,0.007208831608295441,23.29282188415527,45.15301132202148,6.666972160339355,1,10887.37175975,stationary,1,2016-03-02 02:42:33.957,2016-03-02 02:41:14.235,15,30.25477,0,1,2016-03-02 02:42:24.944,10887.89180975,0,-2.21106,97.42603,192.168.1.101,100.78.239.175,2,1,0.38,0
2016-03-02 02:42:34.941,23,234B9614-18C8-49ED-8B56-CAB6C4F40872,my_iOS_device_1,1456908153.995615,40.79925877045914,-96.68577049867872,371.4192,0,-1,3,5,-9999,1456908154.905762,27.04723930358887,45.3408203125,5.069091796875,281.8609619140625,278.5838317871094,25,10888.35079475,-0.003753662109375,1.017593383789062,0.02374267578125,10888.32821775,-0.06948693284623847,-0.0935754912221142,0.01928794419489888,10888.32821775,2.173769089251935,1.778477948757846,-1.528424722081157,-0.04888778179883957,-0.1238581240177155,0.02551701851189137,-0.03024875000119209,0.0134555259719491,0.007272402290254831,XArbitraryCorrectedZVertical,0.6990916702787447,0.1250514706315761,-0.152583002714353,-0.687278250436036,0.04144870117306709,0.9991024732589722,0.008734067901968956,23.34568977355957,45.13503646850586,6.603479862213135,1,10887.37175975,stationary,1,2016-03-02 02:42:33.957,2016-03-02 02:41:14.235,15,30.25477,0,1,2016-03-02 02:42:24.944,10887.89180975,0,-2.21106,97.42603,192.168.1.101,100.78.239.175,2,1,0.38,0
2016-03-02 02:42:34.965,24,234B9614-18C8-49ED-8B56-CAB6C4F40872,my_iOS_device_1,1456908153.995615,40.79925877045914,-96.68577049867872,371.4192,0,-1,3,5,-9999,1456908154.943604,27.11657333374023,45.3408203125,5.2010498046875,281.8379211425781,278.560791015625,25,10888.38107275,-0.001220703125,1.02545166015625,0.0272979736328125,10888.36325375,-0.0554121264851697,-0.01810177224537759,0.005599029875782591,10888.32821775,2.173769089251935,1.778477948757846,-1.528424722081157,-0.04888778179883957,-0.1238581240177155,0.02551701851189137,-0.03024875000119209,0.0134555259719491,0.007272402290254831,XArbitraryCorrectedZVertical,0.6990916702787447,0.1250514706315761,-0.152583002714353,-0.687278250436036,0.04144870117306709,0.9991024732589722,0.008734067901968956,23.34568977355957,45.13503646850586,6.603479862213135,1,10887.37175975,stationary,1,2016-03-02 02:42:33.957,2016-03-02 02:41:14.235,15,30.25477,0,1,2016-03-02 02:42:24.944,10887.89180975,0,-2.21106,97.42603,192.168.1.101,100.78.239.175,2,1,0.38,0
2016-03-02 02:42:34.998,25,234B9614-18C8-49ED-8B56-CAB6C4F40872,my_iOS_device_1,1456908153.995615,40.79925877045914,-96.68577049867872,371.4192,0,-1,3,5,-9999,1456908154.943604,27.11657333374023,45.3408203125,5.2010498046875,281.8379211425781,278.560791015625,25,10888.41136675,0.0075531005859375,1.016799926757812,0.019134521484375,10888.39826475,-0.02108957267233749,0.06907867025112933,-0.00993332454988655,10888.36325375,2.215224241973902,1.817194489533244,-1.528146342235307,-0.03481221944093704,-0.04834001511335373,0.01182033028453588,-0.04508770257234573,0.02489618957042694,0.016593087464571,XArbitraryCorrectedZVertical,0.6994881999279641,0.1261590801482011,-0.1533726698051374,-0.6864961535322195,0.04134929925203323,0.9990906119346619,0.0103997103869915,23.37545585632324,45.12929534912109,6.537081718444824,1,10887.37175975,stationary,1,2016-03-02 02:42:33.957,2016-03-02 02:41:14.235,15,30.25477,0,1,2016-03-02 02:42:24.944,10887.89180975,0,-2.21106,97.42603,192.168.1.101,100.78.239.175,2,1,0.38,0
2016-03-02 02:42:35.025,26,234B9614-18C8-49ED-8B56-CAB6C4F40872,my_iOS_device_1,1456908153.995615,40.79925877045914,-96.68577049867872,371.4192,0,-1,3,5,-9999,1456908154.996647,27.25523948669434,45.27120971679688,5.20098876953125,281.4880676269531,278.2109375,25,10888.44165175,0.019500732421875,1.01275634765625,0.021392822265625,10888.39826475,-0.02108957267233749,0.06907867025112933,-0.00993332454988655,10888.39826475,2.237357266660613,1.839468445604477,-1.528606000450291,-0.0004909536219201982,0.03884069994091988,-0.003716040169820189,-0.04364011436700821,0.02386961691081524,0.01245496328920126,XArbitraryCorrectedZVertical,0.6997286797175903,0.1264035397122823,-0.1530319075632805,-0.6862821250742431,0.04066465049982071,0.9991101026535034,0.01119615975767374,23.36672782897949,45.12842559814453,6.574167728424072,1,10887.37175975,stationary,1,2016-03-02 02:42:33.957,2016-03-02 02:41:14.235,15,30.25477,0,1,2016-03-02 02:42:24.944,10887.89180975,0,-2.21106,97.42603,192.168.1.101,100.78.239.175,2,1,0.38,0
2016-03-02 02:42:35.056,27,234B9614-18C8-49ED-8B56-CAB6C4F40872,my_iOS_device_1,1456908153.995615,40.79925877045914,-96.68577049867872,371.4192,0,-1,3,5,-9999,1456908155.052068,27.2552375793457,44.50541687011719,5.2669677734375,281.5118103027344,278.2346801757812,25,10888.47194375,0.0341796875,1.011734008789062,0.0205841064453125,10888.43327975,-0.01240926541533322,0.1211653074831171,-0.01942562962325598,10888.43327975,2.247435357825124,1.851979837189796,-1.529890527463374,0.008187687955796719,0.09092769771814346,-0.01321383193135262,-0.02315983548760414,0.01386753097176552,0.009938107803463936,XArbitraryCorrectedZVertical,0.6998481199598243,0.1260418987120064,-0.1517107582231531,-0.6865201341527571,0.03928837552666664,0.9991634488105774,0.01134790293872356,23.36013031005859,45.12914276123047,6.592696189880371,1,10887.37175975,stationary,1,2016-03-02 02:42:33.957,2016-03-02 02:41:14.235,15,30.25477,0,1,2016-03-02 02:42:24.944,10887.89180975,0,-2.21106,97.42603,192.168.1.101,100.78.239.175,2,1,0.38,0
2016-03-02 02:42:35.100,28,234B9614-18C8-49ED-8B56-CAB6C4F40872,my_iOS_device_1,1456908154.995615,40.79925877045914,-96.68577049867872,371.4045,0,-1,3,5,-9999,1456908155.052068,27.2552375793457,44.50541687011719,5.2669677734375,281.5118103027344,278.2346801757812,25,10888.50223675,0.03985595703125,1.01043701171875,0.0119171142578125,10888.46828475,-0.007044061083259585,0.1445582481822641,-0.02149117736472144,10888.46828475,2.264251625243192,1.872627439315238,-1.531053760922952,0.01354951877146959,0.1143209785223007,-0.01528392545878887,-0.01060747448354959,0.01293562818318605,0.01333536021411419,XArbitraryCorrectedZVertical,0.7001639722656495,0.125203730865189,-0.1498958240476028,-0.6867500852942839,0.03793596476316452,0.9992103576660156,0.01181112416088581,23.20832252502441,45.18558120727539,6.740586280822754,1,10887.37175975,stationary,1,2016-03-02 02:42:33.957,2016-03-02 02:41:14.235,15,30.25477,0,1,2016-03-02 02:42:24.944,10887.89180975,0,-2.21106,97.42603,192.168.1.101,100.78.239.175,2,1,0.38,0
2016-03-02 02:42:35.116,29,234B9614-18C8-49ED-8B56-CAB6C4F40872,my_iOS_device_1,1456908154.995615,40.79925877045914,-96.68577049867872,371.4045,0,-1,3,5,-9999,1456908155.102987,26.94323348999023,44.47059631347656,5.16802978515625,281.4609375,278.1838073730469,25,10888.53253975,0.0432586669921875,1.01171875,0.0155181884765625,10888.50330175,-0.009188438392991388,0.1413693790930032,-0.0204549413845716,10888.50330175,2.260528922801614,1.872948638426689,-1.531587957384018,0.0114038148894906,0.1111323609948158,-0.01424748264253139,0.002433386398479342,0.01120556145906448,0.0002526453463360667,XArbitraryCorrectedZVertical,0.7003334670952461,0.1239567235787645,-0.1483394346512069,-0.6871413083735559,0.03742257133126259,0.9992314577102661,0.01166446879506111,23.17829132080078,45.19344329833984,6.791030883789062,1,10887.37175975,stationary,1,2016-03-02 02:42:33.957,2016-03-02 02:41:14.235,15,30.25477,0,1,2016-03-02 02:42:24.944,10887.89180975,0,-2.21106,97.42603,192.168.1.101,100.78.239.175,2,1,0.38,0
2016-03-02 02:42:35.145,30,234B9614-18C8-49ED-8B56-CAB6C4F40872,my_iOS_device_1,1456908154.995615,40.79925877045914,-96.68577049867872,371.4045,0,-1,3,5,-9999,1456908155.102987,26.94323348999023,44.47059631347656,5.16802978515625,281.4609375,278.1838073730469,25,10888.56282675,0.0576629638671875,1.016738891601562,0.00115966796875,10888.53831775,-0.01141803685760573,0.1222441540407082,-0.01408306216044802,10888.50330175,2.260528922801614,1.872948638426689,-1.531587957384018,0.0114038148894906,0.1111323609948158,-0.01424748264253139,0.002433386398479342,0.01120556145906448,0.0002526453463360667,XArbitraryCorrectedZVertical,0.7003334670952461,0.1239567235787645,-0.1483394346512069,-0.6871413083735559,0.03742257133126259,0.9992314577102661,0.01166446879506111,23.17829132080078,45.19344329833984,6.791030883789062,1,10887.37175975,stationary,1,2016-03-02 02:42:33.957,2016-03-02 02:41:14.235,15,30.25477,0,1,2016-03-02 02:42:24.944,10887.89180975,0,-2.21106,97.42603,192.168.1.101,100.78.239.175,2,1,0.38,0
2016-03-02 02:42:35.181,31,234B9614-18C8-49ED-8B56-CAB6C4F40872,my_iOS_device_1,1456908154.995615,40.79925877045914,-96.68577049867872,371.4045,0,-1,3,5,-9999,1456908155.16217,26.70056533813477,45.20159912109375,5.2010498046875,281.6983337402344,278.4212036132812,25,10888.59313375,0.0508880615234375,1.0096435546875,0.0164794921875,10888.57332975,-0.003995540583445881,0.09141114020420679,-0.01395949148586834,10888.53831775,2.259200924819191,1.875164614400857,-1.531808815494427,0.009165426716208458,0.09204784780740738,-0.007879707962274551,0.006072582211345434,0.0124786663800478,0.003836959367617965,XArbitraryCorrectedZVertical,0.7005433599227133,0.1227990858025775,-0.1470386415751304,-0.6874147389152923,0.03718608617782593,0.9992401003837585,0.01168122887611389,23.13059234619141,45.2049674987793,6.876408576965332,1,10887.37175975,stationary,1,2016-03-02 02:42:33.957,2016-03-02 02:41:14.235,15,30.25477,0,1,2016-03-02 02:42:24.944,10887.89180975,0,-2.21106,97.42603,192.168.1.101,100.78.239.175,2,1,0.38,0
2016-03-02 02:42:35.206,32,234B9614-18C8-49ED-8B56-CAB6C4F40872,my_iOS_device_1,1456908154.995615,40.79925877045914,-96.68577049867872,371.4045,0,-1,3,5,-9999,1456908155.16217,26.70056533813477,45.20159912109375,5.2010498046875,281.6983337402344,278.4212036132812,25,10888.62343275,0.040557861328125,1.008880615234375,0.00152587890625,10888.60833975,-0.01362686266571745,0.07227153408202533,-0.01089232885842409,10888.57332975,2.225755221189988,1.844295097483607,-1.531165613006071,0.01659038476645947,0.0612148754298687,-0.007750089280307293,0.01983567513525486,0.01790555566549301,-0.006718982011079788,XArbitraryCorrectedZVertical,0.7004209120402926,0.1214961268891758,-0.1465518629860872,-0.6878748349684504,0.03814772143959999,0.9992148280143738,0.01070152595639229,23.12579345703125,45.20216751098633,6.910862445831299,1,10887.37175975,stationary,1,2016-03-02 02:42:33.957,2016-03-02 02:41:14.235,15,30.25477,0,1,2016-03-02 02:42:24.944,10887.89180975,0,-2.21106,97.42603,192.168.1.101,100.78.239.175,2,1,0.38,0
2016-03-02 02:42:35.260,33,234B9614-18C8-49ED-8B56-CAB6C4F40872,my_iOS_device_1,1456908154.995615,40.79925877045914,-96.68577049867872,371.4045,0,-1,3,5,-9999,1456908155.22093,26.73523330688477,45.23638916015625,5.23406982421875,281.7029724121094,278.4258422851562,25,10888.65371175,0.044158935546875,1.011016845703125,0.0053863525390625,10888.64335575,-0.02425367436346063,0.06588021378194417,-0.01210912716048129,10888.60833975,2.215973424411163,1.836289319525373,-1.530827746755452,0.00695828115567565,0.04207542538642883,-0.00467967102304101,0.008256020955741405,0.009679252281785011,0.003980967216193676,XArbitraryCorrectedZVertical,0.7004781728075306,0.1207166590587372,-0.1460975085252642,-0.6880503874343956,0.03855794295668602,0.9992013573646545,0.01048436481505632,23.15275382995605,45.1866569519043,6.922044277191162,1,10887.37175975,stationary,1,2016-03-02 02:42:33.957,2016-03-02 02:41:14.235,15,30.25477,0,1,2016-03-02 02:42:24.944,10887.89180975,0,-2.21106,97.42603,192.168.1.101,100.78.239.175,2,1,0.38,0
2016-03-02 02:42:35.266,34,234B9614-18C8-49ED-8B56-CAB6C4F40872,my_iOS_device_1,1456908154.995615,40.79925877045914,-96.68577049867872,371.4045,0,-1,3,5,-9999,1456908155.22093,26.73523330688477,45.23638916015625,5.23406982421875,281.7029724121094,278.4258422851562,25,10888.68399475,0.041839599609375,1.016204833984375,0.0159912109375,10888.64335575,-0.02425367436346063,0.06588021378194417,-0.01210912716048129,10888.64335575,2.205677078871028,1.827329679579995,-1.530972853244967,-0.003666720818728209,0.03568422794342041,-0.005895809270441532,0.001818894874304533,0.007933963090181351,-0.006302256137132645,XArbitraryCorrectedZVertical,0.7004236042978531,0.1202398517538682,-0.1456466142258308,-0.6882849819349222,0.03851008415222168,0.9992071390151978,0.01010169461369514,23.15614700317383,45.18173980712891,6.942761421203613,1,10887.37175975,stationary,1,2016-03-02 02:42:33.957,2016-03-02 02:41:14.235,15,30.25477,0,1,2016-03-02 02:42:24.944,10887.89180975,0,-2.21106,97.42603,192.168.1.101,100.78.239.175,2,1,0.38,0
2016-03-02 02:42:35.297,35,234B9614-18C8-49ED-8B56-CAB6C4F40872,my_iOS_device_1,1456908154.995615,40.79925877045914,-96.68577049867872,371.4045,0,-1,3,5,-9999,1456908155.280522,26.94323921203613,45.23638916015625,5.0361328125,281.6985778808594,278.4214477539062,25,10888.71430875,0.04608154296875,1.008499145507812,0.010955810546875,10888.67834075,-0.040129842885859,0.07329738373392385,-0.01767220436154781,10888.67834075,2.220043839603115,1.843115227487594,-1.530822614435603,-0.01954871974885464,0.04313257709145546,-0.01146368775516748,0.006309384945780039,0.01796497963368893,0.002495938213542104,XArbitraryCorrectedZVertical,0.7007311329340681,0.119792423339393,-0.1451084378264352,-0.6881636403639587,0.0384904183447361,0.9992011785507202,0.01074869092553854,23.13575172424316,45.18592834472656,6.983368873596191,1,10887.37175975,stationary,1,2016-03-02 02:42:33.957,2016-03-02 02:41:14.235,15,30.25477,0,1,2016-03-02 02:42:24.944,10887.89180975,0,-2.21106,97.42603,192.168.1.101,100.78.239.175,2,1,0.38,0
2016-03-02 02:42:35.340,36,234B9614-18C8-49ED-8B56-CAB6C4F40872,my_iOS_device_1,1456908154.995615,40.79925877045914,-96.68577049867872,371.4045,0,-1,3,5,-9999,1456908155.280522,26.94323921203613,45.23638916015625,5.0361328125,281.6985778808594,278.4214477539062,25,10888.74460175,0.0440216064453125,1.011627197265625,0.016357421875,10888.71337675,-0.03177577286238944,0.06163566763657587,-0.006887467211162926,10888.71337675,2.236025411547326,1.860387359945346,-1.530743385240007,-0.01119569223374128,0.03147107362747192,-0.000678395270369947,0.002259250963106751,0.01116272993385792,0.001047216821461916,XArbitraryCorrectedZVertical,0.7010383583018958,0.1194255269880455,-0.1445788434472181,-0.6880259600628932,0.03837490454316139,0.9991979598999023,0.0114344721660018,23.12007522583008,45.18167114257812,7.062389373779297,1,10887.37175975,stationary,1,2016-03-02 02:42:33.957,2016-03-02 02:41:14.235,15,30.25477,0,1,2016-03-02 02:42:24.944,10887.89180975,0,-2.21106,97.42603,192.168.1.101,100.78.239.175,2,1,0.38,0
2016-03-02 02:42:35.357,37,234B9614-18C8-49ED-8B56-CAB6C4F40872,my_iOS_device_1,1456908154.995615,40.79925877045914,-96.68577049867872,371.4045,0,-1,3,5,-9999,1456908155.339253,26.94323921203613,45.09715270996094,4.772216796875,281.6849060058594,278.4077758789062,25,10888.77486675,0.042144775390625,1.014999389648438,0.0211639404296875,10888.74837275,-0.03499180619476912,0.04781199736630157,-0.005861351243155395,10888.74837275,2.241480636779948,1.866748183726397,-1.530088234858755,-0.01441195700317621,0.01764761470258236,0.0003502312465570867,0.005094053689390421,0.01245565712451935,0.004488166887313128,XArbitraryCorrectedZVertical,0.7012752736917585,0.118943759429079,-0.1444298744980952,-0.6878992542181465,0.03892755135893822,0.9991715550422668,0.01186925452202559,23.1231575012207,45.17624664306641,7.086941242218018,1,10887.37175975,stationary,1,2016-03-02 02:42:33.957,2016-03-02 02:41:14.235,15,30.25477,0,1,2016-03-02 02:42:24.944,10887.89180975,0,-2.21106,97.42603,192.168.1.101,100.78.239.175,2,1,0.38,0
2016-03-02 02:42:35.388,38,234B9614-18C8-49ED-8B56-CAB6C4F40872,my_iOS_device_1,1456908154.995615,40.79925877045914,-96.68577049867872,371.4045,0,-1,3,5,-9999,1456908155.339253,26.94323921203613,45.09715270996094,4.772216796875,281.6849060058594,278.4077758789062,25,10888.80518575,0.0413818359375,1.01177978515625,0.0205535888671875,10888.78340175,-0.02331251323422663,0.0393165134889488,-0.00462164975572351,10888.78340175,2.256236936147625,1.881920345084183,-1.529664391078824,-0.002734768902882934,0.009152392856776714,0.001591016654856503,0.00299862097017467,0.01584518887102604,0.008575816638767719,XArbitraryCorrectedZVertical,0.7015611639740599,0.1187686612088587,-0.1443149737128363,-0.6876620730273496,0.03914615511894226,0.9991542100906372,0.01258812379091978,23.13479804992676,45.16726303100586,7.106202125549316,1,10887.37175975,stationary,1,2016-03-02 02:42:33.957,2016-03-02 02:41:14.235,15,30.25477,0,1,2016-03-02 02:42:24.944,10887.89180975,0,-2.21106,97.42603,192.168.1.101,100.78.239.175,2,1,0.38,0
2016-03-02 02:42:35.421,39,234B9614-18C8-49ED-8B56-CAB6C4F40872,my_iOS_device_1,1456908154.995615,40.79925877045914,-96.68577049867872,371.4045,0,-1,3,5,-9999,1456908155.399556,27.1512393951416,45.58448791503906,4.90411376953125,281.6616516113281,278.384521484375,25,10888.83547375,0.040679931640625,1.010482788085938,0.0139007568359375,10888.81840075,-0.01164547081469849,0.03401415975860104,-0.002318015412804969,10888.81840075,2.262013849105,1.887924712329231,-1.529311308438895,0.008929611183702946,0.003850393462926149,0.003895113477483392,0.002999119460582733,0.01318948157131672,0.005316557828336954,XArbitraryCorrectedZVertical,0.7017089993928907,0.118621065636536,-0.1443036163459153,-0.6875390819929894,0.03940505534410477,0.9991396069526672,0.01293295435607433,23.14495468139648,45.15408325195312,7.156696796417236,1,10887.37175975,stationary,1,2016-03-02 02:42:33.957,2016-03-02 02:41:14.235,15,30.25477,0,1,2016-03-02 02:42:24.944,10887.89180975,0,-2.21106,97.42603,192.168.1.101,100.78.239.175,2,1,0.38,0
2016-03-02 02:42:35.448,40,234B9614-18C8-49ED-8B56-CAB6C4F40872,my_iOS_device_1,1456908154.995615,40.79925877045914,-96.68577049867872,371.4045,0,-1,3,5,-9999,1456908155.399556,27.1512393951416,45.58448791503906,4.90411376953125,281.6616516113281,278.384521484375,25,10888.86576875,0.0400238037109375,1.013870239257812,0.0128326416015625,10888.85343175,-0.01591798015151261,0.02976029254941747,-0.001312139469082041,10888.81840075,2.262013849105,1.887924712329231,-1.529311308438895,0.008929611183702946,0.003850393462926149,0.003895113477483392,0.002999119460582733,0.01318948157131672,0.005316557828336954,XArbitraryCorrectedZVertical,0.7017089993928907,0.118621065636536,-0.1443036163459153,-0.6875390819929894,0.03940505534410477,0.9991396069526672,0.01293295435607433,23.14495468139648,45.15408325195312,7.156696796417236,1,10887.37175975,stationary,1,2016-03-02 02:42:33.957,2016-03-02 02:41:14.235,15,30.25477,0,1,2016-03-02 02:42:24.944,10887.89180975,0,-2.21106,97.42603,192.168.1.101,100.78.239.175,2,1,0.38,0
2016-03-02 02:42:35.499,41,234B9614-18C8-49ED-8B56-CAB6C4F40872,my_iOS_device_1,1456908154.995615,40.79925877045914,-96.68577049867872,371.4045,0,-1,3,5,-9999,1456908155.455987,27.11656951904297,45.48004150390625,5.00311279296875,281.6513977050781,278.374267578125,25,10888.89605675,0.0343170166015625,1.007980346679688,0.01318359375,10888.85343175,-0.01591798015151261,0.02976029254941747,-0.001312139469082041,10888.85343175,2.254717730029638,1.880700998180067,-1.529254492530939,0.004645038861781359,-0.0003499181766528636,0.004893418867141008,0.000563843350391835,0.01294769905507565,-0.004715451039373875,XArbitraryCorrectedZVertical,0.7016295099808918,0.1185270893421177,-0.1443471432380325,-0.6876272697145372,0.0395515114068985,0.999137282371521,0.01266528014093637,23.15931701660156,45.1441650390625,7.172794342041016,1,10887.37175975,stationary,1,2016-03-02 02:42:33.957,2016-03-02 02:41:14.235,15,30.25477,0,1,2016-03-02 02:42:24.944,10887.89180975,0,-2.21106,97.42603,192.168.1.101,100.78.239.175,2,1,0.38,0
2016-03-02 02:42:35.509,42,234B9614-18C8-49ED-8B56-CAB6C4F40872,my_iOS_device_1,1456908154.995615,40.79925877045914,-96.68577049867872,371.4045,0,-1,3,5,-9999,1456908155.455987,27.11656951904297,45.48004150390625,5.00311279296875,281.6513977050781,278.374267578125,25,10888.92634975,0.038970947265625,1.015380859375,0.00958251953125,10888.88844275,-0.01060603904124057,0.02125708550490347,-0.001230646739725616,10888.88844275,2.24911572492156,1.874938118811909,-1.529148710667889,0.009956738911569118,-0.008852879516780376,0.00497483229264617,-0.0004027846152894199,0.01504255179315805,0.001615070039406419,XArbitraryCorrectedZVertical,0.7015623359743896,0.1185102733317687,-0.1444754169020947,-0.6876717660104593,0.0397246852517128,0.9991328716278076,0.01246879249811172,23.16373252868652,45.14352035522461,7.162575721740723,1,10887.37175975,stationary,1,2016-03-02 02:42:33.957,2016-03-02 02:41:14.235,15,30.25477,0,1,2016-03-02 02:42:24.944,10887.89180975,0,-2.21106,97.42603,192.168.1.101,100.78.239.175,2,1,0.38,0
2016-03-02 02:42:35.549,43,234B9614-18C8-49ED-8B56-CAB6C4F40872,my_iOS_device_1,1456908154.995615,40.79925877045914,-96.68577049867872,371.4045,0,-1,3,5,-9999,1456908155.515012,26.97790336608887,45.13194274902344,5.26702880859375,281.6495971679688,278.3724670410156,25,10888.95664275,0.0304718017578125,1.013748168945312,0.0180816650390625,10888.92345275,-0.01057514637259565,0.02337802699704258,-0.003362773508443054,10888.92345275,2.235939148917048,1.861431763251341,-1.529097594708098,0.009988162666559219,-0.006731785833835602,0.00284257996827364,0.003243979765102267,0.01539563294500113,-0.004026459064334631,XArbitraryCorrectedZVertical,0.7013747649650915,0.1185171904979116,-0.1446974264695876,-0.6878152145741715,0.03993839398026466,0.9991307258605957,0.01194577105343342,23.17209053039551,45.14214706420898,7.144171237945557,1,10887.37175975,stationary,1,2016-03-02 02:42:33.957,2016-03-02 02:41:14.235,15,30.25477,0,1,2016-03-02 02:42:24.944,10887.89180975,0,-2.21106,97.42603,192.168.1.101,100.78.239.175,2,1,0.38,0
2016-03-02 02:42:35.581,44,234B9614-18C8-49ED-8B56-CAB6C4F40872,my_iOS_device_1,1456908154.995615,40.79925877045914,-96.68577049867872,371.4045,0,-1,3,5,-9999,1456908155.550506,27.04723739624023,44.923095703125,5.20111083984375,281.648193359375,278.3710632324219,25,10888.98693475,0.0298919677734375,1.011795043945312,0.0160369873046875,10888.95846875,-0.01268463627204741,0.027627100516264,-0.00446132745810074,10888.95846875,2.234903435271119,1.860234449020084,-1.529464368935078,0.007877938449382782,-0.002482407726347446,0.001741911517456174,-0.009129650890827179,0.01460221316665411,0.006288313772529364,XArbitraryCorrectedZVertical,0.7012926571871021,0.1186814415275229,-0.1446464240870955,-0.6878813389031647,0.03960145264863968,0.9991459846496582,0.01179335080087185,23.1821231842041,45.14030838012695,7.123220920562744,1,10888.98668875,unknown,1,2016-03-02 02:42:35.573,2016-03-02 02:41:14.235,15,30.25477,0,1,2016-03-02 02:42:24.944,10887.89180975,0,-2.21106,97.42603,192.168.1.101,100.78.239.175,2,1,0.38,0
2016-03-02 02:42:35.600,45,234B9614-18C8-49ED-8B56-CAB6C4F40872,my_iOS_device_1,1456908154.995615,40.79925877045914,-96.68577049867872,371.4045,0,-1,3,5,-9999,1456908155.550506,27.04723739624023,44.923095703125,5.20111083984375,281.648193359375,278.3710632324219,25,10889.01722875,0.0341796875,1.013565063476562,0.011810302734375,10888.99348075,-0.01163162237703008,0.03294783005813331,-0.003383013532727656,10888.99348075,2.233413760440119,1.858794192397008,-1.529896248561194,0.00893147848546505,0.00294779590331018,0.002802303759381175,-0.009312686510384083,0.01263133529573679,0.004423249047249556,XArbitraryCorrectedZVertical,0.7012101089495146,0.1187907918960391,-0.1445039173978658,-0.6879765611736954,0.03920465335249901,0.9991636872291565,0.01161373872309923,23.17927742004395,45.14364242553711,7.11135196685791,1,10888.98668875,unknown,1,2016-03-02 02:42:35.573,2016-03-02 02:41:14.235,15,30.25477,0,1,2016-03-02 02:42:24.944,10887.89180975,0,-2.21106,97.42603,192.168.1.101,100.78.239.175,2,1,0.38,0
2016-03-02 02:42:35.630,46,234B9614-18C8-49ED-8B56-CAB6C4F40872,my_iOS_device_1,1456908154.995615,40.79925877045914,-96.68577049867872,371.4045,0,-1,3,5,-9999,1456908155.60328,27.11656951904297,45.06233215332031,5.596923828125,281.653076171875,278.3759460449219,25,10889.04752075,0.0332183837890625,1.013931274414062,0.01702880859375,10889.02849075,-0.01368997958355232,0.04675871715517523,-0.007682953428769595,10888.99348075,2.233413760440119,1.858794192397008,-1.529896248561194,0.00893147848546505,0.00294779590331018,0.002802303759381175,-0.009312686510384083,0.01263133529573679,0.004423249047249556,XArbitraryCorrectedZVertical,0.7012101089495146,0.1187907918960391,-0.1445039173978658,-0.6879765611736954,0.03920465335249901,0.9991636872291565,0.01161373872309923,23.17927742004395,45.14364242553711,7.11135196685791,1,10888.98668875,unknown,1,2016-03-02 02:42:35.573,2016-03-02 02:41:14.235,15,30.25477,0,1,2016-03-02 02:42:24.944,10887.89180975,0,-2.21106,97.42603,192.168.1.101,100.78.239.175,2,1,0.38,0
2016-03-02 02:42:35.661,47,234B9614-18C8-49ED-8B56-CAB6C4F40872,my_iOS_device_1,1456908154.995615,40.79925877045914,-96.68577049867872,371.4045,0,-1,3,5,-9999,1456908155.60328,27.11656951904297,45.06233215332031,5.596923828125,281.653076171875,278.3759460449219,25,10889.07781275,0.0342864990234375,1.012847900390625,0.011962890625,10889.02849075,-0.01368997958355232,0.04675871715517523,-0.007682953428769595,10889.02849075,2.231719396369014,1.857451563188211,-1.530278187461787,0.006872481200844049,0.01675897464156151,-0.001499505247920752,-0.004476109985262156,0.01649152301251888,0.002584897447377443,XArbitraryCorrectedZVertical,0.701154821996113,0.1187792482629611,-0.1442721669152666,-0.6880835324488229,0.03885416314005852,0.9991792440414429,0.01145318802446127,23.15630531311035,45.15629959106445,7.10578441619873,1,10888.98668875,unknown,1,2016-03-02 02:42:35.573,2016-03-02 02:41:14.235,15,30.25477,0,1,2016-03-02 02:42:24.944,10887.89180975,0,-2.21106,97.42603,192.168.1.101,100.78.239.175,2,1,0.38,0
2016-03-02 02:42:35.691,48,234B9614-18C8-49ED-8B56-CAB6C4F40872,my_iOS_device_1,1456908154.995615,40.79925877045914,-96.68577049867872,371.4045,0,-1,3,5,-9999,1456908155.6627,26.97790336608887,45.27117919921875,5.794921875,281.6777954101562,278.4006652832031,25,10889.10810475,0.036346435546875,1.013046264648438,0.017974853515625,10889.09849575,-0.007212905496370609,0.05631653599136061,-0.0139882536256412,10889.06350675,2.234461661459554,1.860891986369056,-1.530668545832726,0.01222360506653786,0.0231377687305212,-0.003558162366971374,-0.005527575965970755,0.01298152469098568,0.004546502139419317,XArbitraryCorrectedZVertical,0.7011794626482668,0.1186801344427124,-0.143887344087489,-0.6881561007942804,0.03844078257679939,0.9991949796676636,0.0114752259105444,23.12245941162109,45.17259216308594,7.112492084503174,1,10888.98668875,unknown,1,2016-03-02 02:42:35.573,2016-03-02 02:41:14.235,15,30.25477,0,1,2016-03-02 02:42:24.944,10887.89180975,0,-2.21106,97.42603,192.168.1.101,100.78.239.175,2,1,0.38,0
2016-03-02 02:42:35.741,49,234B9614-18C8-49ED-8B56-CAB6C4F40872,my_iOS_device_1,1456908154.995615,40.79925877045914,-96.68577049867872,371.4045,0,-1,3,5,-9999,1456908155.721983,26.4578971862793,45.23638916015625,5.30010986328125,281.6935729980469,278.4164428710938,25,10889.13839275,0.0395965576171875,1.016082763671875,0.01458740234375,10889.09849575,-0.007212905496370609,0.05631653599136061,-0.0139882536256412,10889.09849575,2.228948609785778,1.856270710183258,-1.53121141577708,0.013347371481359,0.02631734311580658,-0.007807819172739983,-0.002313128206878901,0.01433318480849266,0.003885205835103989,XArbitraryCorrectedZVertical,0.7010905250780378,0.1185091822850077,-0.1434401995855825,-0.6883694927165062,0.03797291964292526,0.999216616153717,0.01114470139145851,23.09407615661621,45.18564605712891,7.121791839599609,1,10888.98668875,unknown,1,2016-03-02 02:42:35.573,2016-03-02 02:41:14.235,15,30.25477,0,1,2016-03-02 02:42:24.944,10887.89180975,0,-2.21106,97.42603,192.168.1.101,100.78.239.175,2,1,0.38,0
2016-03-02 02:42:35.751,50,234B9614-18C8-49ED-8B56-CAB6C4F40872,my_iOS_device_1,1456908154.995615,40.79925877045914,-96.68577049867872,371.4045,0,-1,3,5,-9999,1456908155.721983,26.4578971862793,45.23638916015625,5.30010986328125,281.6935729980469,278.4164428710938,25,10889.16867175,0.0402374267578125,1.0108642578125,0.013031005859375,10889.13352375,-0.004083691215527504,0.05207704985206347,-0.009677661085238943,10889.13352375,2.222030518172091,1.850243200076577,-1.531542113154957,0.01647509075701237,0.02207809314131737,-0.003497798927128315,-0.0001699009444564581,0.01595284231007099,0.004617420025169849,XArbitraryCorrectedZVertical,0.7010177685658159,0.1182637961491029,-0.1430676978582021,-0.6885632843137611,0.03772177919745445,0.9992296695709229,0.01082447450608015,23.07905578613281,45.19270706176758,7.125649452209473,1,10888.98668875,unknown,1,2016-03-02 02:42:35.573,2016-03-02 02:41:14.235,15,30.25477,0,1,2016-03-02 02:42:24.944,10887.89180975,0,-2.21106,97.42603,192.168.1.101,100.78.239.175,2,1,0.38,0
2016-03-02 02:42:35.792,51,234B9614-18C8-49ED-8B56-CAB6C4F40872,my_iOS_device_1,1456908154.995615,40.79925877045914,-96.68577049867872,371.4045,0,-1,3,5,-9999,1456908155.781316,26.4925651550293,45.48005676269531,4.1455078125,281.6575927734375,278.3804626464844,25,10889.19895775,0.0367431640625,1.013885498046875,0.0120086669921875,10889.16854475,-0.004068244881205044,0.05313752059813302,-0.01074372446959766,10889.16854475,2.212111300322649,1.841161270275596,-1.531736553121976,0.01650030724704266,0.02327698841691017,-0.004584202077239752,0.001141285058110952,0.01429728232324123,0.003074473701417446,XArbitraryCorrectedZVertical,0.700925371098236,0.1179762748590184,-0.1427739528409095,-0.6887676103820234,0.03763129934668541,0.9992372393608093,0.01042955461889505,23.0562629699707,45.20344924926758,7.131307601928711,1,10888.98668875,unknown,1,2016-03-02 02:42:35.573,2016-03-02 02:41:14.235,15,30.25477,0,1,2016-03-02 02:42:24.944,10889.20479775,0,-2.213654,97.42606,192.168.1.101,100.78.239.175,2,1,0.38,0
2016-03-02 02:42:35.821,52,234B9614-18C8-49ED-8B56-CAB6C4F40872,my_iOS_device_1,1456908154.995615,40.79925877045914,-96.68577049867872,371.4045,0,-1,3,5,-9999,1456908155.781316,26.4925651550293,45.48005676269531,4.1455078125,281.6575927734375,278.3804626464844,25,10889.22927275,0.039154052734375,1.014251708984375,0.01312255859375,10889.20355575,-0.0008974852873567033,0.0456990453574327,-0.00962812628896347,10889.20355575,2.200499854804133,1.83026515817942,-1.53201487509948,0.0196703840047121,0.01583876647055149,-0.003468452487140894,-0.000730737519916147,0.01463740412145853,0.002061112551018596,XArbitraryCorrectedZVertical,0.7007916107959533,0.1177492908157266,-0.1425045781838403,-0.6889983076518001,0.0374739021062851,0.9992480874061584,0.009947554208338261,23.0562629699707,45.20344924926758,7.131307601928711,1,10888.98668875,unknown,1,2016-03-02 02:42:35.573,2016-03-02 02:41:14.235,15,30.25477,0,1,2016-03-02 02:42:24.944,10889.20479775,0,-2.213654,97.42606,192.168.1.101,100.78.239.175,2,1,0.38,0
2016-03-02 02:42:35.850,53,234B9614-18C8-49ED-8B56-CAB6C4F40872,my_iOS_device_1,1456908154.995615,40.79925877045914,-96.68577049867872,371.4045,0,-1,3,5,-9999,1456908155.838606,26.59656524658203,45.7933349609375,4.112548828125,281.6170349121094,278.3399047851562,25,10889.25956775,0.041778564453125,1.012771606445312,0.009429931640625,10889.23856675,0.0001768338963812614,0.04037991371221744,-0.01067554754569163,10889.23856675,2.18669036041892,1.816879775645422,-1.532242900789826,0.0207434669137001,0.01051984447985888,-0.004515772685408592,0.001771351206116378,0.01499480009078979,0.003732990007847548,XArbitraryCorrectedZVertical,0.700618203235794,0.1175964183838427,-0.1423633046768742,-0.6892299363488296,0.03738270327448845,0.9992569088935852,0.00938956905156374,23.03824615478516,45.21518325805664,7.115132331848145,1,10888.98668875,unknown,1,2016-03-02 02:42:35.573,2016-03-02 02:41:14.235,15,30.25477,0,1,2016-03-02 02:42:24.944,10889.20479775,0,-2.213654,97.42606,192.168.1.101,100.78.239.175,2,1,0.38,0
2016-03-02 02:42:35.872,54,234B9614-18C8-49ED-8B56-CAB6C4F40872,my_iOS_device_1,1456908154.995615,40.79925877045914,-96.68577049867872,371.4045,0,-1,3,5,-9999,1456908155.838606,26.59656524658203,45.7933349609375,4.112548828125,281.6170349121094,278.3399047851562,25,10889.28986175,0.03955078125,1.010299682617188,0.013946533203125,10889.27357975,0.002286323795833026,0.03613084019299602,-0.009576993596033949,10889.23856675,2.18669036041892,1.816879775645422,-1.532242900789826,0.0207434669137001,0.01051984447985888,-0.004515772685408592,0.001771351206116378,0.01499480009078979,0.003732990007847548,XArbitraryCorrectedZVertical,0.700618203235794,0.1175964183838427,-0.1423633046768742,-0.6892299363488296,0.03738270327448845,0.9992569088935852,0.00938956905156374,23.03824615478516,45.21518325805664,7.115132331848145,1,10888.98668875,unknown,1,2016-03-02 02:42:35.573,2016-03-02 02:41:14.235,15,30.25477,0,1,2016-03-02 02:42:24.944,10889.20479775,0,-2.213654,97.42606,192.168.1.101,100.78.239.175,2,1,0.38,0
2016-03-02 02:42:35.903,55,234B9614-18C8-49ED-8B56-CAB6C4F40872,my_iOS_device_1,1456908154.995615,40.79925877045914,-96.68577049867872,371.4045,0,-1,3,5,-9999,1456908155.89712,25.97255706787109,45.65409851074219,4.64031982421875,281.59619140625,278.3190612792969,25,10889.32015675,0.0418548583984375,1.013565063476562,0.011138916015625,10889.30857775,-0.005203284137796815,0.03613403598630411,-0.006488525679869056,10889.27357975,2.170006115281421,1.800408955064427,-1.532336473574914,0.0228521041572094,0.006271002814173698,-0.003416099352762103,0.00358965527266264,0.01560154929757118,0.003943994641304016,XArbitraryCorrectedZVertical,0.7004133174427629,0.1174599659282609,-0.1423516758566163,-0.6894638072689244,0.03744122758507729,0.9992604851722717,0.008751317858695984,23.03737449645996,45.21981811523438,7.088431835174561,1,10888.98668875,unknown,1,2016-03-02 02:42:35.573,2016-03-02 02:41:14.235,15,30.25477,0,1,2016-03-02 02:42:24.944,10889.20479775,0,-2.213654,97.42606,192.168.1.101,100.78.239.175,2,1,0.38,0
2016-03-02 02:42:35.933,56,234B9614-18C8-49ED-8B56-CAB6C4F40872,my_iOS_device_1,1456908154.995615,40.79925877045914,-96.68577049867872,371.4045,0,-1,3,5,-9999,1456908155.89712,25.97255706787109,45.65409851074219,4.64031982421875,281.59619140625,278.3190612792969,25,10889.35044775,0.037506103515625,1.01531982421875,0.0179443359375,10889.34357775,-0.0115583854470529,0.03293318267213788,-0.008710667293431172,10889.30857775,2.159233613950067,1.789873926318479,-1.532374482060238,0.01537572592496872,0.006314037833362818,-0.0003456961421761662,0.001995474332943559,0.01366222277283669,0.007170047610998154,XArbitraryCorrectedZVertical,0.7002908090439215,0.1173322338836423,-0.1423144720657823,-0.6896176626951439,0.03749427199363708,0.9992619752883911,0.008348140865564346,23.03775978088379,45.22150802612305,7.076407432556152,1,10888.98668875,unknown,1,2016-03-02 02:42:35.573,2016-03-02 02:41:14.235,15,30.25477,0,1,2016-03-02 02:42:24.944,10889.20479775,0,-2.213654,97.42606,192.168.1.101,100.78.239.175,2,1,0.38,0
2016-03-02 02:42:35.980,57,234B9614-18C8-49ED-8B56-CAB6C4F40872,my_iOS_device_1,1456908154.995615,40.79925877045914,-96.68577049867872,371.4045,0,-1,3,5,-9999,1456908155.956093,26.1112232208252,46.00218200683594,4.706298828125,281.5970153808594,278.3198852539062,25,10889.38073675,0.033111572265625,1.012664794921875,0.01507568359375,10889.34357775,-0.0115583854470529,0.03293318267213788,-0.008710667293431172,10889.34357775,2.154642403155036,1.785330652052931,-1.532217443666004,0.009018956683576107,0.003113450482487679,-0.002566799521446228,0.004352826625108719,0.01385137252509594,0.005262394901365042,XArbitraryCorrectedZVertical,0.7002573401463155,0.1172399910503394,-0.1423730086741735,-0.6896552533482067,0.03768513724207878,0.9992559552192688,0.008211116306483746,23.04301071166992,45.22040176391602,7.066371440887451,1,10888.98668875,unknown,1,2016-03-02 02:42:35.573,2016-03-02 02:41:14.235,15,30.25477,0,1,2016-03-02 02:42:24.944,10889.20479775,0,-2.213654,97.42606,192.168.1.101,100.78.239.175,2,1,0.38,0
