loggingTime,loggingSample,identifierForVendor,deviceID,locationTimestamp_since1970,locationLatitude,locationLongitude,locationAltitude,locationSpeed,locationCourse,locationVerticalAccuracy,locationHorizontalAccuracy,locationFloor,locationHeadingTimestamp_since1970,locationHeadingX,locationHeadingY,locationHeadingZ,locationTrueHeading,locationMagneticHeading,locationHeadingAccuracy,accelerometerTimestamp_sinceReboot,accelerometerAccelerationX,accelerometerAccelerationY,accelerometerAccelerationZ,gyroTimestamp_sinceReboot,gyroRotationX,gyroRotationY,gyroRotationZ,motionTimestamp_sinceReboot,motionYaw,motionRoll,motionPitch,motionRotationRateX,motionRotationRateY,motionRotationRateZ,motionUserAccelerationX,motionUserAccelerationY,motionUserAccelerationZ,motionAttitudeReferenceFrame,motionQuaternionX,motionQuaternionY,motionQuaternionZ,motionQuaternionW,motionGravityX,motionGravityY,motionGravityZ,motionMagneticFieldX,motionMagneticFieldY,motionMagneticFieldZ,motionMagneticFieldCalibrationAccuracy,activityTimestamp_sinceReboot,activity,activityActivityConfidence,activityActivityStartDate,pedometerStartDate,pedometerNumberofSteps,pedometerDistance,pedometerFloorAscended,pedometerFloorDescended,pedometerEndDate,altimeterTimestamp_sinceReboot,altimeterReset,altimeterRelativeAltitude,altimeterPressure,IP_en0,IP_pdp_ip0,deviceOrientation,batteryState,batteryLevel,state
2016-03-02 02:43:40.734,1,234B9614-18C8-49ED-8B56-CAB6C4F40872,my_iOS_device_1,1456908219.995615,40.79919821120873,-96.68576555335585,369.4555,0.18,124.8046875,4,12.6475094258473,-9999,1456908220.705218,28.83105278015137,37.23283386230469,8.269287109375,277.7726745605469,274.4955444335938,25,10954.14623375,0.1424560546875,1.000885009765625,0.06585693359375,10954.11618475,-0.04021346614408749,0.05948782821742696,-0.01233762638201009,10954.11618475,2.356212042311195,2.037099089877237,-1.416580738139515,-0.02038368955254555,0.02833704650402069,-0.006214016582816839,0.001527259708382189,0.02338806167244911,0.04757937416434288,XArbitraryCorrectedZVertical,0.7279584998036313,0.06786624518786885,-0.1561568443460153,-0.6641427823078634,0.137205645442009,0.9881322979927063,0.06905880570411682,26.86000061035156,33.72980880737305,7.025568008422852,1,10953.93906875,stationary,1,2016-03-02 02:43:40.520,2016-03-02 02:41:14.235,72,54.35794,2,2,2016-03-02 02:43:37.326,10953.55885075,0,-2.208984,97.42601,192.168.1.101,100.78.239.175,2,1,0.37,0
2016-03-02 02:43:40.783,2,234B9614-18C8-49ED-8B56-CAB6C4F40872,my_iOS_device_1,1456908219.995615,40.79919821120873,-96.68576555335585,369.4555,0.18,124.8046875,4,12.6475094258473,-9999,1456908220.765483,28.93481063842773,36.57176208496094,8.50030517578125,278.3465576171875,275.0694274902344,25,10954.17653775,0.14739990234375,1.003173828125,0.0778656005859375,10954.15119575,-0.01157090230417627,0.05527044631517749,-0.006590791065728099,10954.15119575,2.354039489580584,2.035857619653851,-1.41681100791459,0.008256460539996624,0.02412027306854725,-0.0004670330672524869,0.005368150305002928,0.01271734107285738,-0.002929438836872578,XArbitraryCorrectedZVertical,0.7278939177313813,0.06755464982588288,-0.1558223204161245,-0.6643238805557776,0.1370879113674164,0.9881676435470581,0.0687863752245903,26.83382606506348,33.71500778198242,7.194583892822266,1,10953.93906875,stationary,1,2016-03-02 02:43:40.520,2016-03-02 02:41:14.235,72,54.35794,2,2,2016-03-02 02:43:37.326,10953.55885075,0,-2.208984,97.42601,192.168.1.101,100.78.239.175,2,1,0.37,0
2016-03-02 02:43:40.797,3,234B9614-18C8-49ED-8B56-CAB6C4F40872,my_iOS_device_1,1456908219.995615,40.79919821120873,-96.68576555335585,369.4555,0.18,124.8046875,4,12.6475094258473,-9999,1456908220.765483,28.93481063842773,36.57176208496094,8.50030517578125,278.3465576171875,275.0694274902344,25,10954.20683775,0.1425933837890625,1.002639770507812,0.069610595703125,10954.18620675,-0.001996039237014389,0.03826030380062338,-0.007508782693478412,10954.18620675,2.352147291409398,2.034478197607875,-1.416676379735097,0.0178302563726902,0.007110337726771832,-0.00138367956969887,0.01009825617074966,0.01502681709825993,0.00920889712870121,XArbitraryCorrectedZVertical,0.7278743481509526,0.06728510282739636,-0.1557337534142961,-0.6643934423884816,0.1373016536235809,0.9881470203399658,0.06865670531988144,26.82820510864258,33.72028350830078,7.190837860107422,1,10953.93906875,stationary,1,2016-03-02 02:43:40.520,2016-03-02 02:41:14.235,72,54.35794,2,2,2016-03-02 02:43:37.326,10953.55885075,0,-2.208984,97.42601,192.168.1.101,100.78.239.175,2,1,0.37,0
2016-03-02 02:43:40.826,4,234B9614-18C8-49ED-8B56-CAB6C4F40872,my_iOS_device_1,1456908219.995615,40.79919821120873,-96.68576555335585,369.4555,0.18,124.8046875,4,12.6475094258473,-9999,1456908220.82278,29.24608993530273,36.67613220214844,8.46728515625,278.3860778808594,275.1089477539062,25,10954.23712975,0.1440582275390625,1.002700805664062,0.07025146484375,10954.22122475,-0.003128681648625089,0.02444701985860038,-0.003255181800403853,10954.22122475,2.348402276481643,2.030692661388043,-1.41665576324146,0.01669665426015854,-0.006702729035168886,0.002871447475627065,0.007349158637225628,0.01495368871837854,0.002502698684111238,XArbitraryCorrectedZVertical,0.7277090084946152,0.06717400033032046,-0.1558728865689417,-0.6645531550358188,0.1375788152217865,0.9881438612937927,0.06814549118280411,26.83822250366211,33.71292877197266,7.187956809997559,1,10953.93906875,stationary,1,2016-03-02 02:43:40.520,2016-03-02 02:41:14.235,72,54.35794,2,2,2016-03-02 02:43:37.326,10953.55885075,0,-2.208984,97.42601,192.168.1.101,100.78.239.175,2,1,0.37,0
2016-03-02 02:43:40.863,5,234B9614-18C8-49ED-8B56-CAB6C4F40872,my_iOS_device_1,1456908219.995615,40.79919821120873,-96.68576555335585,369.4555,0.18,124.8046875,4,12.6475094258473,-9999,1456908220.82278,29.24608993530273,36.67613220214844,8.46728515625,278.3860778808594,275.1089477539062,25,10954.26742575,0.136077880859375,1.003936767578125,0.0623779296875,10954.25620775,-0.007327155107135008,0.02124190548669002,-0.007577492249602457,10954.25620775,2.3452118624427,2.027157981814534,-1.41664948252382,0.01249763276427984,-0.009907664731144905,-0.001450121984817088,0.004524839576333761,0.01336773857474327,0.003230825997889042,XArbitraryCorrectedZVertical,0.7275416052831314,0.0671860594173877,-0.1561004239652534,-0.6646818063102563,0.1378244012594223,0.9881429076194763,0.06766150891780853,26.85260772705078,33.70785522460938,7.157935619354248,1,10953.93906875,stationary,1,2016-03-02 02:43:40.520,2016-03-02 02:41:14.235,72,54.35794,2,2,2016-03-02 02:43:37.326,10953.55885075,0,-2.208984,97.42601,192.168.1.101,100.78.239.175,2,1,0.37,0
2016-03-02 02:43:40.885,6,234B9614-18C8-49ED-8B56-CAB6C4F40872,my_iOS_device_1,1456908219.995615,40.79919821120873,-96.68576555335585,369.4555,0.18,124.8046875,4,12.6475094258473,-9999,1456908220.882745,29.03857040405273,37.02407836914062,8.269287109375,278.1220092773438,274.8448791503906,25,10954.29771175,0.1381072998046875,1.00531005859375,0.072479248046875,10954.29125075,-0.01478187563048481,0.02868304388848042,-0.006623814263245082,10954.25620775,2.3452118624427,2.027157981814534,-1.41664948252382,0.01249763276427984,-0.009907664731144905,-0.001450121984817088,0.004524839576333761,0.01336773857474327,0.003230825997889042,XArbitraryCorrectedZVertical,0.7275416052831314,0.0671860594173877,-0.1561004239652534,-0.6646818063102563,0.1378244012594223,0.9881429076194763,0.06766150891780853,26.85260772705078,33.70785522460938,7.157935619354248,1,10953.93906875,stationary,1,2016-03-02 02:43:40.520,2016-03-02 02:41:14.235,72,54.35794,2,2,2016-03-02 02:43:37.326,10953.55885075,0,-2.208984,97.42601,192.168.1.101,100.78.239.175,2,1,0.37,0
2016-03-02 02:43:40.944,7,234B9614-18C8-49ED-8B56-CAB6C4F40872,my_iOS_device_1,1456908219.995615,40.79919821120873,-96.68576555335585,369.4555,0.18,124.8046875,4,12.6475094258473,-9999,1456908220.882745,29.03857040405273,37.02407836914062,8.269287109375,278.1220092773438,274.8448791503906,25,10954.32801175,0.1396331787109375,1.004302978515625,0.07086181640625,10954.32626075,-0.004098871233740956,0.03187244560995931,-0.009667541073096643,10954.29125075,2.343597227963821,2.025352839012537,-1.417062298409296,0.005043735262006521,-0.002466336823999882,-0.0004976561176590621,-0.001883395481854677,0.01556274108588696,0.003582543926313519,XArbitraryCorrectedZVertical,0.7273821839483389,0.06731943609294382,-0.1561032179231387,-0.6648421146051919,0.1375798135995865,0.9882062077522278,0.06723349541425705,26.85463333129883,33.70921325683594,7.143936157226562,1,10953.93906875,stationary,1,2016-03-02 02:43:40.520,2016-03-02 02:41:14.235,72,54.35794,2,2,2016-03-02 02:43:37.326,10953.55885075,0,-2.208984,97.42601,192.168.1.101,100.78.239.175,2,1,0.37,0
2016-03-02 02:43:40.949,8,234B9614-18C8-49ED-8B56-CAB6C4F40872,my_iOS_device_1,1456908219.995615,40.79919821120873,-96.68576555335585,369.4555,0.18,124.8046875,4,12.6475094258473,-9999,1456908220.94216,28.934814453125,36.78054809570312,7.774169921875,277.2022705078125,273.9251403808594,25,10954.35830675,0.1331939697265625,1.00299072265625,0.069122314453125,10954.36125675,0.002267681668202471,0.0308167685538519,-0.008508799682803166,10954.32626075,2.342338959846607,2.024026961665227,-1.417161525573217,0.01572578959167004,0.0007233790238387883,-0.003541237208992243,0.004341325256973505,0.01724127680063248,0.002480439143255353,XArbitraryCorrectedZVertical,0.7273035761948258,0.06733165077603094,-0.156138920361105,-0.6649184870391629,0.1375806778669357,0.9882213473320007,0.06700808554887772,26.84945297241211,33.71575546264648,7.132518768310547,1,10953.93906875,stationary,1,2016-03-02 02:43:40.520,2016-03-02 02:41:14.235,72,54.35794,2,2,2016-03-02 02:43:37.326,10953.55885075,0,-2.208984,97.42601,192.168.1.101,100.78.239.175,2,1,0.37,0
2016-03-02 02:43:40.990,9,234B9614-18C8-49ED-8B56-CAB6C4F40872,my_iOS_device_1,1456908219.995615,40.79919821120873,-96.68576555335585,369.4555,0.18,124.8046875,4,12.6475094258473,-9999,1456908220.976578,28.83105087280273,36.74574279785156,8.0052490234375,277.2076416015625,273.9305114746094,25,10954.38860075,0.1443939208984375,1.001846313476562,0.0703582763671875,10954.39628975,-0.008403871135854044,0.02337083646209936,-0.006528473096220244,10954.36125675,2.340320222110106,2.0221647451326,-1.417729017816789,0.02209115587174892,-0.0003317193768452853,-0.0023838821798563,-0.004006580915302038,0.01468266826122999,0.00261518289335072,XArbitraryCorrectedZVertical,0.7271265957056935,0.06738308102228387,-0.1559834024337292,-0.6651433021346449,0.1372005492448807,0.9883080720901489,0.06650713086128235,26.84752464294434,33.71920013427734,7.123510360717773,1,10953.93906875,stationary,1,2016-03-02 02:43:40.520,2016-03-02 02:41:14.235,72,54.35794,2,2,2016-03-02 02:43:37.326,10953.55885075,0,-2.208984,97.42601,192.168.1.101,100.78.239.175,2,1,0.37,0
2016-03-02 02:43:41.024,10,234B9614-18C8-49ED-8B56-CAB6C4F40872,my_iOS_device_1,1456908219.995615,40.79919821120873,-96.68576555335585,369.4555,0.18,124.8046875,4,12.6475094258473,-9999,1456908220.976578,28.83105087280273,36.74574279785156,8.0052490234375,277.2076416015625,273.9305114746094,25,10954.41889275,0.1413421630859375,1.002914428710938,0.0664520263671875,10954.39628975,-0.008403871135854044,0.02337083646209936,-0.006528473096220244,10954.39628975,2.337853032022768,2.019581017010423,-1.417833755996827,0.01141922734677792,-0.007777486462146044,-0.0004029947449453175,0.007115256041288376,0.01352229528129101,0.004250767175108194,XArbitraryCorrectedZVertical,0.7269898159183785,0.06737627279739507,-0.1560722335021287,-0.6652726533869696,0.1372786611318588,0.9883240461349487,0.06610751152038574,26.83400726318359,33.7357292175293,7.096113681793213,1,10953.93906875,stationary,1,2016-03-02 02:43:40.520,2016-03-02 02:41:14.235,72,54.35794,2,2,2016-03-02 02:43:37.326,10953.55885075,0,-2.208984,97.42601,192.168.1.101,100.78.239.175,2,1,0.37,0
2016-03-02 02:43:41.037,11,234B9614-18C8-49ED-8B56-CAB6C4F40872,my_iOS_device_1,1456908219.995615,40.79919821120873,-96.68576555335585,369.4555,0.18,124.8046875,4,12.6475094258473,-9999,1456908221.028749,28.58893966674805,36.64134216308594,8.1702880859375,277.2267150878906,273.9495849609375,25,10954.44918575,0.14215087890625,1.003860473632812,0.066009521484375,10954.43130075,-0.005224323110408441,0.02762976367735408,-0.005418733869984226,10954.39628975,2.337853032022768,2.019581017010423,-1.417833755996827,0.01141922734677792,-0.007777486462146044,-0.0004029947449453175,0.007115256041288376,0.01352229528129101,0.004250767175108194,XArbitraryCorrectedZVertical,0.7269898159183785,0.06737627279739507,-0.1560722335021287,-0.6652726533869696,0.1372786611318588,0.9883240461349487,0.06610751152038574,26.83400726318359,33.7357292175293,7.096113681793213,1,10953.93906875,stationary,1,2016-03-02 02:43:40.520,2016-03-02 02:41:14.235,72,54.35794,2,2,2016-03-02 02:43:37.326,10953.55885075,0,-2.208984,97.42601,192.168.1.101,100.78.239.175,2,1,0.37,0
2016-03-02 02:43:41.069,12,234B9614-18C8-49ED-8B56-CAB6C4F40872,my_iOS_device_1,1456908219.995615,40.79919821120873,-96.68576555335585,369.4555,0.18,124.8046875,4,12.6475094258473,-9999,1456908221.028749,28.58893966674805,36.64134216308594,8.1702880859375,277.2267150878906,273.9495849609375,25,10954.47947975,0.1403656005859375,1.004791259765625,0.0659942626953125,10954.46631075,-0.01156238018868802,0.02761618155579468,-0.008708004132341093,10954.46631075,2.333156147908917,2.014699659934031,-1.417985042213735,0.008259785361588001,-0.003531724447384477,-0.002581392647698522,0.00523550296202302,0.01720714196562767,0.001583163044415414,XArbitraryCorrectedZVertical,0.7267405491941721,0.06733777427217259,-0.1562404438116725,-0.6655093703551762,0.1374646872282028,0.988347053527832,0.06537239998579025,26.84183311462402,33.73475646972656,7.071085929870605,1,10953.93906875,stationary,1,2016-03-02 02:43:40.520,2016-03-02 02:41:14.235,72,54.35794,2,2,2016-03-02 02:43:37.326,10953.55885075,0,-2.208984,97.42601,192.168.1.101,100.78.239.175,2,1,0.37,0
2016-03-02 02:43:41.109,13,234B9614-18C8-49ED-8B56-CAB6C4F40872,my_iOS_device_1,1456908220.995615,40.79919188287183,-96.68576044039492,369.3216,0.46,130.078125,4,11.90614110165595,-9999,1456908221.097722,28.3122444152832,37.05886840820312,8.56634521484375,277.271240234375,273.9941101074219,25,10954.50976075,0.1378326416015625,1.001174926757812,0.0635986328125,10954.50131975,-0.009453689237563279,0.02230370781330461,-0.007608917550465392,10954.50131975,2.330944569341082,2.012226434215687,-1.418236002148954,0.01036861725151539,-0.008844017051160336,-0.001482174266129732,0.00262821838259697,0.01195046585053205,-0.002288922434672713,XArbitraryCorrectedZVertical,0.7265783820668943,0.06743130213023839,-0.1563312008497263,-0.6656556390859661,0.1374016851186752,0.9883852005004883,0.06492625176906586,26.84478378295898,33.73429107666016,7.062105178833008,1,10953.93906875,stationary,1,2016-03-02 02:43:40.520,2016-03-02 02:41:14.235,72,54.35794,2,2,2016-03-02 02:43:37.326,10953.55885075,0,-2.208984,97.42601,192.168.1.101,100.78.239.175,2,1,0.37,0
2016-03-02 02:43:41.128,14,234B9614-18C8-49ED-8B56-CAB6C4F40872,my_iOS_device_1,1456908220.995615,40.79919188287183,-96.68576044039492,369.3216,0.46,130.078125,4,11.90614110165595,-9999,1456908221.097722,28.3122444152832,37.05886840820312,8.56634521484375,277.271240234375,273.9941101074219,25,10954.54003275,0.14208984375,1.011001586914062,0.06439208984375,10954.50131975,-0.009453689237563279,0.02230370781330461,-0.007608917550465392,10954.50131975,2.330944569341082,2.012226434215687,-1.418236002148954,0.01036861725151539,-0.008844017051160336,-0.001482174266129732,0.00262821838259697,0.01195046585053205,-0.002288922434672713,XArbitraryCorrectedZVertical,0.7265783820668943,0.06743130213023839,-0.1563312008497263,-0.6656556390859661,0.1374016851186752,0.9883852005004883,0.06492625176906586,26.84478378295898,33.73429107666016,7.062105178833008,1,10953.93906875,stationary,1,2016-03-02 02:43:40.520,2016-03-02 02:41:14.235,72,54.35794,2,2,2016-03-02 02:43:37.326,10953.55885075,0,-2.208984,97.42601,192.168.1.101,100.78.239.175,2,1,0.37,0
2016-03-02 02:43:41.183,15,234B9614-18C8-49ED-8B56-CAB6C4F40872,my_iOS_device_1,1456908220.995615,40.79919188287183,-96.68576044039492,369.3216,0.46,130.078125,4,11.90614110165595,-9999,1456908221.14629,28.51976776123047,36.7109375,8.104248046875,277.2981872558594,274.0210571289062,25,10954.57035275,0.1370391845703125,1.004440307617188,0.061004638671875,10954.57134875,-0.0009214537371674164,0.01379703865937351,-0.009612147322422994,10954.53633875,2.328760093028444,2.009908324364296,-1.418515270134373,0.008213292807340622,-0.007776175625622272,0.0006164261722005904,-0.0009952199179679155,0.02161265350878239,-0.00130356929730624,XArbitraryCorrectedZVertical,0.7264227101624514,0.06749187791099175,-0.1563660359551453,-0.6658112009991648,0.1373019814491272,0.9884276390075684,0.06449021399021149,26.84260940551758,33.74306488037109,7.028367519378662,1,10953.93906875,stationary,1,2016-03-02 02:43:40.520,2016-03-02 02:41:14.235,72,54.35794,2,2,2016-03-02 02:43:37.326,10953.55885075,0,-2.208984,97.42601,192.168.1.101,100.78.239.175,2,1,0.37,0
2016-03-02 02:43:41.189,16,234B9614-18C8-49ED-8B56-CAB6C4F40872,my_iOS_device_1,1456908220.995615,40.79919188287183,-96.68576044039492,369.3216,0.46,130.078125,4,11.90614110165595,-9999,1456908221.14629,28.51976776123047,36.7109375,8.104248046875,277.2981872558594,274.0210571289062,25,10954.60064375,0.1392059326171875,1.008834838867188,0.050933837890625,10954.57134875,-0.0009214537371674164,0.01379703865937351,-0.009612147322422994,10954.57134875,2.32531824047775,2.005948896400845,-1.418822896405467,0.01890178211033344,-0.01735034957528114,-0.003486513625830412,-0.0002413299516774714,0.01596606150269508,-0.002813253086060286,XArbitraryCorrectedZVertical,0.7261764566218769,0.06765130948228869,-0.156569518250386,-0.6660157957047703,0.1372805088758469,0.9884742498397827,0.06381788849830627,26.84260940551758,33.74306488037109,7.028367519378662,1,10953.93906875,stationary,1,2016-03-02 02:43:40.520,2016-03-02 02:41:14.235,72,54.35794,2,2,2016-03-02 02:43:37.326,10953.55885075,0,-2.208984,97.42601,192.168.1.101,100.78.239.175,2,1,0.37,0
2016-03-02 02:43:41.228,17,234B9614-18C8-49ED-8B56-CAB6C4F40872,my_iOS_device_1,1456908220.995615,40.79919188287183,-96.68576044039492,369.3216,0.46,130.078125,4,11.90614110165595,-9999,1456908221.218999,29.00398254394531,37.05886840820312,7.3121337890625,277.2843933105469,274.0072631835938,25,10954.63093675,0.1437225341796875,1.003646850585938,0.059295654296875,10954.60635075,-0.007468568961018216,0.008507468102258126,0.002018676106280063,10954.60635075,2.318122994354693,1.998089357226083,-1.419369779731273,0.01235788874328136,-0.02264023572206497,0.008143870159983635,0.001920081675052643,0.02027794718742371,-0.01157910190522671,XArbitraryCorrectedZVertical,0.7257113023990085,0.06782016941955303,-0.1568677268157004,-0.6664353280505935,0.1372858583927155,0.9885568618774414,0.06251294165849686,26.84361839294434,33.75606536865234,6.961779117584229,1,10953.93906875,stationary,1,2016-03-02 02:43:40.520,2016-03-02 02:41:14.235,72,54.35794,2,2,2016-03-02 02:43:37.326,10953.55885075,0,-2.208984,97.42601,192.168.1.101,100.78.239.175,2,1,0.37,0
2016-03-02 02:43:41.263,18,234B9614-18C8-49ED-8B56-CAB6C4F40872,my_iOS_device_1,1456908220.995615,40.79919188287183,-96.68576044039492,369.3216,0.46,130.078125,4,11.90614110165595,-9999,1456908221.218999,29.00398254394531,37.05886840820312,7.3121337890625,277.2843933105469,274.0072631835938,25,10954.66122775,0.132965087890625,1.005950927734375,0.055450439453125,10954.64137675,0.007437409976264289,0.008515723901637372,0.001169394034653794,10954.60635075,2.318122994354693,1.998089357226083,-1.419369779731273,0.01235788874328136,-0.02264023572206497,0.008143870159983635,0.001920081675052643,0.02027794718742371,-0.01157910190522671,XArbitraryCorrectedZVertical,0.7257113023990085,0.06782016941955303,-0.1568677268157004,-0.6664353280505935,0.1372858583927155,0.9885568618774414,0.06251294165849686,26.84361839294434,33.75606536865234,6.961779117584229,1,10953.93906875,stationary,1,2016-03-02 02:43:40.520,2016-03-02 02:41:14.235,72,54.35794,2,2,2016-03-02 02:43:37.326,10953.55885075,0,-2.208984,97.42601,192.168.1.101,100.78.239.175,2,1,0.37,0
2016-03-02 02:43:41.280,19,234B9614-18C8-49ED-8B56-CAB6C4F40872,my_iOS_device_1,1456908220.995615,40.79919188287183,-96.68576044039492,369.3216,0.46,130.078125,4,11.90614110165595,-9999,1456908221.263835,29.17691993713379,37.02407836914062,6.94903564453125,277.2410583496094,273.9639282226562,25,10954.69152675,0.1439361572265625,1.005859375,0.079559326171875,10954.67638875,0.005267732636176733,0.01064971488311787,0.004334028357994952,10954.64137675,2.310721810647164,1.989850275763413,-1.419393337312641,0.02726547606289387,-0.02263206802308559,0.007295322138816118,0.003597718896344304,0.01072239223867655,-0.002974859671667218,XArbitraryCorrectedZVertical,0.7253111644636964,0.06788841924865784,-0.1573828967877237,-0.6667424548016491,0.1377749592065811,0.9885604381561279,0.06137024611234665,26.85807418823242,33.75835418701172,6.894609451293945,1,10953.93906875,stationary,1,2016-03-02 02:43:40.520,2016-03-02 02:41:14.235,72,54.35794,2,2,2016-03-02 02:43:37.326,10953.55885075,0,-2.208984,97.42601,192.168.1.101,100.78.239.175,2,1,0.37,0
2016-03-02 02:43:41.310,20,234B9614-18C8-49ED-8B56-CAB6C4F40872,my_iOS_device_1,1456908220.995615,40.79919188287183,-96.68576044039492,369.3216,0.46,130.078125,4,11.90614110165595,-9999,1456908221.263835,29.17691993713379,37.02407836914062,6.94903564453125,277.2410583496094,273.9639282226562,25,10954.72182075,0.125030517578125,0.994171142578125,0.0348358154296875,10954.71137975,0.03410870197729885,0.01702825200996665,-0.00377636242573236,10954.67638875,2.303715111227992,1.98219642199239,-1.419746060906172,0.025097431614995,-0.02049809880554676,0.01045886427164078,3.367470708326437e-05,0.02403595298528671,-0.004922431893646717,XArbitraryCorrectedZVertical,0.7248878579445461,0.06800622683774996,-0.1577185300134031,-0.6671113938513279,0.1379210352897644,0.9886136054992676,0.06017450615763664,26.87004089355469,33.75616836547852,6.858576774597168,1,10953.93906875,stationary,1,2016-03-02 02:43:40.520,2016-03-02 02:41:14.235,72,54.35794,2,2,2016-03-02 02:43:37.326,10953.55885075,0,-2.208984,97.42601,192.168.1.101,100.78.239.175,2,1,0.37,0
2016-03-02 02:43:41.345,21,234B9614-18C8-49ED-8B56-CAB6C4F40872,my_iOS_device_1,1456908220.995615,40.79919188287183,-96.68576044039492,369.3216,0.46,130.078125,4,11.90614110165595,-9999,1456908221.322683,29.17691993713379,37.09367370605469,7.1470947265625,277.2075500488281,273.930419921875,25,10954.75211375,0.1310882568359375,1.009140014648438,0.0509796142578125,10954.74640275,0.01385083451339311,0.03084899280304186,0.000185356011869515,10954.71137975,2.297120128874825,1.975035830180691,-1.419847150917354,0.05393523722887039,-0.014118910767138,0.002349016955122352,0.002460054820403457,0.01337011158466339,0.007824757136404514,XArbitraryCorrectedZVertical,0.7245302910755801,0.06803595680232846,-0.1580833195332424,-0.6674103909748993,0.1382565051317215,0.9886288046836853,0.05914606899023056,26.88268280029297,33.7589225769043,6.795200347900391,1,10953.93906875,stationary,1,2016-03-02 02:43:40.520,2016-03-02 02:41:14.235,72,54.35794,2,2,2016-03-02 02:43:37.326,10953.55885075,0,-2.208984,97.42601,192.168.1.101,100.78.239.175,2,1,0.37,0
2016-03-02 02:43:41.378,22,234B9614-18C8-49ED-8B56-CAB6C4F40872,my_iOS_device_1,1456908220.995615,40.79919188287183,-96.68576044039492,369.3216,0.46,130.078125,4,11.90614110165595,-9999,1456908221.37055,28.72729110717773,37.05886840820312,7.24603271484375,277.2007141113281,273.923583984375,25,10954.78240675,0.1486053466796875,0.99761962890625,0.0503997802734375,10954.78141675,0.01811615331526402,0.02553225800280767,-0.0008157262418912707,10954.74640275,2.282068919414166,1.959849716283209,-1.421454387042936,0.03368585184216499,-0.0002786081749945879,0.006305398885160685,-0.007281974423676729,0.0147318709641695,-0.01224751118570566,XArbitraryCorrectedZVertical,0.7235845392644081,0.06814614076230122,-0.1580806980605033,-0.668425022674505,0.1376683264970779,0.9888691902160645,0.05643696337938309,26.89028739929199,33.75773620605469,6.770953178405762,1,10953.93906875,stationary,1,2016-03-02 02:43:40.520,2016-03-02 02:41:14.235,72,54.35794,2,2,2016-03-02 02:43:37.326,10953.55885075,0,-2.208984,97.42601,192.168.1.101,100.78.239.175,2,1,0.37,0
2016-03-02 02:43:41.424,23,234B9614-18C8-49ED-8B56-CAB6C4F40872,my_iOS_device_1,1456908220.995615,40.79919188287183,-96.68576044039492,369.3216,0.46,130.078125,4,11.90614110165595,-9999,1456908221.412256,29.03857421875,37.44160461425781,7.47711181640625,277.2032470703125,273.9261169433594,25,10954.81269875,0.1465606689453125,0.998382568359375,0.06036376953125,10954.78141675,0.01811615331526402,0.02553225800280767,-0.0008157262418912707,10954.78141675,2.272369625708443,1.950157937845081,-1.421907554635533,0.03795254603028297,-0.005595333408564329,0.005303742364048958,0.00757793290540576,0.01409997139126062,-0.004564862698316574,XArbitraryCorrectedZVertical,0.7230772633867335,0.0680171579954387,-0.158208278981886,-0.6689567085043364,0.137792557477951,0.9889365434646606,0.05493412539362907,26.87251091003418,33.79381561279297,6.660660743713379,1,10953.93906875,stationary,1,2016-03-02 02:43:40.520,2016-03-02 02:41:14.235,72,54.35794,2,2,2016-03-02 02:43:37.326,10953.55885075,0,-2.208984,97.42601,192.168.1.101,100.78.239.175,2,1,0.37,0
2016-03-02 02:43:41.431,24,234B9614-18C8-49ED-8B56-CAB6C4F40872,my_iOS_device_1,1456908220.995615,40.79919188287183,-96.68576044039492,369.3216,0.46,130.078125,4,11.90614110165595,-9999,1456908221.412256,29.03857421875,37.44160461425781,7.47711181640625,277.2032470703125,273.9261169433594,25,10954.84298575,0.1448974609375,1.007522583007812,0.06396484375,10954.81644175,-0.009515474574853118,0.0180618248290264,-0.003344664013030515,10954.81644175,2.265496296859435,1.942960647976664,-1.421446863220381,0.01032098196446896,-0.01306567993015051,0.002778228605166078,0.007951922714710236,0.00951448455452919,0.006257128436118364,XArbitraryCorrectedZVertical,0.7228116209227037,0.06779882959537474,-0.1586481904206181,-0.6691617375798201,0.1386087387800217,0.9888680577278137,0.05410664156079292,26.88402938842773,33.79718017578125,6.596778869628906,1,10953.93906875,stationary,1,2016-03-02 02:43:40.520,2016-03-02 02:41:14.235,72,54.35794,2,2,2016-03-02 02:43:37.326,10953.55885075,0,-2.208984,97.42601,192.168.1.101,100.78.239.175,2,1,0.37,0
2016-03-02 02:43:41.456,25,234B9614-18C8-49ED-8B56-CAB6C4F40872,my_iOS_device_1,1456908220.995615,40.79919188287183,-96.68576044039492,369.3216,0.46,130.078125,4,11.90614110165595,-9999,1456908221.412256,29.03857421875,37.44160461425781,7.47711181640625,277.2032470703125,273.9261169433594,25,10954.87319975,0.1430511474609375,1.002120971679688,0.0571441650390625,10954.85145275,-0.009522398793687324,-0.01065291067642596,-0.004395813695284791,10954.85145275,2.266451614897897,1.94292551501956,-1.421151025047898,0.01031100749969482,-0.04177983105182648,0.00172808242496103,0.006014298181980848,0.0186985619366169,0.009756705723702908,XArbitraryCorrectedZVertical,0.7228217303473106,0.06806478773764257,-0.1590690291162729,-0.6690238970200885,0.1388831585645676,0.9888240098953247,0.05420813709497452,26.9123363494873,33.78010559082031,6.568779945373535,1,10953.93906875,stationary,1,2016-03-02 02:43:40.520,2016-03-02 02:41:14.235,72,54.35794,2,2,2016-03-02 02:43:37.326,10954.87177775,0,-2.208984,97.42601,192.168.1.101,100.78.239.175,2,1,0.37,0
2016-03-02 02:43:41.505,26,234B9614-18C8-49ED-8B56-CAB6C4F40872,my_iOS_device_1,1456908220.995615,40.79919188287183,-96.68576044039492,369.3216,0.46,130.078125,4,11.90614110165595,-9999,1456908221.469709,29.28068161010742,37.47640991210938,7.3121337890625,277.1997680664062,273.9226379394531,25,10954.90350075,0.1452178955078125,1.004196166992188,0.0604248046875,10954.88644175,-0.005391303310756409,-0.01913348085167429,0.004194478716874801,10954.88644175,2.263857504433112,1.938719292834879,-1.420779150121351,0.01444003451615572,-0.05025993660092354,0.01031977869570255,0.004925617016851902,0.01083476096391678,0.003571526613086462,XArbitraryCorrectedZVertical,0.7226317178244117,0.06841982410479397,-0.1598326387104883,-0.6690109533232187,0.1394530385732651,0.9887685179710388,0.0537557452917099,26.93241119384766,33.77071380615234,6.534696578979492,1,10954.90137975,unknown,1,2016-03-02 02:43:41.489,2016-03-02 02:41:14.235,72,54.35794,2,2,2016-03-02 02:43:37.326,10954.87177775,0,-2.208984,97.42601,192.168.1.101,100.78.239.175,2,1,0.37,0
2016-03-02 02:43:41.514,27,234B9614-18C8-49ED-8B56-CAB6C4F40872,my_iOS_device_1,1456908220.995615,40.79919188287183,-96.68576044039492,369.3216,0.46,130.078125,4,11.90614110165595,-9999,1456908221.469709,29.28068161010742,37.47640991210938,7.3121337890625,277.1997680664062,273.9226379394531,25,10954.93380075,0.1360015869140625,1.003509521484375,0.062042236328125,10954.92147975,-0.009544236714625974,-0.02022058320864463,-0.003325489253181945,10954.88644175,2.263857504433112,1.938719292834879,-1.420779150121351,0.01444003451615572,-0.05025993660092354,0.01031977869570255,0.004925617016851902,0.01083476096391678,0.003571526613086462,XArbitraryCorrectedZVertical,0.7226317178244117,0.06841982410479397,-0.1598326387104883,-0.6690109533232187,0.1394530385732651,0.9887685179710388,0.0537557452917099,26.93241119384766,33.77071380615234,6.534696578979492,1,10954.90137975,unknown,1,2016-03-02 02:43:41.489,2016-03-02 02:41:14.235,72,54.35794,2,2,2016-03-02 02:43:37.326,10954.87177775,0,-2.208984,97.42601,192.168.1.101,100.78.239.175,2,1,0.37,0
2016-03-02 02:43:41.546,28,234B9614-18C8-49ED-8B56-CAB6C4F40872,my_iOS_device_1,1456908220.995615,40.79919188287183,-96.68576044039492,369.3216,0.46,130.078125,4,11.90614110165595,-9999,1456908221.528016,29.86865997314453,37.09367370605469,6.8170166015625,277.1680297851562,273.8908996582031,25,10954.96410875,0.14337158203125,1.005447387695312,0.065826416015625,10954.95649175,-0.01801948056769414,-0.01385243241004716,-0.005583317225351123,10954.92147975,2.263178546566464,1.936302213152926,-1.420478720899907,0.01028511207550764,-0.05134658887982368,0.002800337737426162,-0.001081309048458934,0.01795978471636772,0.009753508493304253,XArbitraryCorrectedZVertical,0.7225070732085971,0.0688903036909148,-0.1605689021360895,-0.6689209840390137,0.1398599892854691,0.9887235760688782,0.0535246878862381,26.94814682006836,33.76488876342773,6.49981689453125,1,10954.90137975,unknown,1,2016-03-02 02:43:41.489,2016-03-02 02:41:14.235,72,54.35794,2,2,2016-03-02 02:43:37.326,10954.87177775,0,-2.208984,97.42601,192.168.1.101,100.78.239.175,2,1,0.37,0
2016-03-02 02:43:41.583,29,234B9614-18C8-49ED-8B56-CAB6C4F40872,my_iOS_device_1,1456908220.995615,40.79919188287183,-96.68576044039492,369.3216,0.46,130.078125,4,11.90614110165595,-9999,1456908221.528016,29.86865997314453,37.09367370605469,6.8170166015625,277.1680297851562,273.8908996582031,25,10954.99440975,0.1425628662109375,1.0072021484375,0.0542144775390625,10954.95649175,-0.01801948056769414,-0.01385243241004716,-0.005583317225351123,10954.95649175,2.265642851460272,1.937179466493504,-1.420639956761207,0.001806648448109627,-0.04497760534286499,0.0005408501601777971,0.0004878292966168374,0.01270188670605421,0.01260237582027912,XArbitraryCorrectedZVertical,0.7224678167136608,0.06953689155096084,-0.1610277748505946,-0.6687861618283405,0.1396641433238983,0.9887477159500122,0.05359024927020073,26.96842002868652,33.7626953125,6.426740646362305,1,10954.90137975,unknown,1,2016-03-02 02:43:41.489,2016-03-02 02:41:14.235,72,54.35794,2,2,2016-03-02 02:43:37.326,10954.87177775,0,-2.208984,97.42601,192.168.1.101,100.78.239.175,2,1,0.37,0
2016-03-02 02:43:41.606,30,234B9614-18C8-49ED-8B56-CAB6C4F40872,my_iOS_device_1,1456908220.995615,40.79919188287183,-96.68576044039492,369.3216,0.46,130.078125,4,11.90614110165595,-9999,1456908221.587467,29.45361709594727,37.09367370605469,6.552978515625,277.1266479492188,273.8495178222656,25,10955.02468675,0.143585205078125,1.0059814453125,0.048309326171875,10954.99150275,-0.0105770105853587,-0.01810044066483255,-0.005473062356221843,10954.99150275,2.265906799783548,1.935764489829459,-1.420486630116256,0.009247176349163055,-0.04922521114349365,0.0006518512964248657,0.004970232490450144,0.01785178855061531,0.0008898631203919649,XArbitraryCorrectedZVertical,0.7223677810493889,0.07005805636281043,-0.1616730972111729,-0.6686841311700051,0.1398814469575882,0.9887247681617737,0.0534466840326786,26.97475624084473,33.75997924804688,6.414400100708008,1,10954.90137975,unknown,1,2016-03-02 02:43:41.489,2016-03-02 02:41:14.235,72,54.35794,2,2,2016-03-02 02:43:37.326,10954.87177775,0,-2.208984,97.42601,192.168.1.101,100.78.239.175,2,1,0.37,0
2016-03-02 02:43:41.639,31,234B9614-18C8-49ED-8B56-CAB6C4F40872,my_iOS_device_1,1456908220.995615,40.79919188287183,-96.68576044039492,369.3216,0.46,130.078125,4,11.90614110165595,-9999,1456908221.587467,29.45361709594727,37.09367370605469,6.552978515625,277.1266479492188,273.8495178222656,25,10955.05500675,0.1378021240234375,0.995025634765625,0.0422515869140625,10955.02649675,-0.003171292226066357,-0.01276905847860292,-0.002171008920632595,10955.02649675,2.263213671218367,1.93148181199154,-1.420605659179599,0.01665280945599079,-0.04389356076717377,0.003953494131565094,0.003586257109418511,0.01723887771368027,-0.004496268928050995,XArbitraryCorrectedZVertical,0.7220975649705853,0.07055426488149882,-0.1622834311513038,-0.6687759642393957,0.1399989426136017,0.9887425899505615,0.05280559509992599,26.98897361755371,33.75944137573242,6.357171058654785,1,10954.90137975,unknown,1,2016-03-02 02:43:41.489,2016-03-02 02:41:14.235,72,54.35794,2,2,2016-03-02 02:43:37.326,10954.87177775,0,-2.208984,97.42601,192.168.1.101,100.78.239.175,2,1,0.37,0
2016-03-02 02:43:41.666,32,234B9614-18C8-49ED-8B56-CAB6C4F40872,my_iOS_device_1,1456908220.995615,40.79919188287183,-96.68576044039492,369.3216,0.46,130.078125,4,11.90614110165595,-9999,1456908221.647544,29.24609565734863,37.02409362792969,6.2889404296875,277.068359375,273.7912292480469,25,10955.08530475,0.143707275390625,1.011444091796875,0.0577545166015625,10955.06152575,-0.01262338356697559,0.01166144978123897,-0.009780991735534018,10955.02649675,2.263213671218367,1.93148181199154,-1.420605659179599,0.01665280945599079,-0.04389356076717377,0.003953494131565094,0.003586257109418511,0.01723887771368027,-0.004496268928050995,XArbitraryCorrectedZVertical,0.7220975649705853,0.07055426488149882,-0.1622834311513038,-0.6687759642393957,0.1399989426136017,0.9887425899505615,0.05280559509992599,26.98897361755371,33.75944137573242,6.357171058654785,1,10954.90137975,unknown,1,2016-03-02 02:43:41.489,2016-03-02 02:41:14.235,72,54.35794,2,2,2016-03-02 02:43:37.326,10954.87177775,0,-2.208984,97.42601,192.168.1.101,100.78.239.175,2,1,0.37,0
2016-03-02 02:43:41.696,33,234B9614-18C8-49ED-8B56-CAB6C4F40872,my_iOS_device_1,1456908220.995615,40.79919188287183,-96.68576044039492,369.3216,0.46,130.078125,4,11.90614110165595,-9999,1456908221.647544,29.24609565734863,37.02409362792969,6.2889404296875,277.068359375,273.7912292480469,25,10955.11558575,0.1395721435546875,0.9966888427734375,0.0436553955078125,10955.09653575,-0.005176918843005031,0.01273044264279677,-0.009673400027494818,10955.06152575,2.256200534192788,1.923351507466193,-1.42108527220548,0.007203587796539068,-0.0194633062928915,-0.003656762884929776,-0.002176454989239573,0.006211418658494949,-0.00925029069185257,XArbitraryCorrectedZVertical,0.7216130492507765,0.07089108630863343,-0.1627277009327439,-0.6691552558129635,0.1399785727262497,0.9888142347335815,0.05150187760591507,26.99709320068359,33.7597770690918,6.320822715759277,1,10954.90137975,unknown,1,2016-03-02 02:43:41.489,2016-03-02 02:41:14.235,72,54.35794,2,2,2016-03-02 02:43:37.326,10954.87177775,0,-2.208984,97.42601,192.168.1.101,100.78.239.175,2,1,0.37,0
2016-03-02 02:43:41.743,34,234B9614-18C8-49ED-8B56-CAB6C4F40872,my_iOS_device_1,1456908220.995615,40.79919188287183,-96.68576044039492,369.3216,0.46,130.078125,4,11.90614110165595,-9999,1456908221.704643,29.31526947021484,37.37200927734375,6.222900390625,277.0162048339844,273.7390747070312,25,10955.14588275,0.1418609619140625,1.006057739257812,0.04583740234375,10955.13155675,-0.01162336657765083,0.02443769879478511,-0.004444283227124233,10955.09653575,2.257383347104211,1.923922100289965,-1.421250564915537,0.01464887987822294,-0.018393874168396,-0.003549831220880151,0.003865689970552921,0.01903467811644077,0.005084891803562641,XArbitraryCorrectedZVertical,0.7215928651596397,0.07117825988751997,-0.1628676943846287,-0.669112476640447,0.1397958099842072,0.9888388514518738,0.05152521654963493,26.99909782409668,33.77227020263672,6.245068550109863,1,10954.90137975,unknown,1,2016-03-02 02:43:41.489,2016-03-02 02:41:14.235,72,54.35794,2,2,2016-03-02 02:43:37.326,10954.87177775,0,-2.208984,97.42601,192.168.1.101,100.78.239.175,2,1,0.37,0
2016-03-02 02:43:41.757,35,234B9614-18C8-49ED-8B56-CAB6C4F40872,my_iOS_device_1,1456908220.995615,40.79919188287183,-96.68576044039492,369.3216,0.46,130.078125,4,11.90614110165595,-9999,1456908221.704643,29.31526947021484,37.37200927734375,6.222900390625,277.0162048339844,273.7390747070312,25,10955.17617575,0.1474151611328125,1.000106811523438,0.0497894287109375,10955.16656775,-0.01583409057717512,0.02442571456987975,-0.00770266082083618,10955.13155675,2.25139912271301,1.917557523121705,-1.421666729119009,0.00820425059646368,-0.006686700042337179,0.001678995206020772,-0.0007568236324004829,0.01160276494920254,-0.009448433294892311,XArbitraryCorrectedZVertical,0.7212257598272415,0.07127896848258373,-0.1630351082239111,-0.6694566942678859,0.1397338807582855,0.9889007806777954,0.05049457773566246,26.99894142150879,33.776123046875,6.224851608276367,1,10954.90137975,unknown,1,2016-03-02 02:43:41.489,2016-03-02 02:41:14.235,72,54.35794,2,2,2016-03-02 02:43:37.326,10954.87177775,0,-2.208984,97.42601,192.168.1.101,100.78.239.175,2,1,0.37,0
2016-03-02 02:43:41.825,36,234B9614-18C8-49ED-8B56-CAB6C4F40872,my_iOS_device_1,1456908220.995615,40.79919188287183,-96.68576044039492,369.3216,0.46,130.078125,4,11.90614110165595,-9999,1456908221.813317,28.86563301086426,37.33720397949219,6.71795654296875,276.949462890625,273.6723327636719,25,10955.20647775,0.1454925537109375,1.005828857421875,0.04669189453125,10955.20157875,-0.01686286970627273,0.03186285823003503,-0.009852897084966157,10955.16656775,2.24896465380326,1.91482906980173,-1.421635908919483,0.003994688857346773,-0.006698683835566044,-0.00157844799105078,0.008339317515492439,0.013240035623312,0.001542848767712712,XArbitraryCorrectedZVertical,0.7210945271612627,0.07130489731793541,-0.1632133263349016,-0.6695518685085132,0.1398998200893402,0.9888961911201477,0.05012341216206551,26.99904823303223,33.78424072265625,6.180180549621582,1,10954.90137975,unknown,1,2016-03-02 02:43:41.489,2016-03-02 02:41:14.235,72,54.35794,2,2,2016-03-02 02:43:37.326,10954.87177775,0,-2.208984,97.42601,192.168.1.101,100.78.239.175,2,1,0.37,0
2016-03-02 02:43:41.826,37,234B9614-18C8-49ED-8B56-CAB6C4F40872,my_iOS_device_1,1456908220.995615,40.79919188287183,-96.68576044039492,369.3216,0.46,130.078125,4,11.90614110165595,-9999,1456908221.813317,28.86563301086426,37.33720397949219,6.71795654296875,276.949462890625,273.6723327636719,25,10955.23678375,0.139068603515625,1.007064819335938,0.05572509765625,10955.20157875,-0.01686286970627273,0.03186285823003503,-0.009852897084966157,10955.20157875,2.245877721732081,1.91166236837287,-1.42171760596491,0.002967131091281772,0.0007383858319371939,-0.003727713599801064,0.002489613136276603,0.01194615941494703,-0.007844048552215099,XArbitraryCorrectedZVertical,0.7209341447480038,0.07127779739002807,-0.1632966073200654,-0.6697071394075457,0.1399817019701004,0.9889083504676819,0.04965313151478767,27.00521469116211,33.78075790405273,6.17226505279541,1,10954.90137975,unknown,1,2016-03-02 02:43:41.489,2016-03-02 02:41:14.235,72,54.35794,2,2,2016-03-02 02:43:37.326,10954.87177775,0,-2.208984,97.42601,192.168.1.101,100.78.239.175,2,1,0.37,0
2016-03-02 02:43:41.860,38,234B9614-18C8-49ED-8B56-CAB6C4F40872,my_iOS_device_1,1456908220.995615,40.79919188287183,-96.68576044039492,369.3216,0.46,130.078125,4,11.90614110165595,-9999,1456908221.847808,28.65811347961426,37.47637939453125,6.58599853515625,276.9363098144531,273.6591796875,25,10955.26707775,0.1443328857421875,0.997406005859375,0.0373077392578125,10955.23659475,-0.01049551785600228,0.03187058139719626,-0.008694688326890698,10955.23659475,2.245560299133263,1.911445430012531,-1.421868106637999,0.009334361180663109,0.000746336649172008,-0.002569813746958971,-0.0003105618816334754,0.02085020951926708,0.004534628707915545,XArbitraryCorrectedZVertical,0.7209058507460194,0.07128304886711749,-0.1632228039214889,-0.6697550280396284,0.1398521810770035,0.9889307022094727,0.04957303777337074,27.00651931762695,33.78324890136719,6.15290641784668,1,10954.90137975,unknown,1,2016-03-02 02:43:41.489,2016-03-02 02:41:14.235,72,54.35794,2,2,2016-03-02 02:43:37.326,10954.87177775,0,-2.208984,97.42601,192.168.1.101,100.78.239.175,2,1,0.37,0
2016-03-02 02:43:41.879,39,234B9614-18C8-49ED-8B56-CAB6C4F40872,my_iOS_device_1,1456908220.995615,40.79919188287183,-96.68576044039492,369.3216,0.46,130.078125,4,11.90614110165595,-9999,1456908221.847808,28.65811347961426,37.47637939453125,6.58599853515625,276.9363098144531,273.6591796875,25,10955.29736975,0.1470947265625,1.003265380859375,0.052947998046875,10955.27160575,-0.01693370979126884,0.03506770628583639,-0.004526841220916689,10955.27160575,2.241208521161647,1.907241923388757,-1.42222114010747,0.002897835336625576,0.003943467047065496,0.001597542315721512,0.004603113979101181,0.008423009887337685,-0.01156173087656498,XArbitraryCorrectedZVertical,0.720666762293359,0.07123308816857155,-0.163172749477461,-0.6700297894150167,0.139729768037796,0.9889829754829407,0.04886947199702263,26.99673271179199,33.79360580444336,6.138941764831543,1,10954.90137975,unknown,1,2016-03-02 02:43:41.489,2016-03-02 02:41:14.235,72,54.35794,2,2,2016-03-02 02:43:37.326,10954.87177775,0,-2.208984,97.42601,192.168.1.101,100.78.239.175,2,1,0.37,0
2016-03-02 02:43:41.920,40,234B9614-18C8-49ED-8B56-CAB6C4F40872,my_iOS_device_1,1456908220.995615,40.79919188287183,-96.68576044039492,369.3216,0.46,130.078125,4,11.90614110165595,-9999,1456908221.904151,29.00398635864258,37.26760864257812,6.12384033203125,276.884521484375,273.6073913574219,25,10955.32766475,0.142791748046875,1.001556396484375,0.0402984619140625,10955.30661675,-0.02114283589413907,0.03718252250746831,-0.007786284079064669,10955.30661675,2.24099734349042,1.907192099886382,-1.421957836428251,-0.001310254796408117,0.006058238912373781,-0.001660566893406212,0.007116717286407948,0.01432139612734318,0.003999535925686359,XArbitraryCorrectedZVertical,0.7207081728884185,0.07109121372588532,-0.1632001281445737,-0.6699936470119725,0.1399780064821243,0.9889439940452576,0.04894846305251122,27.00170707702637,33.79108810424805,6.130951881408691,1,10954.90137975,unknown,1,2016-03-02 02:43:41.489,2016-03-02 02:41:14.235,72,54.35794,2,2,2016-03-02 02:43:37.326,10954.87177775,0,-2.208984,97.42601,192.168.1.101,100.78.239.175,2,1,0.37,0
2016-03-02 02:43:41.939,41,234B9614-18C8-49ED-8B56-CAB6C4F40872,my_iOS_device_1,1456908220.995615,40.79919188287183,-96.68576044039492,369.3216,0.46,130.078125,4,11.90614110165595,-9999,1456908221.904151,29.00398635864258,37.26760864257812,6.12384033203125,276.884521484375,273.6073913574219,25,10955.35796275,0.1447601318359375,1.005691528320312,0.0624542236328125,10955.34163375,-0.03497715880877369,0.04780906788910248,-0.006926881995296098,10955.30661675,2.24099734349042,1.907192099886382,-1.421957836428251,-0.001310254796408117,0.006058238912373781,-0.001660566893406212,0.007116717286407948,0.01432139612734318,0.003999535925686359,XArbitraryCorrectedZVertical,0.7207081728884185,0.07109121372588532,-0.1632001281445737,-0.6699936470119725,0.1399780064821243,0.9889439940452576,0.04894846305251122,27.00170707702637,33.79108810424805,6.130951881408691,1,10954.90137975,unknown,1,2016-03-02 02:43:41.489,2016-03-02 02:41:14.235,72,54.35794,2,2,2016-03-02 02:43:37.326,10954.87177775,0,-2.208984,97.42601,192.168.1.101,100.78.239.175,2,1,0.37,0
2016-03-02 02:43:41.982,42,234B9614-18C8-49ED-8B56-CAB6C4F40872,my_iOS_device_1,1456908220.995615,40.79919188287183,-96.68576044039492,369.3216,0.46,130.078125,4,11.90614110165595,-9999,1456908221.969027,28.79646301269531,37.12841796875,6.38787841796875,276.8496704101562,273.5725402832031,25,10955.38825975,0.132598876953125,1.004959106445312,0.03985595703125,10955.37662075,-0.01999474714820591,0.05205627719556085,-0.01310594835649795,10955.34163375,2.240802900750476,1.907312977598686,-1.422027896651177,-0.01514249388128519,0.01668468117713928,-0.0008009058656170964,0.00413627689704299,0.01293771807104349,-0.008460936136543751,XArbitraryCorrectedZVertical,0.7207148419672486,0.07100259487829258,-0.1630700969090783,-0.670027530466269,0.1399066895246506,0.9889543652534485,0.04894250258803368,27.00326919555664,33.78757858276367,6.143381118774414,1,10954.90137975,unknown,1,2016-03-02 02:43:41.489,2016-03-02 02:41:14.235,72,54.35794,2,2,2016-03-02 02:43:37.326,10954.87177775,0,-2.208984,97.42601,192.168.1.101,100.78.239.175,2,1,0.37,0
2016-03-02 02:43:41.999,43,234B9614-18C8-49ED-8B56-CAB6C4F40872,my_iOS_device_1,1456908220.995615,40.79919188287183,-96.68576044039492,369.3216,0.46,130.078125,4,11.90614110165595,-9999,1456908221.969027,28.79646301269531,37.12841796875,6.38787841796875,276.8496704101562,273.5725402832031,25,10955.41855575,0.1419525146484375,0.998443603515625,0.0504913330078125,10955.37662075,-0.01999474714820591,0.05205627719556085,-0.01310594835649795,10955.37662075,2.244704775415134,1.911908378706083,-1.421859519946842,-0.0001627231540624052,0.02093244902789593,-0.006979434285312891,-0.000219305555219762,0.01758610270917416,0.01404956821352243,XArbitraryCorrectedZVertical,0.7209752218209826,0.07081693390983777,-0.162772019167669,-0.6698395040365005,0.1398372203111649,0.9889293909072876,0.04964061826467514,27.00258255004883,33.7873420715332,6.147712707519531,1,10954.90137975,unknown,1,2016-03-02 02:43:41.489,2016-03-02 02:41:14.235,72,54.35794,2,2,2016-03-02 02:43:37.326,10954.87177775,0,-2.208984,97.42601,192.168.1.101,100.78.239.175,2,1,0.37,0
2016-03-02 02:43:42.066,44,234B9614-18C8-49ED-8B56-CAB6C4F40872,my_iOS_device_1,1456908220.995615,40.79919188287183,-96.68576044039492,369.3216,0.46,130.078125,4,11.90614110165595,-9999,1456908222.029569,28.65811347961426,37.12841796875,6.8499755859375,276.8325500488281,273.555419921875,25,10955.44885375,0.1465606689453125,1.004684448242188,0.05487060546875,10955.44667075,-0.03278324670276642,0.05843295010964658,-0.01116343865739415,10955.41163475,2.244046789049995,1.911912682622488,-1.422487651579179,-0.009747585281729698,0.02199161425232887,-0.006055711768567562,0.003982655238360167,0.01055034156888723,0.0008748266845941544,XArbitraryCorrectedZVertical,0.7209075223731172,0.07077460432872559,-0.1623592254170876,-0.6700170008961857,0.1392516046762466,0.989022433757782,0.04943340271711349,27.0026969909668,33.78317642211914,6.170040607452393,1,10954.90137975,unknown,1,2016-03-02 02:43:41.489,2016-03-02 02:41:14.235,72,54.35794,2,2,2016-03-02 02:43:37.326,10954.87177775,0,-2.208984,97.42601,192.168.1.101,100.78.239.175,2,1,0.37,0
2016-03-02 02:43:42.067,45,234B9614-18C8-49ED-8B56-CAB6C4F40872,my_iOS_device_1,1456908220.995615,40.79919188287183,-96.68576044039492,369.3216,0.46,130.078125,4,11.90614110165595,-9999,1456908222.029569,28.65811347961426,37.12841796875,6.8499755859375,276.8325500488281,273.555419921875,25,10955.47915075,0.1393585205078125,1.00555419921875,0.0511016845703125,10955.44667075,-0.03278324670276642,0.05843295010964658,-0.01116343865739415,10955.44667075,2.24860673601775,1.917321255304736,-1.422281940096636,-0.01294998172670603,0.02730939164757729,-0.005038353614509106,0.006898832973092794,0.01262543722987175,0.004646198358386755,XArbitraryCorrectedZVertical,0.7212150706873006,0.07054278214305156,-0.1619990613300842,-0.6697976125884533,0.1391735523939133,0.9889919757843018,0.05025492608547211,26.97012329101562,33.80183792114258,6.210179328918457,1,10954.90137975,unknown,1,2016-03-02 02:43:41.489,2016-03-02 02:41:14.235,72,54.35794,2,2,2016-03-02 02:43:37.326,10954.87177775,0,-2.208984,97.42601,192.168.1.101,100.78.239.175,2,1,0.37,0
2016-03-02 02:43:42.090,46,234B9614-18C8-49ED-8B56-CAB6C4F40872,my_iOS_device_1,1456908221.995615,40.79919188287183,-96.68576044039492,369.4663,0,148.359375,4,11.90614110165595,-9999,1456908222.078347,28.79646110534668,37.54592895507812,6.8499755859375,276.8245239257812,273.5473937988281,25,10955.50942475,0.1373138427734375,0.9987640380859375,0.050201416015625,10955.48168175,-0.01259382247887571,0.05100725804217864,-0.009800699127600605,10955.48168175,2.24943535344067,1.918982330226032,-1.422284380766143,0.007238379679620266,0.01988404989242554,-0.003674815874546766,0.0002709038089960814,0.0165618434548378,0.0006164752994664013,XArbitraryCorrectedZVertical,0.7213199507991118,0.07028608129421386,-0.1616767836415638,-0.6697895288721515,0.1390876173973083,0.9889923334121704,0.05048520863056183,26.9653491973877,33.79632568359375,6.260729789733887,1,10954.90137975,unknown,1,2016-03-02 02:43:41.489,2016-03-02 02:41:14.235,72,54.35794,2,2,2016-03-02 02:43:37.326,10954.87177775,0,-2.208984,97.42601,192.168.1.101,100.78.239.175,2,1,0.37,0
2016-03-02 02:43:42.143,47,234B9614-18C8-49ED-8B56-CAB6C4F40872,my_iOS_device_1,1456908221.995615,40.79919188287183,-96.68576044039492,369.4663,0,148.359375,4,11.90614110165595,-9999,1456908222.111914,28.76187324523926,37.44155883789062,6.88299560546875,276.8191528320312,273.5420227050781,25,10955.53974775,0.1417083740234375,1.0035400390625,0.055694580078125,10955.51669275,-0.008384696376005474,0.04889244182054672,-0.006541256269452625,10955.51669275,2.247394201020757,1.917585030964797,-1.422637240169399,0.01144746970385313,0.01776944845914841,-0.0004162897530477494,-0.001515971962362528,0.009719532914459705,2.921561463153921e-05,XArbitraryCorrectedZVertical,0.7212268537631555,0.07012792319482827,-0.1613901296650682,-0.6699754666000552,0.1388298124074936,0.9890444874763489,0.05017219856381416,26.95969390869141,33.79960632324219,6.267369747161865,1,10954.90137975,unknown,1,2016-03-02 02:43:41.489,2016-03-02 02:41:14.235,72,54.35794,2,2,2016-03-02 02:43:37.326,10954.87177775,0,-2.208984,97.42601,192.168.1.101,100.78.239.175,2,1,0.37,0
2016-03-02 02:43:42.151,48,234B9614-18C8-49ED-8B56-CAB6C4F40872,my_iOS_device_1,1456908221.995615,40.79919188287183,-96.68576044039492,369.4663,0,148.359375,4,11.90614110165595,-9999,1456908222.111914,28.76187324523926,37.44155883789062,6.88299560546875,276.8191528320312,273.5420227050781,25,10955.57004675,0.1407012939453125,1.00506591796875,0.0564422607421875,10955.55170475,0.02345872077807198,0.03829412594646738,-0.001810416909035866,10955.51669275,2.247394201020757,1.917585030964797,-1.422637240169399,0.01144746970385313,0.01776944845914841,-0.0004162897530477494,-0.001515971962362528,0.009719532914459705,2.921561463153921e-05,XArbitraryCorrectedZVertical,0.7212268537631555,0.07012792319482827,-0.1613901296650682,-0.6699754666000552,0.1388298124074936,0.9890444874763489,0.05017219856381416,26.95969390869141,33.79960632324219,6.267369747161865,1,10954.90137975,unknown,1,2016-03-02 02:43:41.489,2016-03-02 02:41:14.235,72,54.35794,2,2,2016-03-02 02:43:37.326,10954.87177775,0,-2.208984,97.42601,192.168.1.101,100.78.239.175,2,1,0.37,0
2016-03-02 02:43:42.181,49,234B9614-18C8-49ED-8B56-CAB6C4F40872,my_iOS_device_1,1456908221.995615,40.79919188287183,-96.68576044039492,369.4663,0,148.359375,4,11.90614110165595,-9999,1456908222.166501,29.17691993713379,37.0936279296875,7.279052734375,276.824462890625,273.5473327636719,25,10955.60034575,0.135589599609375,1.006790161132812,0.0573272705078125,10955.58670375,0.0491640842517348,0.04040494742646419,-0.01422713917542131,10955.55170475,2.243195289068555,1.913918221286459,-1.42277862155929,0.04328892379999161,0.007171649485826492,0.00431442353874445,0.00180486508179456,0.01380328647792339,0.009222133085131645,XArbitraryCorrectedZVertical,0.7210573786404352,0.06988659029311575,-0.1612625355201216,-0.6702137836862183,0.1388811767101288,0.9890653491020203,0.0496157594025135,26.94811820983887,33.80796432495117,6.272061347961426,1,10954.90137975,unknown,1,2016-03-02 02:43:41.489,2016-03-02 02:41:14.235,72,54.35794,2,2,2016-03-02 02:43:37.326,10954.87177775,0,-2.208984,97.42601,192.168.1.101,100.78.239.175,2,1,0.37,0
2016-03-02 02:43:42.225,50,234B9614-18C8-49ED-8B56-CAB6C4F40872,my_iOS_device_1,1456908221.995615,40.79919188287183,-96.68576044039492,369.4663,0,148.359375,4,11.90614110165595,-9999,1456908222.166501,29.17691993713379,37.0936279296875,7.279052734375,276.824462890625,273.5473327636719,25,10955.63064275,0.13507080078125,1.00775146484375,0.0580291748046875,10955.62173275,0.05541106122073367,0.03618250551814355,-0.004542553871348156,10955.58670375,2.233280894231907,1.904549279437821,-1.423396774902947,0.06899183243513107,0.009282992221415043,-0.008102222345769405,0.004243139643222094,0.01868667639791965,0.008665821515023708,XArbitraryCorrectedZVertical,0.7205589658934503,0.06964799453788875,-0.1611269635338733,-0.6708070029075092,0.1387622356414795,0.9891563653945923,0.04811213165521622,26.94844818115234,33.80945587158203,6.262587070465088,1,10954.90137975,unknown,1,2016-03-02 02:43:41.489,2016-03-02 02:41:14.235,72,54.35794,2,2,2016-03-02 02:43:37.326,10954.87177775,0,-2.208984,97.42601,192.168.1.101,100.78.239.175,2,1,0.37,0
2016-03-02 02:43:42.242,51,234B9614-18C8-49ED-8B56-CAB6C4F40872,my_iOS_device_1,1456908221.995615,40.79919188287183,-96.68576044039492,369.4663,0,148.359375,4,11.90614110165595,-9999,1456908222.225277,29.24609565734863,37.0240478515625,6.81695556640625,276.8165893554688,273.5394592285156,25,10955.66093975,0.1378936767578125,1.004043579101562,0.052398681640625,10955.62173275,0.05541106122073367,0.03618250551814355,-0.004542553871348156,10955.62173275,2.220268111156998,1.891861182890739,-1.424478685276508,0.07523515820503235,0.005061428062617779,0.001580267795361578,-0.002252783859148622,0.0143779693171382,0.009837239980697632,XArbitraryCorrectedZVertical,0.719837623056476,0.06956119896225246,-0.1609970517155388,-0.6716211620923135,0.1383459270000458,0.9893146753311157,0.04600992798805237,26.94269943237305,33.82194519042969,6.219739437103271,1,10954.90137975,unknown,1,2016-03-02 02:43:41.489,2016-03-02 02:41:14.235,72,54.35794,2,2,2016-03-02 02:43:37.326,10954.87177775,0,-2.208984,97.42601,192.168.1.101,100.78.239.175,2,1,0.37,0
2016-03-02 02:43:42.272,52,234B9614-18C8-49ED-8B56-CAB6C4F40872,my_iOS_device_1,1456908221.995615,40.79919188287183,-96.68576044039492,369.4663,0,148.359375,4,11.90614110165595,-9999,1456908222.225277,29.24609565734863,37.0240478515625,6.81695556640625,276.8165893554688,273.5394592285156,25,10955.69123675,0.144195556640625,1.003662109375,0.0339202880859375,10955.65674775,0.0884065618623794,0.04577494544849996,-0.005134041949454755,10955.65674775,2.202465210161322,1.874734131030108,-1.425406181324571,0.1082268059253693,0.01465465407818556,0.0009875542018562555,0.0003117836895398796,0.01439575757831335,0.01254899892956018,XArbitraryCorrectedZVertical,0.7189505386687874,0.06920784024992666,-0.1608879846355074,-0.6726332241241986,0.1382380276918411,0.9894494414329529,0.04335920512676239,26.92781829833984,33.84836578369141,6.139957904815674,1,10954.90137975,unknown,1,2016-03-02 02:43:41.489,2016-03-02 02:41:14.235,72,54.35794,2,2,2016-03-02 02:43:37.326,10954.87177775,0,-2.208984,97.42601,192.168.1.101,100.78.239.175,2,1,0.37,0
2016-03-02 02:43:42.303,53,234B9614-18C8-49ED-8B56-CAB6C4F40872,my_iOS_device_1,1456908221.995615,40.79919188287183,-96.68576044039492,369.4663,0,148.359375,4,11.90614110165595,-9999,1456908222.283637,29.10774612426758,37.09364318847656,6.0908203125,276.7869262695312,273.5097961425781,25,10955.72153475,0.148956298828125,1.000823974609375,0.0323028564453125,10955.69175975,0.06816520599723215,0.04257542371487877,-0.003294862900646033,10955.69175975,2.179298632295223,1.852294476539888,-1.426216204109018,0.08798502385616302,0.01145538315176964,0.002827119547873735,0.005789430812001228,0.0140956211835146,-0.006103587802499533,XArbitraryCorrectedZVertical,0.7178385940711279,0.06870000543294218,-0.1608967696498073,-0.6738696399391692,0.1384061276912689,0.9895665049552917,0.04002387449145317,26.92051315307617,33.87135696411133,6.044460296630859,1,10954.90137975,unknown,1,2016-03-02 02:43:41.489,2016-03-02 02:41:14.235,72,54.35794,2,2,2016-03-02 02:43:37.326,10954.87177775,0,-2.208984,97.42601,192.168.1.101,100.78.239.175,2,1,0.37,0
2016-03-02 02:43:42.333,54,234B9614-18C8-49ED-8B56-CAB6C4F40872,my_iOS_device_1,1456908221.995615,40.79919188287183,-96.68576044039492,369.4663,0,148.359375,4,11.90614110165595,-9999,1456908222.283637,29.10774612426758,37.09364318847656,6.0908203125,276.7869262695312,273.5097961425781,25,10955.75183275,0.1504058837890625,1.00567626953125,0.038909912109375,10955.72676975,0.02684493010410773,0.04463884092747216,-0.01561917347720572,10955.72676975,2.161184302851781,1.834812875262865,-1.42664466670559,0.04666705429553986,0.0135184358805418,-0.009494240395724773,0.01028098911046982,0.01119584590196609,-0.005184817593544722,XArbitraryCorrectedZVertical,0.7169991607981375,0.06823518534764152,-0.1609248415886083,-0.6748031996478748,0.1386753171682358,0.9896281361579895,0.03748767450451851,26.92282867431641,33.87981414794922,5.986457824707031,1,10954.90137975,unknown,1,2016-03-02 02:43:41.489,2016-03-02 02:41:14.235,72,54.35794,2,2,2016-03-02 02:43:37.326,10954.87177775,0,-2.208984,97.42601,192.168.1.101,100.78.239.175,2,1,0.37,0
2016-03-02 02:43:42.383,55,234B9614-18C8-49ED-8B56-CAB6C4F40872,my_iOS_device_1,1456908221.995615,40.79919188287183,-96.68576044039492,369.4663,0,148.359375,4,11.90614110165595,-9999,1456908222.343556,29.349853515625,37.05885314941406,5.79376220703125,276.7386169433594,273.4614868164062,25,10955.78213075,0.1468353271484375,1.0006103515625,0.032196044921875,10955.76178675,0.0001462075438453502,0.01911483872404373,-0.009599364149190614,10955.72676975,2.161184302851781,1.834812875262865,-1.42664466670559,0.04666705429553986,0.0135184358805418,-0.009494240395724773,0.01028098911046982,0.01119584590196609,-0.005184817593544722,XArbitraryCorrectedZVertical,0.7169991607981375,0.06823518534764152,-0.1609248415886083,-0.6748031996478748,0.1386753171682358,0.9896281361579895,0.03748767450451851,26.92282867431641,33.87981414794922,5.986457824707031,1,10954.90137975,unknown,1,2016-03-02 02:43:41.489,2016-03-02 02:41:14.235,72,54.35794,2,2,2016-03-02 02:43:37.326,10954.87177775,0,-2.208984,97.42601,192.168.1.101,100.78.239.175,2,1,0.37,0
2016-03-02 02:43:42.393,56,234B9614-18C8-49ED-8B56-CAB6C4F40872,my_iOS_device_1,1456908221.995615,40.79919188287183,-96.68576044039492,369.4663,0,148.359375,4,11.90614110165595,-9999,1456908222.343556,29.349853515625,37.05885314941406,5.79376220703125,276.7386169433594,273.4614868164062,25,10955.81241375,0.1469268798828125,1.00439453125,0.0388946533203125,10955.79679675,-0.04557014836067287,0.008440622758897138,-0.01238929170715762,10955.76178675,2.15348765482322,1.827161613393875,-1.426647649311263,0.01997510716319084,-0.01198179926723242,-0.003472567070275545,0.01145066320896149,0.01604771241545677,0.002485114382579923,XArbitraryCorrectedZVertical,0.7166451414486303,0.06805982732036737,-0.1610686399456528,-0.6751625688448971,0.138955220580101,0.9896285533905029,0.03642479702830315,26.93239974975586,33.88883209228516,5.891609191894531,1,10954.90137975,unknown,1,2016-03-02 02:43:41.489,2016-03-02 02:41:14.235,72,54.35794,2,2,2016-03-02 02:43:37.326,10954.87177775,0,-2.208984,97.42601,192.168.1.101,100.78.239.175,2,1,0.37,0
