loggingTime,loggingSample,identifierForVendor,deviceID,locationTimestamp_since1970,locationLatitude,locationLongitude,locationAltitude,locationSpeed,locationCourse,locationVerticalAccuracy,locationHorizontalAccuracy,locationFloor,locationHeadingTimestamp_since1970,locationHeadingX,locationHeadingY,locationHeadingZ,locationTrueHeading,locationMagneticHeading,locationHeadingAccuracy,accelerometerTimestamp_sinceReboot,accelerometerAccelerationX,accelerometerAccelerationY,accelerometerAccelerationZ,gyroTimestamp_sinceReboot,gyroRotationX,gyroRotationY,gyroRotationZ,motionTimestamp_sinceReboot,motionYaw,motionRoll,motionPitch,motionRotationRateX,motionRotationRateY,motionRotationRateZ,motionUserAccelerationX,motionUserAccelerationY,motionUserAccelerationZ,motionAttitudeReferenceFrame,motionQuaternionX,motionQuaternionY,motionQuaternionZ,motionQuaternionW,motionGravityX,motionGravityY,motionGravityZ,motionMagneticFieldX,motionMagneticFieldY,motionMagneticFieldZ,motionMagneticFieldCalibrationAccuracy,activityTimestamp_sinceReboot,activity,activityActivityConfidence,activityActivityStartDate,pedometerStartDate,pedometerNumberofSteps,pedometerDistance,pedometerFloorAscended,pedometerFloorDescended,pedometerEndDate,altimeterTimestamp_sinceReboot,altimeterReset,altimeterRelativeAltitude,altimeterPressure,IP_en0,IP_pdp_ip0,deviceOrientation,batteryState,batteryLevel,state
2016-03-02 02:45:05.595,1,234B9614-18C8-49ED-8B56-CAB6C4F40872,my_iOS_device_1,1456908304.999999,40.79921463973894,-96.68586311870877,369.193,0.46,309.375,4,13.9858368491159,-9999,1456908305.582656,29.10796737670898,43.22129821777344,8.3670654296875,282.9818115234375,279.7046813964844,25,11038.99341479167,0.0375213623046875,1.020416259765625,0.0615386962890625,11038.98604979167,-0.01162656237095893,0.02018409790171055,-0.004442152698252169,11038.95103779167,2.417218658302583,2.451513113542032,-1.510203590852076,-0.0382760688662529,0.0009978961898013949,0.0001195668373838998,0.002511754166334867,0.0117686502635479,-0.004189263097941875,XArbitraryCorrectedZVertical,0.7229607678063698,-0.02603560870499114,-0.001798082887219256,-0.6903960038920381,0.03854964673519135,0.9981648325920105,0.04670025035738945,28.16772842407227,44.27502059936523,7.44414234161377,1,11020.507618375,unknown,2,2016-03-02 02:44:47.082,2016-03-02 02:41:14.235,128,99.7117,3,4,2016-03-02 02:45:02.625,11038.89149979167,0,-2.536438,97.42982,192.168.1.101,100.78.239.175,2,1,0.37,0
2016-03-02 02:45:05.600,2,234B9614-18C8-49ED-8B56-CAB6C4F40872,my_iOS_device_1,1456908304.999999,40.79921463973894,-96.68586311870877,369.193,0.46,309.375,4,13.9858368491159,-9999,1456908305.582656,29.10796737670898,43.22129821777344,8.3670654296875,282.9818115234375,279.7046813964844,25,11039.02371779167,0.0390167236328125,1.008560180664062,0.066131591796875,11039.02106079167,-0.02322223207327294,0.0424891372955602,-0.01101643216522178,11038.98604979167,2.440827094329208,2.475227371738468,-1.508667637937319,0.009565289132297039,-0.009596964344382286,0.001885101199150085,-0.002627743640914559,0.02471073903143406,0.02600753307342529,XArbitraryCorrectedZVertical,0.7236890087246962,-0.02602639315143755,-0.00171465814208434,-0.6896331673129046,0.03837908804416656,0.9980706572532654,0.04880630970001221,28.16753005981445,44.2647819519043,7.505536079406738,1,11020.507618375,unknown,2,2016-03-02 02:44:47.082,2016-03-02 02:41:14.235,128,99.7117,3,4,2016-03-02 02:45:02.625,11038.89149979167,0,-2.536438,97.42982,192.168.1.101,100.78.239.175,2,1,0.37,0
2016-03-02 02:45:05.634,3,234B9614-18C8-49ED-8B56-CAB6C4F40872,my_iOS_device_1,1456908304.999999,40.79921463973894,-96.68586311870877,369.193,0.46,309.375,4,13.9858368491159,-9999,1456908305.582656,29.10796737670898,43.22129821777344,8.3670654296875,282.9818115234375,279.7046813964844,25,11039.05399179167,0.0360260009765625,1.014419555664062,0.063934326171875,11039.02106079167,-0.02322223207327294,0.0424891372955602,-0.01101643216522178,11039.02106079167,2.442020123403641,2.476434168637506,-1.508609389603268,-0.002032139571383595,0.01270815543830395,-0.004689055494964123,0.003239419311285019,0.009364014491438866,0.01132810860872269,XArbitraryCorrectedZVertical,0.723720891208676,-0.02602378559941534,-0.001702343426310717,-0.6895998377595762,0.03835603967308998,0.9980670213699341,0.04889833182096481,28.16552352905273,44.26346206665039,7.520833015441895,1,11020.507618375,unknown,2,2016-03-02 02:44:47.082,2016-03-02 02:41:14.235,128,99.7117,3,4,2016-03-02 02:45:02.625,11038.89149979167,0,-2.536438,97.42982,192.168.1.101,100.78.239.175,2,1,0.37,0
2016-03-02 02:45:05.662,4,234B9614-18C8-49ED-8B56-CAB6C4F40872,my_iOS_device_1,1456908304.999999,40.79921463973894,-96.68586311870877,369.193,0.46,309.375,4,13.9858368491159,-9999,1456908305.641908,28.38346862792969,43.74290466308594,8.1363525390625,283.0112915039062,279.7341613769531,25,11039.08429479167,0.0375213623046875,1.011367797851562,0.0571136474609375,11039.05605779167,-0.01372087225219724,0.04463777566303613,-0.005550826660052156,11039.05605779167,2.452507857288143,2.487429548371374,-1.508040264875196,0.007465416565537453,0.01485696155577898,0.0007762452587485313,-0.002135709393769503,0.0163880717009306,0.01416646782308817,XArbitraryCorrectedZVertical,0.7240168599163009,-0.02614413641941996,-0.001464181273286806,-0.6892850838811192,0.03816170990467072,0.9980314970016479,0.04976785928010941,28.16026878356934,44.26043319702148,7.558241844177246,1,11020.507618375,unknown,2,2016-03-02 02:44:47.082,2016-03-02 02:41:14.235,128,99.7117,3,4,2016-03-02 02:45:02.625,11038.89149979167,0,-2.536438,97.42982,192.168.1.101,100.78.239.175,2,1,0.37,0
2016-03-02 02:45:05.690,5,234B9614-18C8-49ED-8B56-CAB6C4F40872,my_iOS_device_1,1456908304.999999,40.79921463973894,-96.68586311870877,369.193,0.46,309.375,4,13.9858368491159,-9999,1456908305.641908,28.38346862792969,43.74290466308594,8.1363525390625,283.0112915039062,279.7341613769531,25,11039.11456879167,0.036407470703125,1.01220703125,0.061920166015625,11039.09108779167,-0.01048593047607799,0.04463138407641994,-0.008701079913506887,11039.09108779167,2.453592835944375,2.489057264498634,-1.507966578457809,0.01069888006895781,0.01485069375485182,-0.00237399130128324,-0.0006039440631866455,0.01334093697369099,0.007225306238979101,XArbitraryCorrectedZVertical,0.7240517805835865,-0.02632849304186897,-0.001265041849378353,-0.689241778447144,0.03812530636787415,0.9980268478393555,0.04988834261894226,28.15320014953613,44.26089477539062,7.581845283508301,1,11020.507618375,unknown,2,2016-03-02 02:44:47.082,2016-03-02 02:41:14.235,128,99.7117,3,4,2016-03-02 02:45:02.625,11038.89149979167,0,-2.536438,97.42982,192.168.1.101,100.78.239.175,2,1,0.37,0
2016-03-02 02:45:05.739,6,234B9614-18C8-49ED-8B56-CAB6C4F40872,my_iOS_device_1,1456908304.999999,40.79921463973894,-96.68586311870877,369.193,0.46,309.375,4,13.9858368491159,-9999,1456908305.698764,28.59046936035156,43.88197326660156,8.2022705078125,283.0220642089844,279.7449340820312,25,11039.14487379167,0.0426483154296875,1.009170532226562,0.0506591796875,11039.12607379167,-0.01051762209304993,0.04144704236101219,-0.006568420512571433,11039.12607379167,2.458391775844335,2.494407395111562,-1.507796860885048,0.01066466234624386,0.01166660152375698,-0.000241726724198088,0.0006752734770998359,0.01109330728650093,0.0105490256100893,XArbitraryCorrectedZVertical,0.7241633887178642,-0.02647172454606705,-0.001018845135265235,-0.6891194353628314,0.0379599817097187,0.9980161786079407,0.05022673308849335,28.14654731750488,44.26083755493164,7.606860160827637,1,11020.507618375,unknown,2,2016-03-02 02:44:47.082,2016-03-02 02:41:14.235,128,99.7117,3,4,2016-03-02 02:45:02.625,11038.89149979167,0,-2.536438,97.42982,192.168.1.101,100.78.239.175,2,1,0.37,0
2016-03-02 02:45:05.751,7,234B9614-18C8-49ED-8B56-CAB6C4F40872,my_iOS_device_1,1456908304.999999,40.79921463973894,-96.68586311870877,369.193,0.46,309.375,4,13.9858368491159,-9999,1456908305.698764,28.59046936035156,43.88197326660156,8.2022705078125,283.0220642089844,279.7449340820312,25,11039.17514579167,0.044281005859375,1.009262084960938,0.0596160888671875,11039.16111479167,-0.02439242505625376,0.03719184357128359,-0.003570500073469234,11039.12607379167,2.458391775844335,2.494407395111562,-1.507796860885048,0.01066466234624386,0.01166660152375698,-0.000241726724198088,0.0006752734770998359,0.01109330728650093,0.0105490256100893,XArbitraryCorrectedZVertical,0.7241633887178642,-0.02647172454606705,-0.001018845135265235,-0.6891194353628314,0.0379599817097187,0.9980161786079407,0.05022673308849335,28.14654731750488,44.26083755493164,7.606860160827637,1,11020.507618375,unknown,2,2016-03-02 02:44:47.082,2016-03-02 02:41:14.235,128,99.7117,3,4,2016-03-02 02:45:02.625,11038.89149979167,0,-2.536438,97.42982,192.168.1.101,100.78.239.175,2,1,0.37,0
2016-03-02 02:45:05.782,8,234B9614-18C8-49ED-8B56-CAB6C4F40872,my_iOS_device_1,1456908304.999999,40.79921463973894,-96.68586311870877,369.193,0.46,309.375,4,13.9858368491159,-9999,1456908305.757567,28.83197021484375,43.84718322753906,8.0374755859375,283.0265808105469,279.7494506835938,25,11039.20546679167,0.0447845458984375,1.019088745117188,0.0506591796875,11039.16111479167,-0.02439242505625376,0.03719184357128359,-0.003570500073469234,11039.16111479167,2.454250371293538,2.490675580175526,-1.507694794498721,-0.003210563445463777,0.007411403115838766,0.002756914356723428,0.004851429257541895,0.01137439627200365,0.000935926684178412,XArbitraryCorrectedZVertical,0.7241336752514762,-0.0267076636581223,-0.0009653932281731077,-0.6891416320935849,0.03820887207984924,0.9980097413063049,0.05016575753688812,28.14683532714844,44.25535583496094,7.637606620788574,1,11020.507618375,unknown,2,2016-03-02 02:44:47.082,2016-03-02 02:41:14.235,128,99.7117,3,4,2016-03-02 02:45:02.625,11038.89149979167,0,-2.536438,97.42982,192.168.1.101,100.78.239.175,2,1,0.37,0
2016-03-02 02:45:05.819,9,234B9614-18C8-49ED-8B56-CAB6C4F40872,my_iOS_device_1,1456908304.999999,40.79921463973894,-96.68586311870877,369.193,0.46,309.375,4,13.9858368491159,-9999,1456908305.816431,29.38397216796875,43.77764892578125,7.77374267578125,283.0162658691406,279.7391357421875,25,11039.23575879167,0.04058837890625,1.009292602539062,0.0695037841796875,11039.19612479167,-0.0329137415961803,0.0212344486356378,-0.003686081264778674,11039.19612479167,2.45269688761464,2.489008574847146,-1.506847188342138,-0.01173332519829273,-0.008546128869056702,0.002642987994477153,0.00672611640766263,0.01922544650733471,0.001716161263175309,XArbitraryCorrectedZVertical,0.7243372213745787,-0.02688170961756389,-0.001220003454826934,-0.6889205142909756,0.03880611062049866,0.9979559779167175,0.05077407136559486,28.16158103942871,44.24311447143555,7.654170036315918,1,11020.507618375,unknown,2,2016-03-02 02:44:47.082,2016-03-02 02:41:14.235,128,99.7117,3,4,2016-03-02 02:45:02.625,11038.89149979167,0,-2.536438,97.42982,192.168.1.101,100.78.239.175,2,1,0.37,0
2016-03-02 02:45:05.843,10,234B9614-18C8-49ED-8B56-CAB6C4F40872,my_iOS_device_1,1456908304.999999,40.79921463973894,-96.68586311870877,369.193,0.46,309.375,4,13.9858368491159,-9999,1456908305.816431,29.38397216796875,43.77764892578125,7.77374267578125,283.0162658691406,279.7391357421875,25,11039.26605079167,0.03558349609375,1.00311279296875,0.057159423828125,11039.23112779167,-0.02441639350606447,0.005289836873224391,-0.003554521106928759,11039.23112779167,2.452111669070006,2.487804807027737,-1.506326270598662,-0.003236787160858512,-0.02449077554047108,0.00277558621019125,0.005753763485699892,0.01237715687602758,0.01094804517924786,XArbitraryCorrectedZVertical,0.7244667662792109,-0.02679344060671531,-0.001569031437402905,-0.6887870166007244,0.0391833707690239,0.9979225397109985,0.05113996937870979,28.18667984008789,44.22570419311523,7.66236400604248,1,11020.507618375,unknown,2,2016-03-02 02:44:47.082,2016-03-02 02:41:14.235,128,99.7117,3,4,2016-03-02 02:45:02.625,11038.89149979167,0,-2.536438,97.42982,192.168.1.101,100.78.239.175,2,1,0.37,0
2016-03-02 02:45:05.875,11,234B9614-18C8-49ED-8B56-CAB6C4F40872,my_iOS_device_1,1456908304.999999,40.79921463973894,-96.68586311870877,369.193,0.46,309.375,4,13.9858368491159,-9999,1456908305.816431,29.38397216796875,43.77764892578125,7.77374267578125,283.0162658691406,279.7391357421875,25,11039.29634079167,0.043609619140625,1.0147705078125,0.0540618896484375,11039.26615179167,-0.02871020813159923,0.0116758308511254,-0.000422909981104583,11039.23112779167,2.452111669070006,2.487804807027737,-1.506326270598662,-0.003236787160858512,-0.02449077554047108,0.00277558621019125,0.005753763485699892,0.01237715687602758,0.01094804517924786,XArbitraryCorrectedZVertical,0.7244667662792109,-0.02679344060671531,-0.001569031437402905,-0.6887870166007244,0.0391833707690239,0.9979225397109985,0.05113996937870979,28.18667984008789,44.22570419311523,7.66236400604248,1,11020.507618375,unknown,2,2016-03-02 02:44:47.082,2016-03-02 02:41:14.235,128,99.7117,3,4,2016-03-02 02:45:02.625,11038.89149979167,0,-2.536438,97.42982,192.168.1.101,100.78.239.175,2,1,0.37,0
2016-03-02 02:45:05.903,12,234B9614-18C8-49ED-8B56-CAB6C4F40872,my_iOS_device_1,1456908304.999999,40.79921463973894,-96.68586311870877,369.193,0.46,309.375,4,13.9858368491159,-9999,1456908305.876279,28.76296997070312,44.403564453125,7.37811279296875,282.990234375,279.7131042480469,25,11039.32663579167,0.0414886474609375,1.012939453125,0.059814453125,11039.30116379167,-0.05732747194115469,0.01057035268263351,-0.008298143640577899,11039.26615179167,2.460252987701199,2.495254981131659,-1.505703475159791,-0.007533722557127476,-0.01810432597994804,0.005906408187001944,-0.003592090914025903,0.005230584647506475,0.005232823546975851,XArbitraryCorrectedZVertical,0.7247473018408996,-0.02654521841730962,-0.001809441636722368,-0.6885008538661789,0.03917558863759041,0.9978821873664856,0.05192660167813301,28.19673156738281,44.21736526489258,7.673507213592529,1,11020.507618375,unknown,2,2016-03-02 02:44:47.082,2016-03-02 02:41:14.235,128,99.7117,3,4,2016-03-02 02:45:02.625,11038.89149979167,0,-2.536438,97.42982,192.168.1.101,100.78.239.175,2,1,0.37,0
2016-03-02 02:45:05.942,13,234B9614-18C8-49ED-8B56-CAB6C4F40872,my_iOS_device_1,1456908304.999999,40.79921463973894,-96.68586311870877,369.193,0.46,309.375,4,13.9858368491159,-9999,1456908305.876279,28.76296997070312,44.403564453125,7.37811279296875,282.990234375,279.7131042480469,25,11039.35692679167,0.0341796875,1.014068603515625,0.06365966796875,11039.33617479167,-0.05096997378691753,0.01696140666660566,-0.006077599923669829,11039.33617479167,2.478652303843811,2.512334305292159,-1.503931227983745,-0.02979426831007004,-0.01281842775642872,0.0002519999688956887,0.002164824167266488,0.01517409086227417,0.005796685349196196,XArbitraryCorrectedZVertical,0.7254832947058044,-0.026131837489561,-0.002329500216616643,-0.6877395507028448,0.03932382166385651,0.9977653622627258,0.05401776731014252,28.20054244995117,44.21080017089844,7.697329521179199,1,11020.507618375,unknown,2,2016-03-02 02:44:47.082,2016-03-02 02:41:14.235,128,99.7117,3,4,2016-03-02 02:45:02.625,11038.89149979167,0,-2.536438,97.42982,192.168.1.101,100.78.239.175,2,1,0.37,0
2016-03-02 02:45:05.979,14,234B9614-18C8-49ED-8B56-CAB6C4F40872,my_iOS_device_1,1456908304.999999,40.79921463973894,-96.68586311870877,369.193,0.46,309.375,4,13.9858368491159,-9999,1456908305.943926,28.969970703125,44.47311401367188,7.510009765625,282.9625854492188,279.6854553222656,25,11039.38721779167,0.03582763671875,1.009521484375,0.0630645751953125,11039.37118879167,-0.03815058156371211,0.01270567524465904,-0.01015223639149106,11039.33617479167,2.478652303843811,2.512334305292159,-1.503931227983745,-0.02979426831007004,-0.01281842775642872,0.0002519999688956887,0.002164824167266488,0.01517409086227417,0.005796685349196196,XArbitraryCorrectedZVertical,0.7254832947058044,-0.026131837489561,-0.002329500216616643,-0.6877395507028448,0.03932382166385651,0.9977653622627258,0.05401776731014252,28.20054244995117,44.21080017089844,7.697329521179199,1,11020.507618375,unknown,2,2016-03-02 02:44:47.082,2016-03-02 02:41:14.235,128,99.7117,3,4,2016-03-02 02:45:02.625,11038.89149979167,0,-2.536438,97.42982,192.168.1.101,100.78.239.175,2,1,0.37,0
2016-03-02 02:45:05.994,15,234B9614-18C8-49ED-8B56-CAB6C4F40872,my_iOS_device_1,1456908304.999999,40.79921463973894,-96.68586311870877,369.193,0.46,309.375,4,13.9858368491159,-9999,1456908305.943926,28.969970703125,44.47311401367188,7.510009765625,282.9625854492188,279.6854553222656,25,11039.41749579167,0.0398101806640625,1.00933837890625,0.0506439208984375,11039.37118879167,-0.03815058156371211,0.01270567524465904,-0.01015223639149106,11039.37118879167,2.493229961583016,2.526418867420173,-1.503044369355483,-0.0169772207736969,-0.01707371696829796,-0.003823491046205163,-0.003471024334430695,0.01541684474796057,0.008691218681633472,XArbitraryCorrectedZVertical,0.7259305431171698,-0.02587061191805323,-0.002417052495376785,-0.6872770299273877,0.03906977921724319,0.9977056980133057,0.0552888847887516,28.21055793762207,44.19261169433594,7.764759540557861,1,11020.507618375,unknown,2,2016-03-02 02:44:47.082,2016-03-02 02:41:14.235,128,99.7117,3,4,2016-03-02 02:45:02.625,11038.89149979167,0,-2.536438,97.42982,192.168.1.101,100.78.239.175,2,1,0.37,0
2016-03-02 02:45:06.064,16,234B9614-18C8-49ED-8B56-CAB6C4F40872,my_iOS_device_1,1456908304.999999,40.79921463973894,-96.68586311870877,369.193,0.46,309.375,4,13.9858368491159,-9999,1456908306.0513,28.86647033691406,43.81245422363281,7.9384765625,282.9352722167969,279.6581420898438,25,11039.44778679167,0.04241943359375,1.011138916015625,0.055633544921875,11039.44121179167,-0.04778856154870888,0.004203000832363054,-0.006024869334086261,11039.40619979167,2.50405514011592,2.536595670189421,-1.502389716582601,-0.02126189693808556,-0.0160073135048151,-0.001755474717356265,-0.001324699260294437,0.01062434259802103,0.0046464828774333,XArbitraryCorrectedZVertical,0.726261983934123,-0.02557232847502706,-0.002577171360626225,-0.6869373660649097,0.03887657821178436,0.9976611733436584,0.05622082576155663,28.20220375061035,44.19454193115234,7.78410816192627,1,11020.507618375,unknown,2,2016-03-02 02:44:47.082,2016-03-02 02:41:14.235,128,99.7117,3,4,2016-03-02 02:45:02.625,11038.89149979167,0,-2.536438,97.42982,192.168.1.101,100.78.239.175,2,1,0.37,0
2016-03-02 02:45:06.065,17,234B9614-18C8-49ED-8B56-CAB6C4F40872,my_iOS_device_1,1456908304.999999,40.79921463973894,-96.68586311870877,369.193,0.46,309.375,4,13.9858368491159,-9999,1456908306.0513,28.86647033691406,43.81245422363281,7.9384765625,282.9352722167969,279.6581420898438,25,11039.47811679167,0.046661376953125,1.013946533203125,0.0571441650390625,11039.44121179167,-0.04778856154870888,0.004203000832363054,-0.006024869334086261,11039.44121179167,2.507657201932035,2.539420235399604,-1.501873636376872,-0.02661555632948875,-0.02557590790092945,0.0003035134286619723,0.003089737612754107,0.01412349566817284,-0.002143508521839976,XArbitraryCorrectedZVertical,0.7264538830961957,-0.0253399502905251,-0.002894372675964346,-0.686741774803693,0.03900926187634468,0.9976257681846619,0.05675471574068069,28.1976261138916,44.19467163085938,7.799910545349121,1,11020.507618375,unknown,2,2016-03-02 02:44:47.082,2016-03-02 02:41:14.235,128,99.7117,3,4,2016-03-02 02:45:02.625,11038.89149979167,0,-2.536438,97.42982,192.168.1.101,100.78.239.175,2,1,0.37,0
2016-03-02 02:45:06.086,18,234B9614-18C8-49ED-8B56-CAB6C4F40872,my_iOS_device_1,1456908305.999958,40.79922251872792,-96.68586789639357,369.0453,0.73,313.9453125,4,13.18675898878264,-9999,1456908306.0513,28.86647033691406,43.81245422363281,7.9384765625,282.9352722167969,279.6581420898438,25,11039.50840679167,0.04913330078125,1.010543823242188,0.0500946044921875,11039.47622779167,-0.03712073717017847,-0.01281220168826221,-0.00905847613179552,11039.47622779167,2.509594525613324,2.540086715038877,-1.501214028459208,-0.01594730280339718,-0.0425911545753479,-0.00272895535454154,0.007119218353182077,0.01444379705935717,-0.002025382127612829,XArbitraryCorrectedZVertical,0.7266612883651448,-0.02499977776991936,-0.00345242643510209,-0.6865322016152295,0.03934379294514656,0.9975801110267639,0.05732323229312897,28.21328926086426,44.18232727050781,7.813212394714355,1,11020.507618375,unknown,2,2016-03-02 02:44:47.082,2016-03-02 02:41:14.235,128,99.7117,3,4,2016-03-02 02:45:02.625,11038.89149979167,0,-2.536438,97.42982,192.168.1.101,100.78.239.175,2,1,0.37,0
2016-03-02 02:45:06.139,19,234B9614-18C8-49ED-8B56-CAB6C4F40872,my_iOS_device_1,1456908305.999958,40.79922251872792,-96.68586789639357,369.0453,0.73,313.9453125,4,13.18675898878264,-9999,1456908306.110523,29.28047180175781,44.02107238769531,8.00439453125,282.923095703125,279.6459655761719,25,11039.53869379167,0.04888916015625,1.009384155273438,0.0530853271484375,11039.51122279167,-0.0361268454513609,-0.02768728795689979,-0.004773449937858026,11039.51122279167,2.505633064461734,2.534302523238007,-1.500927067760073,-0.01495190616697073,-0.05746636539697647,0.001557897427119315,0.009295243769884109,0.01298368722200394,-0.007235178258270025,XArbitraryCorrectedZVertical,0.7266801452270151,-0.02451240432926332,-0.004253098689606841,-0.6865253234356037,0.03983805701136589,0.9975601434707642,0.05732978135347366,28.22848320007324,44.17447662353516,7.802693367004395,1,11020.507618375,unknown,2,2016-03-02 02:44:47.082,2016-03-02 02:41:14.235,128,99.7117,3,4,2016-03-02 02:45:02.625,11038.89149979167,0,-2.536438,97.42982,192.168.1.101,100.78.239.175,2,1,0.37,0
2016-03-02 02:45:06.147,20,234B9614-18C8-49ED-8B56-CAB6C4F40872,my_iOS_device_1,1456908305.999958,40.79922251872792,-96.68586789639357,369.0453,0.73,313.9453125,4,13.18675898878264,-9999,1456908306.110523,29.28047180175781,44.02107238769531,8.00439453125,282.923095703125,279.6459655761719,25,11039.56898679167,0.03167724609375,1.007461547851562,0.055145263671875,11039.54623979167,-0.03939267989612507,-0.02980183786242271,0.0005089300843141425,11039.54623979167,2.500833161392174,2.527291471304576,-1.500369913530653,-0.01821639947593212,-0.05958107486367226,0.006842102389782667,0.008329795673489571,0.01186307054013014,-0.00441791582852602,XArbitraryCorrectedZVertical,0.7267580752392807,-0.02396500759010557,-0.005268300604264301,-0.68645511396917,0.04055936262011528,0.9975211024284363,0.05750324204564095,28.28985214233398,44.15033340454102,7.716640949249268,1,11020.507618375,unknown,2,2016-03-02 02:44:47.082,2016-03-02 02:41:14.235,128,99.7117,3,4,2016-03-02 02:45:02.625,11038.89149979167,0,-2.536438,97.42982,192.168.1.101,100.78.239.175,2,1,0.37,0
2016-03-02 02:45:06.177,21,234B9614-18C8-49ED-8B56-CAB6C4F40872,my_iOS_device_1,1456908305.999958,40.79922251872792,-96.68586789639357,369.0453,0.73,313.9453125,4,13.18675898878264,-9999,1456908306.170359,29.34946823120117,44.29927062988281,8.2022705078125,282.9081726074219,279.6310424804688,25,11039.59927779167,0.030609130859375,1.01287841796875,0.0518798828125,11039.58126579167,-0.05629363280598593,-0.009630523133944541,-0.007207046541972435,11039.54623979167,2.500833161392174,2.527291471304576,-1.500369913530653,-0.01821639947593212,-0.05958107486367226,0.006842102389782667,0.008329795673489571,0.01186307054013014,-0.00441791582852602,XArbitraryCorrectedZVertical,0.7267580752392807,-0.02396500759010557,-0.005268300604264301,-0.68645511396917,0.04055936262011528,0.9975211024284363,0.05750324204564095,28.28985214233398,44.15033340454102,7.716640949249268,1,11020.507618375,unknown,2,2016-03-02 02:44:47.082,2016-03-02 02:41:14.235,128,99.7117,3,4,2016-03-02 02:45:02.625,11038.89149979167,0,-2.536438,97.42982,192.168.1.101,100.78.239.175,2,1,0.37,0
2016-03-02 02:45:06.219,22,234B9614-18C8-49ED-8B56-CAB6C4F40872,my_iOS_device_1,1456908305.999958,40.79922251872792,-96.68586789639357,369.0453,0.73,313.9453125,4,13.18675898878264,-9999,1456908306.170359,29.34946823120117,44.29927062988281,8.2022705078125,282.9081726074219,279.6310424804688,25,11039.62956979167,0.05010986328125,1.012069702148438,0.0565643310546875,11039.61627679167,-0.04876487640433192,-0.01602290869846174,-0.01348891092125134,11039.58126579167,2.509656302827214,2.534477746698311,-1.499920539233747,-0.03511640802025795,-0.03940938413143158,-0.0008754033478908241,-0.01266033668071032,0.01023158431053162,-0.01023351959884167,XArbitraryCorrectedZVertical,0.7270055042404213,-0.02331704611769833,-0.005777104880298508,-0.6862112919674654,0.04040081426501274,0.997489333152771,0.05816137418150902,28.31316757202148,44.13887405395508,7.696640014648438,1,11020.507618375,unknown,2,2016-03-02 02:44:47.082,2016-03-02 02:41:14.235,128,99.7117,3,4,2016-03-02 02:45:02.625,11038.89149979167,0,-2.536438,97.42982,192.168.1.101,100.78.239.175,2,1,0.37,0
2016-03-02 02:45:06.238,23,234B9614-18C8-49ED-8B56-CAB6C4F40872,my_iOS_device_1,1456908305.999958,40.79922251872792,-96.68586789639357,369.0453,0.73,313.9453125,4,13.18675898878264,-9999,1456908306.230286,29.28046989440918,44.50788879394531,8.20233154296875,282.8924255371094,279.6152954101562,25,11039.65986179167,0.0359039306640625,1.005325317382812,0.0598297119140625,11039.65128679167,-0.05732800457337271,-0.00963718103666974,-0.0093535543805763,11039.61627679167,2.524058488799377,2.547342367548822,-1.499459598964233,-0.0275860633701086,-0.04580140858888626,-0.007159397006034851,-0.0015155776636675,0.01937383040785789,-0.002325067529454827,XArbitraryCorrectedZVertical,0.7273365429747167,-0.02258707301069815,-0.006133728152169231,-0.6858817352615049,0.03990669175982475,0.9974566102027893,0.05905724689364433,28.29780387878418,44.14992141723633,7.689767837524414,1,11020.507618375,unknown,2,2016-03-02 02:44:47.082,2016-03-02 02:41:14.235,128,99.7117,3,4,2016-03-02 02:45:02.625,11038.89149979167,0,-2.536438,97.42982,192.168.1.101,100.78.239.175,2,1,0.37,0
2016-03-02 02:45:06.268,24,234B9614-18C8-49ED-8B56-CAB6C4F40872,my_iOS_device_1,1456908305.999958,40.79922251872792,-96.68586789639357,369.0453,0.73,313.9453125,4,13.18675898878264,-9999,1456908306.230286,29.28046989440918,44.50788879394531,8.20233154296875,282.8924255371094,279.6152954101562,25,11039.69013879167,0.0348968505859375,1.015731811523438,0.0623626708984375,11039.65128679167,-0.05732800457337271,-0.00963718103666974,-0.0093535543805763,11039.65128679167,2.527666054134047,2.549576991921904,-1.498924047078944,-0.03614776208996773,-0.03941566124558449,-0.003022596705704927,-0.002383502433076501,0.007083043456077576,-0.006961982231587172,XArbitraryCorrectedZVertical,0.7275329621530687,-0.02214863057689628,-0.006665570649831949,-0.6856827235042762,0.04007271304726601,0.9974182844161987,0.05958954617381096,28.3020133972168,44.14845657348633,7.682669639587402,1,11020.507618375,unknown,2,2016-03-02 02:44:47.082,2016-03-02 02:41:14.235,128,99.7117,3,4,2016-03-02 02:45:02.625,11038.89149979167,0,-2.536438,97.42982,192.168.1.101,100.78.239.175,2,1,0.37,0
2016-03-02 02:45:06.299,25,234B9614-18C8-49ED-8B56-CAB6C4F40872,my_iOS_device_1,1456908305.999958,40.79922251872792,-96.68586789639357,369.0453,0.73,313.9453125,4,13.18675898878264,-9999,1456908306.289843,29.38396835327148,43.91679382324219,8.0374755859375,282.876220703125,279.5990905761719,25,11039.72044379167,0.041595458984375,1.013687133789062,0.05731201171875,11039.68630279167,-0.06153633172791591,-0.006458964591769176,-0.0126135298709423,11039.68630279167,2.545197760221867,2.565729833864828,-1.497757174351189,-0.04035728052258492,-0.03623710200190544,-0.006283971946686506,-0.00429258169606328,0.01470535807311535,0.006482841446995735,XArbitraryCorrectedZVertical,0.7281063252948512,-0.02153491324997042,-0.007026479941532427,-0.6850898153939782,0.03973874822258949,0.997333824634552,0.06120514869689941,28.30009460449219,44.14655685424805,7.700644493103027,1,11020.507618375,unknown,2,2016-03-02 02:44:47.082,2016-03-02 02:41:14.235,128,99.7117,3,4,2016-03-02 02:45:02.625,11038.89149979167,0,-2.536438,97.42982,192.168.1.101,100.78.239.175,2,1,0.37,0
2016-03-02 02:45:06.328,26,234B9614-18C8-49ED-8B56-CAB6C4F40872,my_iOS_device_1,1456908305.999958,40.79922251872792,-96.68586789639357,369.0453,0.73,313.9453125,4,13.18675898878264,-9999,1456908306.289843,29.38396835327148,43.91679382324219,8.0374755859375,282.876220703125,279.5990905761719,25,11039.75073379167,0.03912353515625,1.00909423828125,0.0657958984375,11039.72131479167,-0.04030348098893217,-0.02132472979659148,-0.01016608482915948,11039.72131479167,2.55455106996465,2.573547910850474,-1.49737084985545,-0.01912309974431992,-0.05110260099172592,-0.003837292781099677,0.002129147062078118,0.01638157293200493,-0.004526723176240921,XArbitraryCorrectedZVertical,0.7283428573187989,-0.02088180174519876,-0.007458260093998902,-0.684854004080367,0.03946631029248238,0.9973055720329285,0.06183873489499092,28.28985595703125,44.15182876586914,7.708038330078125,1,11020.507618375,unknown,2,2016-03-02 02:44:47.082,2016-03-02 02:41:14.235,128,99.7117,3,4,2016-03-02 02:45:02.625,11038.89149979167,0,-2.536438,97.42982,192.168.1.101,100.78.239.175,2,1,0.37,0
2016-03-02 02:45:06.378,27,234B9614-18C8-49ED-8B56-CAB6C4F40872,my_iOS_device_1,1456908305.999958,40.79922251872792,-96.68586789639357,369.0453,0.73,313.9453125,4,13.18675898878264,-9999,1456908306.345714,29.17696952819824,44.19496154785156,7.77374267578125,282.8457641601562,279.5686340332031,25,11039.78103679167,0.0391387939453125,1.013534545898438,0.0517120361328125,11039.75632479167,-0.03716228248318371,-0.009613212586859026,-0.005863481772027459,11039.75632479167,2.55898053286714,2.576416572199924,-1.496691021938985,-0.01598271355032921,-0.0393909215927124,0.0004656896344386041,-0.0005283218924887478,0.01183877978473902,0.003271653084084392,XArbitraryCorrectedZVertical,0.7285922914607915,-0.02038125337136977,-0.008060730156620758,-0.6845968901216586,0.03965185582637787,0.9972554445266724,0.06252424418926239,28.28985595703125,44.15182876586914,7.708038330078125,1,11020.507618375,unknown,2,2016-03-02 02:44:47.082,2016-03-02 02:41:14.235,128,99.7117,3,4,2016-03-02 02:45:02.625,11038.89149979167,0,-2.536438,97.42982,192.168.1.101,100.78.239.175,2,1,0.37,0
2016-03-02 02:45:06.389,28,234B9614-18C8-49ED-8B56-CAB6C4F40872,my_iOS_device_1,1456908305.999958,40.79922251872792,-96.68586789639357,369.0453,0.73,313.9453125,4,13.18675898878264,-9999,1456908306.345714,29.17696952819824,44.19496154785156,7.77374267578125,282.8457641601562,279.5686340332031,25,11039.81133079167,0.0323028564453125,1.011459350585938,0.067291259765625,11039.79133779167,-0.02756584781119218,0.002088450926840138,-0.0067958544696642,11039.75632479167,2.55898053286714,2.576416572199924,-1.496691021938985,-0.01598271355032921,-0.0393909215927124,0.0004656896344386041,-0.0005283218924887478,0.01183877978473902,0.003271653084084392,XArbitraryCorrectedZVertical,0.7285922914607915,-0.02038125337136977,-0.008060730156620758,-0.6845968901216586,0.03965185582637787,0.9972554445266724,0.06252424418926239,28.28985595703125,44.15182876586914,7.708038330078125,1,11020.507618375,unknown,2,2016-03-02 02:44:47.082,2016-03-02 02:41:14.235,128,99.7117,3,4,2016-03-02 02:45:02.625,11038.89149979167,0,-2.536438,97.42982,192.168.1.101,100.78.239.175,2,1,0.37,0
2016-03-02 02:45:06.420,29,234B9614-18C8-49ED-8B56-CAB6C4F40872,my_iOS_device_1,1456908305.999958,40.79922251872792,-96.68586789639357,369.0453,0.73,313.9453125,4,13.18675898878264,-9999,1456908306.404599,29.24596977233887,43.986328125,7.44403076171875,282.794921875,279.5177917480469,25,11039.84162479167,0.0383148193359375,1.014663696289062,0.0562286376953125,11039.82632879167,-0.03496197879056024,0.009517871419834189,-0.01010429949186964,11039.79133779167,2.560560617009297,2.57688294770642,-1.496934114004167,-0.006392118986696005,-0.02769445814192295,-0.0004687835462391376,-0.003939974587410688,0.01153089478611946,-0.00288970023393631,XArbitraryCorrectedZVertical,0.7285411553906491,-0.01991873708713024,-0.008385104358345257,-0.6846610247704992,0.03949295356869698,0.9972734451293945,0.06233794242143631,28.30797576904297,44.14334487915039,7.690084934234619,1,11020.507618375,unknown,2,2016-03-02 02:44:47.082,2016-03-02 02:41:14.235,128,99.7117,3,4,2016-03-02 02:45:02.625,11038.89149979167,0,-2.536438,97.42982,192.168.1.101,100.78.239.175,2,1,0.37,0
2016-03-02 02:45:06.459,30,234B9614-18C8-49ED-8B56-CAB6C4F40872,my_iOS_device_1,1456908305.999958,40.79922251872792,-96.68586789639357,369.0453,0.73,313.9453125,4,13.18675898878264,-9999,1456908306.439976,28.86647033691406,44.16020202636719,7.54290771484375,282.7727355957031,279.49560546875,25,11039.87191679167,0.0401153564453125,1.008804321289062,0.067230224609375,11039.86136279167,-0.02015693365859174,0.01167343400614432,-0.003495931562947016,11039.82632879167,2.569494672040201,2.585068852738634,-1.49676991272724,-0.01378885749727488,-0.02026468142867088,-0.003779108636081219,-0.007131197955459356,0.0157849695533514,0.001166666275821626,XArbitraryCorrectedZVertical,0.7287104717870029,-0.01949710344616942,-0.008492148536771249,-0.6844916322924487,0.03906784206628799,0.9972612857818604,0.06279817968606949,28.06244087219238,43.37876129150391,7.165243148803711,1,11020.507618375,unknown,2,2016-03-02 02:44:47.082,2016-03-02 02:41:14.235,128,99.7117,3,4,2016-03-02 02:45:02.625,11038.89149979167,0,-2.536438,97.42982,192.168.1.101,100.78.239.175,2,1,0.37,0
2016-03-02 02:45:06.480,31,234B9614-18C8-49ED-8B56-CAB6C4F40872,my_iOS_device_1,1456908305.999958,40.79922251872792,-96.68586789639357,369.0453,0.73,313.9453125,4,13.18675898878264,-9999,1456908306.439976,28.86647033691406,44.16020202636719,7.54290771484375,282.7727355957031,279.49560546875,25,11039.90221279167,0.04156494140625,1.012420654296875,0.0553741455078125,11039.86136279167,-0.02015693365859174,0.01167343400614432,-0.003495931562947016,11039.86136279167,2.569796042614083,2.584674015617781,-1.4968652109588,0.00101706653367728,-0.0181089248508215,0.002828819444403052,0.002171588130295277,0.01333651877939701,-0.0005682818591594696,XArbitraryCorrectedZVertical,0.7286844874912791,-0.01923416591101703,-0.008721134210214344,-0.6845238537621204,0.0390424020588398,0.9972683191299438,0.06270206719636917,28.0521068572998,43.38511276245117,7.16722297668457,1,11020.507618375,unknown,2,2016-03-02 02:44:47.082,2016-03-02 02:41:14.235,128,99.7117,3,4,2016-03-02 02:45:02.625,11038.89149979167,0,-2.536438,97.42982,192.168.1.101,100.78.239.175,2,1,0.37,0
2016-03-02 02:45:06.515,32,234B9614-18C8-49ED-8B56-CAB6C4F40872,my_iOS_device_1,1456908305.999958,40.79922251872792,-96.68586789639357,369.0453,0.73,313.9453125,4,13.18675898878264,-9999,1456908306.492766,29.00446891784668,43.95156860351562,7.1473388671875,282.7162780761719,279.4391479492188,25,11039.93250379167,0.0454864501953125,1.007064819335938,0.0634613037109375,11039.89637879167,-0.02013509573765309,0.021241106538363,-0.004566256005049862,11039.89637879167,2.567344544189051,2.581878344206038,-1.497018479283641,0.00103943923022598,-0.008541019633412361,0.001758341561071575,-0.001538731390610337,0.01543092261999846,-0.01105628907680511,XArbitraryCorrectedZVertical,0.7286049563415743,-0.01914138057712429,-0.008871514022863186,-0.6846091741884671,0.03913638740777969,0.9972796440124512,0.06246314942836761,28.05326843261719,43.38748168945312,7.148324489593506,1,11020.507618375,unknown,2,2016-03-02 02:44:47.082,2016-03-02 02:41:14.235,128,99.7117,3,4,2016-03-02 02:45:02.625,11038.89149979167,0,-2.536438,97.42982,192.168.1.101,100.78.239.175,2,1,0.37,0
2016-03-02 02:45:06.542,33,234B9614-18C8-49ED-8B56-CAB6C4F40872,my_iOS_device_1,1456908305.999958,40.79922251872792,-96.68586789639357,369.0453,0.73,313.9453125,4,13.18675898878264,-9999,1456908306.492766,29.00446891784668,43.95156860351562,7.1473388671875,282.7162780761719,279.4391479492188,25,11039.96279679167,0.040191650390625,1.007415771484375,0.0603485107421875,11039.93137679167,-0.02439881664286995,0.02868464178513447,-0.003566239015725108,11039.93137679167,2.563153219968088,2.577561365132428,-1.496955626508396,-0.003223463660106063,-0.001097377040423453,0.002759229391813278,0.004994410090148449,0.01104102563112974,0.0005959149566479027,XArbitraryCorrectedZVertical,0.7285633542617834,-0.01920244222030424,-0.009021376106080484,-0.684649778947402,0.03943918272852898,0.9972749948501587,0.06234658882021904,28.05395889282227,43.39066314697266,7.126255512237549,1,11020.507618375,unknown,2,2016-03-02 02:44:47.082,2016-03-02 02:41:14.235,128,99.7117,3,4,2016-03-02 02:45:02.625,11038.89149979167,0,-2.536438,97.42982,192.168.1.101,100.78.239.175,2,1,0.37,0
2016-03-02 02:45:06.571,34,234B9614-18C8-49ED-8B56-CAB6C4F40872,my_iOS_device_1,1456908305.999958,40.79922251872792,-96.68586789639357,369.0453,0.73,313.9453125,4,13.18675898878264,-9999,1456908306.552345,29.21146965026855,43.67340087890625,7.14727783203125,282.6579284667969,279.3807983398438,25,11039.99309279167,0.0378875732421875,1.01318359375,0.063934326171875,11039.96637579167,-0.03499313777531417,0.02654106342372969,-0.006916229350935782,11039.96637579167,2.56247757813775,2.576801225250014,-1.49666247607894,-0.01381757482886314,-0.003240788355469704,-0.0005898053059354424,0.0005486094742082059,0.01016242709010839,-0.002215028740465641,XArbitraryCorrectedZVertical,0.7286366882491997,-0.01924438201141544,-0.009123077691179446,-0.6845692074229293,0.03964304178953171,0.9972533583641052,0.06256353855133057,28.07205200195312,43.38026428222656,7.1183180809021,1,11020.507618375,unknown,2,2016-03-02 02:44:47.082,2016-03-02 02:41:14.235,128,99.7117,3,4,2016-03-02 02:45:02.625,11038.89149979167,0,-2.536438,97.42982,192.168.1.101,100.78.239.175,2,1,0.37,0
2016-03-02 02:45:06.619,35,234B9614-18C8-49ED-8B56-CAB6C4F40872,my_iOS_device_1,1456908305.999958,40.79922251872792,-96.68586789639357,369.0453,0.73,313.9453125,4,13.18675898878264,-9999,1456908306.591304,29.31496810913086,43.49954223632812,7.0484619140625,282.62548828125,279.3483581542969,25,11040.02337079167,0.0468292236328125,1.015213012695312,0.0529327392578125,11040.00141779167,-0.03398965867657231,0.02442677983431578,-0.002637594743614477,11039.96637579167,2.56247757813775,2.576801225250014,-1.49666247607894,-0.01381757482886314,-0.003240788355469704,-0.0005898053059354424,0.0005486094742082059,0.01016242709010839,-0.002215028740465641,XArbitraryCorrectedZVertical,0.7286366882491997,-0.01924438201141544,-0.009123077691179446,-0.6845692074229293,0.03964304178953171,0.9972533583641052,0.06256353855133057,28.07205200195312,43.38026428222656,7.1183180809021,1,11020.507618375,unknown,2,2016-03-02 02:44:47.082,2016-03-02 02:41:14.235,128,99.7117,3,4,2016-03-02 02:45:02.625,11038.89149979167,0,-2.536438,97.42982,192.168.1.101,100.78.239.175,2,1,0.37,0
2016-03-02 02:45:06.632,36,234B9614-18C8-49ED-8B56-CAB6C4F40872,my_iOS_device_1,1456908305.999958,40.79922251872792,-96.68586789639357,369.0453,0.73,313.9453125,4,13.18675898878264,-9999,1456908306.591304,29.31496810913086,43.49954223632812,7.0484619140625,282.62548828125,279.3483581542969,25,11040.05366979167,0.045867919921875,1.005569458007812,0.065155029296875,11040.03642879167,-0.02552080641012033,0.009551427249569188,-0.0003755057137011726,11040.00141779167,2.565517752547692,2.579702707558763,-1.496343816332093,-0.01281370874494314,-0.00535487337037921,0.003688147524371743,-0.001743083354085684,0.0159539021551609,0.0009871048387140036,XArbitraryCorrectedZVertical,0.7287697412574405,-0.01919048951157918,-0.009167244813811539,-0.6844284849145105,0.03963065519928932,0.9972296953201294,0.06294722110033035,28.07590866088867,43.37622833251953,7.127692222595215,1,11020.507618375,unknown,2,2016-03-02 02:44:47.082,2016-03-02 02:41:14.235,128,99.7117,3,4,2016-03-02 02:45:02.625,11038.89149979167,0,-2.536438,97.42982,192.168.1.101,100.78.239.175,2,1,0.37,0
2016-03-02 02:45:06.663,37,234B9614-18C8-49ED-8B56-CAB6C4F40872,my_iOS_device_1,1456908305.999958,40.79922251872792,-96.68586789639357,369.0453,0.73,313.9453125,4,13.18675898878264,-9999,1456908306.639474,29.31496810913086,43.63864135742188,7.64178466796875,282.5807800292969,279.3036499023438,25,11040.08397379167,0.041046142578125,1.012283325195312,0.0576934814453125,11040.07143779167,-0.03608423487391963,0.009528790380303515,-0.005857622817629284,11040.03642879167,2.558521605231128,2.572059223001016,-1.49635060844104,-0.004342585802078247,-0.02023014426231384,0.005951752420514822,0.005211625713855028,0.01493105757981539,-0.009139450266957283,XArbitraryCorrectedZVertical,0.7286650238846604,-0.01912238185097449,-0.009556544380892863,-0.6845365512074484,0.04010697826743126,0.9972301721572876,0.06263676285743713,28.08609962463379,43.36903381347656,7.131325721740723,1,11020.507618375,unknown,2,2016-03-02 02:44:47.082,2016-03-02 02:41:14.235,128,99.7117,3,4,2016-03-02 02:45:02.625,11038.89149979167,0,-2.536438,97.42982,192.168.1.101,100.78.239.175,2,1,0.37,0
2016-03-02 02:45:06.701,38,234B9614-18C8-49ED-8B56-CAB6C4F40872,my_iOS_device_1,1456908305.999958,40.79922251872792,-96.68586789639357,369.0453,0.73,313.9453125,4,13.18675898878264,-9999,1456908306.698339,29.14247131347656,44.09066772460938,7.60894775390625,282.538818359375,279.2616882324219,25,11040.11425279167,0.039215087890625,1.006057739257812,0.0623931884765625,11040.10645479167,-0.04667456126472873,0.01270221313524193,-0.009210276313930038,11040.07143779167,2.556199794090194,2.569035115761475,-1.495954532842032,-0.01490589324384928,-0.02025265991687775,0.0004707826301455498,0.004457447212189436,0.007178612519055605,0.002719843992963433,XArbitraryCorrectedZVertical,0.7287401573143342,-0.01900972052441235,-0.009940193675813312,-0.6844542396630542,0.04051020368933678,0.9972006678581238,0.06284717470407486,28.11491203308105,43.35624313354492,7.095466613769531,1,11020.507618375,unknown,2,2016-03-02 02:44:47.082,2016-03-02 02:41:14.235,128,99.7117,3,4,2016-03-02 02:45:02.625,11038.89149979167,0,-2.536438,97.42982,192.168.1.101,100.78.239.175,2,1,0.37,0
2016-03-02 02:45:06.724,39,234B9614-18C8-49ED-8B56-CAB6C4F40872,my_iOS_device_1,1456908305.999958,40.79922251872792,-96.68586789639357,369.0453,0.73,313.9453125,4,13.18675898878264,-9999,1456908306.698339,29.14247131347656,44.09066772460938,7.60894775390625,282.538818359375,279.2616882324219,25,11040.14454579167,0.0363311767578125,1.010543823242188,0.069580078125,11040.10645479167,-0.04667456126472873,0.01270221313524193,-0.009210276313930038,11040.10645479167,2.561139736736711,2.573279251616,-1.49564003248967,-0.02549465000629425,-0.01707906648516655,-0.002882223110646009,-0.004965733271092176,0.009643583558499813,-0.003331073559820652,XArbitraryCorrectedZVertical,0.7288970431547572,-0.01872240419155152,-0.01014458361743791,-0.6842920863817936,0.04041190072894096,0.9971771240234375,0.06328285485506058,28.12393188476562,43.35044097900391,7.095179557800293,1,11020.507618375,unknown,2,2016-03-02 02:44:47.082,2016-03-02 02:41:14.235,128,99.7117,3,4,2016-03-02 02:45:02.625,11038.89149979167,0,-2.536438,97.42982,192.168.1.101,100.78.239.175,2,1,0.37,0
2016-03-02 02:45:06.779,40,234B9614-18C8-49ED-8B56-CAB6C4F40872,my_iOS_device_1,1456908305.999958,40.79922251872792,-96.68586789639357,369.0453,0.73,313.9453125,4,13.18675898878264,-9999,1456908306.756668,28.96997261047363,44.12541198730469,7.3780517578125,282.4932250976562,279.2160949707031,25,11040.17483979167,0.0404052734375,1.0140380859375,0.0753631591796875,11040.17647579167,-0.0467342160731465,0.03079466431680425,-0.003891677300932791,11040.14146479167,2.571758257584571,2.58358758282252,-1.494850313400786,-0.03612325340509415,-0.006452848669141531,-0.003042967058718204,-0.002439397852867842,0.009108098223805428,0.001599661656655371,XArbitraryCorrectedZVertical,0.7292727642561864,-0.01852773743942359,-0.01016922001852653,-0.6838965895687086,0.04017438367009163,0.9971174597740173,0.06436408311128616,28.11924171447754,43.35176086425781,7.105677604675293,1,11020.507618375,unknown,2,2016-03-02 02:44:47.082,2016-03-02 02:41:14.235,128,99.7117,3,4,2016-03-02 02:45:02.625,11038.89149979167,0,-2.536438,97.42982,192.168.1.101,100.78.239.175,2,1,0.37,0
2016-03-02 02:45:06.795,41,234B9614-18C8-49ED-8B56-CAB6C4F40872,my_iOS_device_1,1456908305.999958,40.79922251872792,-96.68586789639357,369.0453,0.73,313.9453125,4,13.18675898878264,-9999,1456908306.756668,28.96997261047363,44.12541198730469,7.3780517578125,282.4932250976562,279.2160949707031,25,11040.20513879167,0.0404205322265625,1.011154174804688,0.0739898681640625,11040.17647579167,-0.0467342160731465,0.03079466431680425,-0.003891677300932791,11040.17647579167,2.583756579133107,2.595445381893215,-1.493644564099117,-0.02555668540298939,0.00101394287776202,0.002434346592053771,0.0003724822599906474,0.01701280660927296,0.009499898180365562,XArbitraryCorrectedZVertical,0.729788993693234,-0.01842973692952132,-0.01017070122880554,-0.6833483199053163,0.04003279283642769,0.9970252513885498,0.06586325913667679,28.1049690246582,43.35148620605469,7.16362190246582,1,11040.20430579167,stationary,1,2016-03-02 02:45:06.791,2016-03-02 02:41:14.235,128,99.7117,3,4,2016-03-02 02:45:02.625,11040.20412179167,0,-2.581573,97.43034,192.168.1.101,100.78.239.175,2,1,0.37,0
2016-03-02 02:45:06.814,42,234B9614-18C8-49ED-8B56-CAB6C4F40872,my_iOS_device_1,1456908305.999958,40.79922251872792,-96.68586789639357,369.0453,0.73,313.9453125,4,13.18675898878264,-9999,1456908306.795927,28.90097236633301,44.47312927246094,7.50994873046875,282.4700927734375,279.1929626464844,25,11040.23542779167,0.0426788330078125,1.004653930664062,0.0820159912109375,11040.21147279167,-0.04455734819811574,0.03823127534474152,-0.007061105314236092,11040.21147279167,2.59185161107748,2.603754441504435,-1.492598246401127,-0.02338213287293911,0.008450806140899658,-0.0007351870881393552,0.0004019863845314831,0.01421008724719286,0.0069003626704216,XArbitraryCorrectedZVertical,0.7302070228702553,-0.01850558152144208,-0.01009549159249513,-0.6829006723184535,0.04001854732632637,0.9969440698623657,0.0670895054936409,28.10518264770508,43.34525299072266,7.200374603271484,1,11040.20430579167,stationary,1,2016-03-02 02:45:06.791,2016-03-02 02:41:14.235,128,99.7117,3,4,2016-03-02 02:45:02.625,11040.20412179167,0,-2.581573,97.43034,192.168.1.101,100.78.239.175,2,1,0.37,0
2016-03-02 02:45:06.859,43,234B9614-18C8-49ED-8B56-CAB6C4F40872,my_iOS_device_1,1456908305.999958,40.79922251872792,-96.68586789639357,369.0453,0.73,313.9453125,4,13.18675898878264,-9999,1456908306.844998,29.00447082519531,44.09066772460938,7.6087646484375,282.4244384765625,279.1473083496094,25,11040.26572479167,0.0441131591796875,1.01214599609375,0.0739288330078125,11040.24647479167,-0.050985686437349,0.03504506941657071,-0.003955593167094693,11040.21147279167,2.59185161107748,2.603754441504435,-1.492598246401127,-0.02338213287293911,0.008450806140899658,-0.0007351870881393552,0.0004019863845314831,0.01421008724719286,0.0069003626704216,XArbitraryCorrectedZVertical,0.7302070228702553,-0.01850558152144208,-0.01009549159249513,-0.6829006723184535,0.04001854732632637,0.9969440698623657,0.0670895054936409,28.10518264770508,43.34525299072266,7.200374603271484,1,11040.20430579167,stationary,1,2016-03-02 02:45:06.791,2016-03-02 02:41:14.235,128,99.7117,3,4,2016-03-02 02:45:02.625,11040.20412179167,0,-2.581573,97.43034,192.168.1.101,100.78.239.175,2,1,0.37,0
2016-03-02 02:45:06.874,44,234B9614-18C8-49ED-8B56-CAB6C4F40872,my_iOS_device_1,1456908305.999958,40.79922251872792,-96.68586789639357,369.0453,0.73,313.9453125,4,13.18675898878264,-9999,1456908306.844998,29.00447082519531,44.09066772460938,7.6087646484375,282.4244384765625,279.1473083496094,25,11040.29600979167,0.043182373046875,1.012161254882812,0.068878173828125,11040.28149979167,-0.04032372101321677,0.02973019882909958,-0.005929528167061424,11040.24647479167,2.600531281982972,2.612611710061439,-1.491155861290703,-0.02981423959136009,0.005264901556074619,0.002371159149333835,0.003400190267711878,0.009471505880355835,0.01432512141764164,XArbitraryCorrectedZVertical,0.7307493680601029,-0.01862005738581328,-0.01008472821417119,-0.6823173402453833,0.04014839231967926,0.9968303442001343,0.06868269294500351,28.10605812072754,43.32637023925781,7.309797286987305,1,11040.20430579167,stationary,1,2016-03-02 02:45:06.791,2016-03-02 02:41:14.235,128,99.7117,3,4,2016-03-02 02:45:02.625,11040.20412179167,0,-2.581573,97.43034,192.168.1.101,100.78.239.175,2,1,0.37,0
2016-03-02 02:45:06.904,45,234B9614-18C8-49ED-8B56-CAB6C4F40872,my_iOS_device_1,1456908305.999958,40.79922251872792,-96.68586789639357,369.0453,0.73,313.9453125,4,13.18675898878264,-9999,1456908306.844998,29.00447082519531,44.09066772460938,7.6087646484375,282.4244384765625,279.1473083496094,25,11040.32631379167,0.0484771728515625,1.009765625,0.07470703125,11040.31653079167,-0.04034475998582839,0.02122592652014954,-0.004859736357176594,11040.28149979167,2.606527598264946,2.618785926514111,-1.490161297290415,-0.01915356889367104,-4.978596916771494e-05,0.0003976704610977322,0.0009343790006823838,0.01525790989398956,-0.000253909092862159,XArbitraryCorrectedZVertical,0.7311251248809036,-0.01871248758599623,-0.01005163871011968,-0.6819126477309583,0.04021857678890228,0.9967507719993591,0.06978821009397507,28.10948944091797,43.31606292724609,7.357539176940918,1,11040.20430579167,stationary,1,2016-03-02 02:45:06.791,2016-03-02 02:41:14.235,128,99.7117,3,4,2016-03-02 02:45:02.625,11040.20412179167,0,-2.581573,97.43034,192.168.1.101,100.78.239.175,2,1,0.37,0
2016-03-02 02:45:06.938,46,234B9614-18C8-49ED-8B56-CAB6C4F40872,my_iOS_device_1,1456908305.999958,40.79922251872792,-96.68586789639357,369.0453,0.73,313.9453125,4,13.18675898878264,-9999,1456908306.906225,28.90097236633301,44.055908203125,7.37799072265625,282.3735046386719,279.0963745117188,25,11040.35661779167,0.0427703857421875,1.012893676757812,0.07421875,11040.35154379167,-0.04773183621749019,0.02120861597306403,-0.009229983705996623,11040.31653079167,2.606827610788665,2.618845918145882,-1.48954095393308,-0.01917434670031071,-0.008553941734135151,0.001468696049414575,0.006641828920692205,0.0123936403542757,0.00146624178159982,XArbitraryCorrectedZVertical,0.7313085712862279,-0.01873376490213861,-0.01024260203382914,-0.6817124824436191,0.04052308946847916,0.9967005848884583,0.07032635807991028,28.114990234375,43.30644989013672,7.392999649047852,1,11040.20430579167,stationary,1,2016-03-02 02:45:06.791,2016-03-02 02:41:14.235,128,99.7117,3,4,2016-03-02 02:45:02.625,11040.20412179167,0,-2.581573,97.43034,192.168.1.101,100.78.239.175,2,1,0.37,0
2016-03-02 02:45:06.965,47,234B9614-18C8-49ED-8B56-CAB6C4F40872,my_iOS_device_1,1456908305.999958,40.79922251872792,-96.68586789639357,369.0453,0.73,313.9453125,4,13.18675898878264,-9999,1456908306.963321,28.86647033691406,43.81248474121094,7.41094970703125,282.319091796875,279.0419616699219,25,11040.38691779167,0.0408172607421875,1.010940551757812,0.080047607421875,11040.35154379167,-0.04773183621749019,0.02120861597306403,-0.009229983705996623,11040.35154379167,2.610821301269405,2.622553421699966,-1.488717168882125,-0.02656193636357784,-0.008571138605475426,-0.002900560386478901,0.002131554996594787,0.01261342968791723,-0.0005408286233432591,XArbitraryCorrectedZVertical,0.7316047174307957,-0.01868283738090609,-0.01039400816426622,-0.6813937581271666,0.04066934809088707,0.9966334104537964,0.0711890235543251,28.13234710693359,43.29010391235352,7.422661781311035,1,11040.20430579167,stationary,1,2016-03-02 02:45:06.791,2016-03-02 02:41:14.235,128,99.7117,3,4,2016-03-02 02:45:02.625,11040.20412179167,0,-2.581573,97.43034,192.168.1.101,100.78.239.175,2,1,0.37,0
2016-03-02 02:45:07.018,48,234B9614-18C8-49ED-8B56-CAB6C4F40872,my_iOS_device_1,1456908305.999958,40.79922251872792,-96.68586789639357,369.0453,0.73,313.9453125,4,13.18675898878264,-9999,1456908306.963321,28.86647033691406,43.81248474121094,7.41094970703125,282.319091796875,279.0419616699219,25,11040.41719579167,0.0423126220703125,1.0084228515625,0.0756988525390625,11040.38655179167,-0.03605254325694768,0.01271313209571126,-0.007990282218564739,11040.38655179167,2.616206621701591,2.627461360035003,-1.487941481908658,-0.01488389540463686,-0.01706637442111969,-0.001660701702348888,1.081073423847556e-05,0.01359285321086645,0.007315343245863914,XArbitraryCorrectedZVertical,0.7319066999742395,-0.01852083257926278,-0.01056940091688684,-0.6810711042597727,0.04069963842630386,0.9965695142745972,0.07206087559461594,28.13243675231934,43.287109375,7.439752578735352,1,11040.20430579167,stationary,1,2016-03-02 02:45:06.791,2016-03-02 02:41:14.235,128,99.7117,3,4,2016-03-02 02:45:02.625,11040.20412179167,0,-2.581573,97.43034,192.168.1.101,100.78.239.175,2,1,0.37,0
2016-03-02 02:45:07.025,49,234B9614-18C8-49ED-8B56-CAB6C4F40872,my_iOS_device_1,1456908305.999958,40.79922251872792,-96.68586789639357,369.0453,0.73,313.9453125,4,13.18675898878264,-9999,1456908307.023306,29.7979679107666,44.19496154785156,7.5758056640625,282.2609558105469,278.9838256835938,25,11040.44749879167,0.037261962890625,1.0067138671875,0.078887939453125,11040.42155579167,-0.03077815271804575,0.01272591526894364,-0.00471645829053033,11040.42155579167,2.619346689765141,2.629954773279423,-1.487331930447555,-0.009611169807612896,-0.01705332845449448,0.001613607746548951,0.001495378674007952,0.01190398260951042,0.003007060382515192,XArbitraryCorrectedZVertical,0.732127046815623,-0.01832712232957433,-0.01083264055739971,-0.6808353382475713,0.04081724211573601,0.9965188503265381,0.07269179075956345,28.13575553894043,43.28249359130859,7.454036712646484,1,11040.20430579167,stationary,1,2016-03-02 02:45:06.791,2016-03-02 02:41:14.235,128,99.7117,3,4,2016-03-02 02:45:02.625,11040.20412179167,0,-2.581573,97.43034,192.168.1.101,100.78.239.175,2,1,0.37,0
2016-03-02 02:45:07.056,50,234B9614-18C8-49ED-8B56-CAB6C4F40872,my_iOS_device_1,1456908305.999958,40.79922251872792,-96.68586789639357,369.0453,0.73,313.9453125,4,13.18675898878264,-9999,1456908307.023306,29.7979679107666,44.19496154785156,7.5758056640625,282.2609558105469,278.9838256835938,25,11040.47779679167,0.0348663330078125,1.013351440429688,0.080078125,11040.45655479167,-0.04031866100714562,0.01696646667267681,-0.006988667332585937,11040.42155579167,2.619346689765141,2.629954773279423,-1.487331930447555,-0.009611169807612896,-0.01705332845449448,0.001613607746548951,0.001495378674007952,0.01190398260951042,0.003007060382515192,XArbitraryCorrectedZVertical,0.732127046815623,-0.01832712232957433,-0.01083264055739971,-0.6808353382475713,0.04081724211573601,0.9965188503265381,0.07269179075956345,28.13575553894043,43.28249359130859,7.454036712646484,1,11040.20430579167,stationary,1,2016-03-02 02:45:06.791,2016-03-02 02:41:14.235,128,99.7117,3,4,2016-03-02 02:45:02.625,11040.20412179167,0,-2.581573,97.43034,192.168.1.101,100.78.239.175,2,1,0.37,0
2016-03-02 02:45:07.102,51,234B9614-18C8-49ED-8B56-CAB6C4F40872,my_iOS_device_1,1456908306.999958,40.79923274464979,-96.68587359608773,369.1355,0.73,317.4609375,4,12.31902438511201,-9999,1456908307.080729,29.79796600341797,44.19496154785156,8.037353515625,282.2216186523438,278.9444885253906,25,11040.50807679167,0.0412750244140625,1.010116577148438,0.08251953125,11040.49158379167,-0.03604215692869638,0.02653733499820358,-0.007997206437398945,11040.49158379167,2.635146739725243,2.645113945344928,-1.486162808998722,-0.01487835962325335,-0.003241094993427396,-0.001670030644163489,-0.003522408660501242,0.01307024527341127,0.01312160864472389,XArbitraryCorrectedZVertical,0.7326955910818566,-0.01790045658417641,-0.01085891645378841,-0.680234392247787,0.04026557132601738,0.9964207410812378,0.07432650774717331,28.13142204284668,43.27638244628906,7.505709648132324,1,11040.20430579167,stationary,1,2016-03-02 02:45:06.791,2016-03-02 02:41:14.235,128,99.7117,3,4,2016-03-02 02:45:02.625,11040.20412179167,0,-2.581573,97.43034,192.168.1.101,100.78.239.175,2,1,0.37,0
2016-03-02 02:45:07.116,52,234B9614-18C8-49ED-8B56-CAB6C4F40872,my_iOS_device_1,1456908306.999958,40.79923274464979,-96.68587359608773,369.1355,0.73,317.4609375,4,12.31902438511201,-9999,1456908307.080729,29.79796600341797,44.19496154785156,8.037353515625,282.2216186523438,278.9444885253906,25,11040.53838179167,0.0393829345703125,1.006591796875,0.0715484619140625,11040.52659679167,-0.02536581043467772,0.04036366842956796,-0.009980728817289961,11040.49158379167,2.635146739725243,2.645113945344928,-1.486162808998722,-0.01487835962325335,-0.003241094993427396,-0.001670030644163489,-0.003522408660501242,0.01307024527341127,0.01312160864472389,XArbitraryCorrectedZVertical,0.7326955910818566,-0.01790045658417641,-0.01085891645378841,-0.680234392247787,0.04026557132601738,0.9964207410812378,0.07432650774717331,28.13142204284668,43.27638244628906,7.505709648132324,1,11040.53120979167,unknown,1,2016-03-02 02:45:07.114,2016-03-02 02:41:14.235,128,99.7117,3,4,2016-03-02 02:45:02.625,11040.20412179167,0,-2.581573,97.43034,192.168.1.101,100.78.239.175,2,1,0.37,0
2016-03-02 02:45:07.147,53,234B9614-18C8-49ED-8B56-CAB6C4F40872,my_iOS_device_1,1456908306.999958,40.79923274464979,-96.68587359608773,369.1355,0.73,317.4609375,4,12.31902438511201,-9999,1456908307.139457,29.62546539306641,44.16020202636719,8.333984375,282.1911010742188,278.9139709472656,25,11040.56867479167,0.0425262451171875,1.01263427734375,0.0830078125,11040.52659679167,-0.02536581043467772,0.04036366842956796,-0.009980728817289961,11040.52659679167,2.640511814532239,2.650601211492231,-1.485604462888773,-0.00420432910323143,0.010585549287498,-0.003654033411294222,-0.003101608948782086,0.01365165691822767,0.006078771315515041,XArbitraryCorrectedZVertical,0.7329380929314324,-0.01789490253636315,-0.0107671230494605,-0.6799747005988279,0.04011943191289902,0.9963733553886414,0.07503695040941238,28.1214542388916,43.278564453125,7.530452251434326,1,11040.53120979167,unknown,1,2016-03-02 02:45:07.114,2016-03-02 02:41:14.235,128,99.7117,3,4,2016-03-02 02:45:02.625,11040.20412179167,0,-2.581573,97.43034,192.168.1.101,100.78.239.175,2,1,0.37,0
2016-03-02 02:45:07.178,54,234B9614-18C8-49ED-8B56-CAB6C4F40872,my_iOS_device_1,1456908306.999958,40.79923274464979,-96.68587359608773,369.1355,0.73,317.4609375,4,12.31902438511201,-9999,1456908307.139457,29.62546539306641,44.16020202636719,8.333984375,282.1911010742188,278.9139709472656,25,11040.59896779167,0.0370330810546875,1.007034301757812,0.0872802734375,11040.56161679167,-0.03288950683026057,0.03399232183766239,-0.004758003603535567,11040.56161679167,2.642054059640403,2.652512140806244,-1.485491801058695,-0.01172706019133329,0.004214405547827482,0.001568579464219511,0.002543315757066011,0.01416478957980871,0.001447583897970617,XArbitraryCorrectedZVertical,0.7329954630447009,-0.01799825903978401,-0.01061003811014896,-0.6799125979997002,0.04002870619297028,0.9963637590408325,0.07521257549524307,28.11082077026367,43.27934646606445,7.565564155578613,1,11040.53120979167,unknown,1,2016-03-02 02:45:07.114,2016-03-02 02:41:14.235,128,99.7117,3,4,2016-03-02 02:45:02.625,11040.20412179167,0,-2.581573,97.43034,192.168.1.101,100.78.239.175,2,1,0.37,0
2016-03-02 02:45:07.207,55,234B9614-18C8-49ED-8B56-CAB6C4F40872,my_iOS_device_1,1456908306.999958,40.79923274464979,-96.68587359608773,369.1355,0.73,317.4609375,4,12.31902438511201,-9999,1456908307.198273,28.7974681854248,44.36882019042969,7.93841552734375,282.1606140136719,278.8834838867188,25,11040.62925979167,0.034820556640625,1.008407592773438,0.0891876220703125,11040.59662779167,-0.02752323723375091,0.03930452926404344,-0.007880027349435458,11040.59662779167,2.644837213331904,2.655480967218404,-1.484863518755472,-0.006367419846355915,0.009532050229609013,-0.001554254209622741,0.0001397372107021511,0.0120975449681282,0.01112107187509537,XArbitraryCorrectedZVertical,0.7332223038460041,-0.01809212669000417,-0.0105728377337282,-0.6796660527029625,0.04009769111871719,0.9963100552558899,0.07588454335927963,28.10786056518555,43.27946853637695,7.575864791870117,1,11040.53120979167,unknown,1,2016-03-02 02:45:07.114,2016-03-02 02:41:14.235,128,99.7117,3,4,2016-03-02 02:45:02.625,11040.20412179167,0,-2.581573,97.43034,192.168.1.101,100.78.239.175,2,1,0.37,0
