loggingTime,loggingSample,identifierForVendor,deviceID,locationTimestamp_since1970,locationLatitude,locationLongitude,locationAltitude,locationSpeed,locationCourse,locationVerticalAccuracy,locationHorizontalAccuracy,locationFloor,locationHeadingTimestamp_since1970,locationHeadingX,locationHeadingY,locationHeadingZ,locationTrueHeading,locationMagneticHeading,locationHeadingAccuracy,accelerometerTimestamp_sinceReboot,accelerometerAccelerationX,accelerometerAccelerationY,accelerometerAccelerationZ,gyroTimestamp_sinceReboot,gyroRotationX,gyroRotationY,gyroRotationZ,motionTimestamp_sinceReboot,motionYaw,motionRoll,motionPitch,motionRotationRateX,motionRotationRateY,motionRotationRateZ,motionUserAccelerationX,motionUserAccelerationY,motionUserAccelerationZ,motionAttitudeReferenceFrame,motionQuaternionX,motionQuaternionY,motionQuaternionZ,motionQuaternionW,motionGravityX,motionGravityY,motionGravityZ,motionMagneticFieldX,motionMagneticFieldY,motionMagneticFieldZ,motionMagneticFieldCalibrationAccuracy,activityTimestamp_sinceReboot,activity,activityActivityConfidence,activityActivityStartDate,pedometerStartDate,pedometerNumberofSteps,pedometerDistance,pedometerFloorAscended,pedometerFloorDescended,pedometerEndDate,altimeterTimestamp_sinceReboot,altimeterReset,altimeterRelativeAltitude,altimeterPressure,IP_en0,IP_pdp_ip0,deviceOrientation,batteryState,batteryLevel,state
2016-03-02 02:43:06.745,1,234B9614-18C8-49ED-8B56-CAB6C4F40872,my_iOS_device_1,1456908185.995615,40.79923111017867,-96.68577795857254,370.0887,0.8,296.71875,4,7.816893370535923,-9999,1456908186.724196,26.00925445556641,39.27647399902344,13.31488037109375,288.4802856445312,285.2031555175781,25,10920.15636754167,0.1036224365234375,1.006271362304688,0.1163482666015625,10920.11925854167,-0.1232692047442797,0.07646042016061096,-0.006092247309665265,10920.11925854167,2.514874879674965,2.313362445765844,-1.426148188650049,-0.1032380238175392,0.04658756405115128,0.0002234708081232384,-0.004420110955834389,0.009771927259862423,-0.002588408533483744,XArbitraryCorrectedZVertical,0.7398430134710712,0.03696072145320343,-0.104917243315853,-0.6635198509032595,0.1061962321400642,0.9895566701889038,0.09746755659580231,23.7805347442627,34.45040130615234,12.14199924468994,1,10919.70826254167,walking,0,2016-03-02 02:43:06.268,2016-03-02 02:41:14.235,40,40.52893,1,1,2016-03-02 02:43:03.720,10919.41013654167,0,-2.111908,97.42488,192.168.1.101,100.78.239.175,2,1,0.38,0
2016-03-02 02:43:06.783,2,234B9614-18C8-49ED-8B56-CAB6C4F40872,my_iOS_device_1,1456908185.995615,40.79923111017867,-96.68577795857254,370.0887,0.8,296.71875,4,7.816893370535923,-9999,1456908186.781915,26.32079696655273,38.75450134277344,13.347900390625,288.4896240234375,285.2124938964844,25,10920.18664854167,0.1233673095703125,0.997314453125,0.0998992919921875,10920.15427654167,-0.03493028717358829,0.07119801384661438,-0.009069661408373854,10920.15427654167,2.532500205907545,2.332369737654006,-1.424035176208201,-0.01490112859755754,0.04132543504238129,-0.002754327841103077,-0.000933484232518822,0.01863889582455158,0.03435817360877991,XArbitraryCorrectedZVertical,0.7410191287678801,0.03668986938849668,-0.104207497580495,-0.6623332255989698,0.1058376580476761,0.9892498850822449,0.1009109914302826,23.73388862609863,34.41816329956055,12.32332992553711,1,10919.70826254167,walking,0,2016-03-02 02:43:06.268,2016-03-02 02:41:14.235,40,40.52893,1,1,2016-03-02 02:43:03.720,10919.41013654167,0,-2.111908,97.42488,192.168.1.101,100.78.239.175,2,1,0.38,0
2016-03-02 02:43:06.803,3,234B9614-18C8-49ED-8B56-CAB6C4F40872,my_iOS_device_1,1456908185.995615,40.79923111017867,-96.68577795857254,370.0887,0.8,296.71875,4,7.816893370535923,-9999,1456908186.781915,26.32079696655273,38.75450134277344,13.347900390625,288.4896240234375,285.2124938964844,25,10920.21692654167,0.1251068115234375,0.994049072265625,0.1180267333984375,10920.18928454167,-0.06675905694167031,0.08179340024349463,-0.01486603152093132,10920.18928454167,2.53755029740685,2.339129069687393,-1.422970541273226,-0.04672994464635849,0.05192108824849129,-0.008549889549612999,0.01745689660310745,0.008220802061259747,-0.002456624060869217,XArbitraryCorrectedZVertical,0.7415364907411941,0.03607756745753323,-0.1036149283823232,-0.6618806453144598,0.105910412967205,0.9890936613082886,0.1023559123277664,23.71990966796875,34.39839172363281,12.40517139434814,1,10919.70826254167,walking,0,2016-03-02 02:43:06.268,2016-03-02 02:41:14.235,40,40.52893,1,1,2016-03-02 02:43:03.720,10919.41013654167,0,-2.111908,97.42488,192.168.1.101,100.78.239.175,2,1,0.38,0
2016-03-02 02:43:06.834,4,234B9614-18C8-49ED-8B56-CAB6C4F40872,my_iOS_device_1,1456908185.995615,40.79923111017867,-96.68577795857254,370.0887,0.8,296.71875,4,7.816893370535923,-9999,1456908186.781915,26.32079696655273,38.75450134277344,13.347900390625,288.4896240234375,285.2124938964844,25,10920.24723554167,0.1199493408203125,0.999603271484375,0.0987701416015625,10920.22430054167,-0.07528303664268693,0.08178993813407753,-0.01392407144337029,10920.22430054167,2.545441471322701,2.348690567688251,-1.420793316323954,-0.05525529384613037,0.05191804468631744,-0.007606017403304577,0.01864602603018284,0.00527844438329339,0.01315182540565729,XArbitraryCorrectedZVertical,0.7424205664729027,0.0353434103766441,-0.1031657080479559,-0.6609987764768885,0.1064607873558998,0.988770604133606,0.1048749089241028,23.70206642150879,34.37461090087891,12.50479793548584,1,10919.70826254167,walking,0,2016-03-02 02:43:06.268,2016-03-02 02:41:14.235,40,40.52893,1,1,2016-03-02 02:43:03.720,10919.41013654167,0,-2.111908,97.42488,192.168.1.101,100.78.239.175,2,1,0.38,0
2016-03-02 02:43:06.866,5,234B9614-18C8-49ED-8B56-CAB6C4F40872,my_iOS_device_1,1456908185.995615,40.79923111017867,-96.68577795857254,370.0887,0.8,296.71875,4,7.816893370535923,-9999,1456908186.840655,26.04386901855469,38.54568481445312,13.6119384765625,288.5092163085938,285.2320861816406,25,10920.27752354167,0.110870361328125,0.9971160888671875,0.1220245361328125,10920.25931454167,-0.1060340251176139,0.07217566028278248,-0.0218259367137444,10920.22430054167,2.545441471322701,2.348690567688251,-1.420793316323954,-0.05525529384613037,0.05191804468631744,-0.007606017403304577,0.01864602603018284,0.00527844438329339,0.01315182540565729,XArbitraryCorrectedZVertical,0.7424205664729027,0.0353434103766441,-0.1031657080479559,-0.6609987764768885,0.1064607873558998,0.988770604133606,0.1048749089241028,23.70206642150879,34.37461090087891,12.50479793548584,1,10919.70826254167,walking,0,2016-03-02 02:43:06.268,2016-03-02 02:41:14.235,40,40.52893,1,1,2016-03-02 02:43:03.720,10919.41013654167,0,-2.111908,97.42488,192.168.1.101,100.78.239.175,2,1,0.38,0
2016-03-02 02:43:06.895,6,234B9614-18C8-49ED-8B56-CAB6C4F40872,my_iOS_device_1,1456908185.995615,40.79923111017867,-96.68577795857254,370.0887,0.8,296.71875,4,7.816893370535923,-9999,1456908186.840655,26.04386901855469,38.54568481445312,13.6119384765625,288.5092163085938,285.2320861816406,25,10920.30781254167,0.1218414306640625,1.003829956054688,0.128265380859375,10920.29434654167,-0.09431238789573912,0.06154458752729516,-0.02378176221829859,10920.25931454167,2.554344336847542,2.359081163748791,-1.418787863336537,-0.08600594848394394,0.0423039011657238,-0.01550611387938261,0.006594320293515921,0.01085967011749744,-0.00528483372181654,XArbitraryCorrectedZVertical,0.7432914715040914,0.03476325593631496,-0.1026914426216392,-0.6601240580665522,0.1067632213234901,0.9884689450263977,0.1073813885450363,23.70722198486328,34.34573745727539,12.57416725158691,1,10919.70826254167,walking,0,2016-03-02 02:43:06.268,2016-03-02 02:41:14.235,40,40.52893,1,1,2016-03-02 02:43:03.720,10919.41013654167,0,-2.111908,97.42488,192.168.1.101,100.78.239.175,2,1,0.38,0
2016-03-02 02:43:06.942,7,234B9614-18C8-49ED-8B56-CAB6C4F40872,my_iOS_device_1,1456908185.995615,40.79923111017867,-96.68577795857254,370.0887,0.8,296.71875,4,7.816893370535923,-9999,1456908186.900499,26.0784854888916,38.928466796875,13.77691650390625,288.5418701171875,285.2647399902344,25,10920.33808954167,0.1223602294921875,0.9964141845703125,0.1233978271484375,10920.32935354167,-0.08589307042556261,0.03923422181126535,-0.01831935250643706,10920.29434654167,2.571204057589513,2.377011170167144,-1.416683481693985,-0.07428570091724396,0.03167325258255005,-0.01746146567165852,0.008531357161700726,0.008342377841472626,0.01771504990756512,XArbitraryCorrectedZVertical,0.7444386358478998,0.03465145804071319,-0.1020411640097895,-0.6589370188114154,0.1062605157494545,0.9881480932235718,0.1107792109251022,23.69201850891113,34.27692413330078,12.78876686096191,1,10919.70826254167,walking,0,2016-03-02 02:43:06.268,2016-03-02 02:41:14.235,40,40.52893,1,1,2016-03-02 02:43:03.720,10919.41013654167,0,-2.111908,97.42488,192.168.1.101,100.78.239.175,2,1,0.38,0
2016-03-02 02:43:06.956,8,234B9614-18C8-49ED-8B56-CAB6C4F40872,my_iOS_device_1,1456908185.995615,40.79923111017867,-96.68577795857254,370.0887,0.8,296.71875,4,7.816893370535923,-9999,1456908186.900499,26.0784854888916,38.928466796875,13.77691650390625,288.5418701171875,285.2647399902344,25,10920.36837254167,0.1175384521484375,0.999176025390625,0.12158203125,10920.36437354167,-0.0933272846085188,0.03497209880270254,-0.01949087706996292,10920.32935354167,2.584476730876327,2.390772685538425,-1.413664196482761,-0.06586907804012299,0.009363496676087379,-0.01199655327945948,0.01833056472241879,0.01296074222773314,0.01397565752267838,XArbitraryCorrectedZVertical,0.745668936845889,0.03440542659093091,-0.1019281287761023,-0.6575749081347291,0.1067609861493111,0.9876801371574402,0.1144117936491966,23.67642974853516,34.22401428222656,12.95821189880371,1,10919.70826254167,walking,0,2016-03-02 02:43:06.268,2016-03-02 02:41:14.235,40,40.52893,1,1,2016-03-02 02:43:03.720,10919.41013654167,0,-2.111908,97.42488,192.168.1.101,100.78.239.175,2,1,0.38,0
2016-03-02 02:43:06.986,9,234B9614-18C8-49ED-8B56-CAB6C4F40872,my_iOS_device_1,1456908185.995615,40.79923111017867,-96.68577795857254,370.0887,0.8,296.71875,4,7.816893370535923,-9999,1456908186.957825,26.0784854888916,39.4156494140625,14.3709716796875,288.6413879394531,285.3642578125,25,10920.39866854167,0.118927001953125,1.0140380859375,0.12799072265625,10920.36437354167,-0.0933272846085188,0.03497209880270254,-0.01949087706996292,10920.36437354167,2.592604509197236,2.398910544677456,-1.411710497287004,-0.07330358028411865,0.005101393908262253,-0.01316621154546738,0.01551900990307331,0.009178998880088329,-0.001372128841467202,XArbitraryCorrectedZVertical,0.7464380002074282,0.03434152204905987,-0.1019744110906847,-0.6566979451714273,0.1071311384439468,0.9873725175857544,0.1166980564594269,23.68657302856445,34.19126510620117,13.02595996856689,1,10919.70826254167,walking,0,2016-03-02 02:43:06.268,2016-03-02 02:41:14.235,40,40.52893,1,1,2016-03-02 02:43:03.720,10919.41013654167,0,-2.111908,97.42488,192.168.1.101,100.78.239.175,2,1,0.38,0
2016-03-02 02:43:07.023,10,234B9614-18C8-49ED-8B56-CAB6C4F40872,my_iOS_device_1,1456908185.995615,40.79923111017867,-96.68577795857254,370.0887,0.8,296.71875,4,7.816893370535923,-9999,1456908187.018707,25.94001960754395,39.69403076171875,14.50299072265625,288.7581481933594,285.4810180664062,25,10920.42896054167,0.1150970458984375,1.00970458984375,0.129150390625,10920.39938454167,-0.06354275729318161,0.01797713630636188,-0.0201153883455865,10920.39938454167,2.602955913034043,2.409060599578555,-1.409892285385518,-0.04352021217346191,-0.0118931969627738,-0.01378955226391554,0.01178544759750366,0.02695523574948311,0.008876764215528965,XArbitraryCorrectedZVertical,0.7472399364420189,0.0344885011881117,-0.1019587463532067,-0.655780020063119,0.1071415543556213,0.987082839012146,0.1191139593720436,23.70073127746582,34.14419555664062,13.12331199645996,1,10919.70826254167,walking,0,2016-03-02 02:43:06.268,2016-03-02 02:41:14.235,40,40.52893,1,1,2016-03-02 02:43:03.720,10919.41013654167,0,-2.111908,97.42488,192.168.1.101,100.78.239.175,2,1,0.38,0
2016-03-02 02:43:07.046,11,234B9614-18C8-49ED-8B56-CAB6C4F40872,my_iOS_device_1,1456908185.995615,40.79923111017867,-96.68577795857254,370.0887,0.8,296.71875,4,7.816893370535923,-9999,1456908187.018707,25.94001960754395,39.69403076171875,14.50299072265625,288.7581481933594,285.4810180664062,25,10920.45925054167,0.1218719482421875,0.9983978271484375,0.1298370361328125,10920.43439454167,-0.02853603739630805,0.009513876678199071,-0.01320821374235699,10920.43439454167,2.607644944157015,2.412983963088126,-1.408999740188519,-0.008514404296875,-0.02035621553659439,-0.00688118627294898,0.007837075740098953,0.02276512794196606,0.008959715254604816,XArbitraryCorrectedZVertical,0.7475872189885251,0.03476618910693296,-0.1022132293913433,-0.6553297779266206,0.1072599664330482,0.9869394898414612,0.1201906725764275,23.6978816986084,34.12882232666016,13.16835975646973,1,10919.70826254167,walking,0,2016-03-02 02:43:06.268,2016-03-02 02:41:14.235,40,40.52893,1,1,2016-03-02 02:43:03.720,10919.41013654167,0,-2.111908,97.42488,192.168.1.101,100.78.239.175,2,1,0.38,0
2016-03-02 02:43:07.106,12,234B9614-18C8-49ED-8B56-CAB6C4F40872,my_iOS_device_1,1456908186.995615,40.79923165500238,-96.68578282007638,370.0332,0.41,306.2109375,4,12.51905780375387,-9999,1456908187.078991,26.25156211853027,38.89364624023438,14.60198974609375,288.8482360839844,285.5711059570312,25,10920.48954554167,0.117095947265625,1.000411987304688,0.130218505859375,10920.46941154167,-0.005287440028243319,0.002116946750503986,-0.002209358440329736,10920.46941154167,2.604442518762588,2.408882804999506,-1.408318457366661,0.01473264116793871,-0.027752835303545,0.004119879566133022,0.01106098387390375,0.009966171346604824,0.00890081562101841,XArbitraryCorrectedZVertical,0.7476067907824651,0.03476886676480769,-0.1028371531336127,-0.6552096856848083,0.1082017123699188,0.9868294596672058,0.1202495768666267,23.7121696472168,34.10634994506836,13.20082855224609,1,10919.70826254167,walking,0,2016-03-02 02:43:06.268,2016-03-02 02:41:14.235,40,40.52893,1,1,2016-03-02 02:43:03.720,10919.41013654167,0,-2.111908,97.42488,192.168.1.101,100.78.239.175,2,1,0.38,0
2016-03-02 02:43:07.107,13,234B9614-18C8-49ED-8B56-CAB6C4F40872,my_iOS_device_1,1456908186.995615,40.79923165500238,-96.68578282007638,370.0332,0.41,306.2109375,4,12.51905780375387,-9999,1456908187.078991,26.25156211853027,38.89364624023438,14.60198974609375,288.8482360839844,285.5711059570312,25,10920.51984454167,0.115264892578125,1.00225830078125,0.130767822265625,10920.50441654167,0.007531153246635077,-0.003202184894711276,-0.006283462275932955,10920.46941154167,2.604442518762588,2.408882804999506,-1.408318457366661,0.01473264116793871,-0.027752835303545,0.004119879566133022,0.01106098387390375,0.009966171346604824,0.00890081562101841,XArbitraryCorrectedZVertical,0.7476067907824651,0.03476886676480769,-0.1028371531336127,-0.6552096856848083,0.1082017123699188,0.9868294596672058,0.1202495768666267,23.7121696472168,34.10634994506836,13.20082855224609,1,10919.70826254167,walking,0,2016-03-02 02:43:06.268,2016-03-02 02:41:14.235,40,40.52893,1,1,2016-03-02 02:43:03.720,10919.41013654167,0,-2.111908,97.42488,192.168.1.101,100.78.239.175,2,1,0.38,0
2016-03-02 02:43:07.137,14,234B9614-18C8-49ED-8B56-CAB6C4F40872,my_iOS_device_1,1456908186.995615,40.79923165500238,-96.68578282007638,370.0332,0.41,306.2109375,4,12.51905780375387,-9999,1456908187.135807,26.39002799987793,38.61526489257812,14.33795166015625,288.8983154296875,285.6211853027344,25,10920.55011754167,0.119171142578125,1.00360107421875,0.133209228515625,10920.53943254167,0.009634251559470652,-0.01595846020008182,-0.005180647268531142,10920.50441654167,2.601213530234483,2.404760341159586,-1.408230908793496,0.02754964679479599,-0.03307151049375534,4.684121449827217e-05,0.004831857979297638,0.01490892563015223,0.01163376308977604,XArbitraryCorrectedZVertical,0.7474728425823394,0.03489398650310151,-0.1033382177909152,-0.6552770193220373,0.1087545678019524,0.986815333366394,0.1198664829134941,23.77491760253906,34.07768249511719,13.16194534301758,1,10919.70826254167,walking,0,2016-03-02 02:43:06.268,2016-03-02 02:41:14.235,40,40.52893,1,1,2016-03-02 02:43:03.720,10919.41013654167,0,-2.111908,97.42488,192.168.1.101,100.78.239.175,2,1,0.38,0
2016-03-02 02:43:07.184,15,234B9614-18C8-49ED-8B56-CAB6C4F40872,my_iOS_device_1,1456908186.995615,40.79923165500238,-96.68578282007638,370.0332,0.41,306.2109375,4,12.51905780375387,-9999,1456908187.135807,26.39002799987793,38.61526489257812,14.33795166015625,288.8983154296875,285.6211853027344,25,10920.58042154167,0.1195220947265625,0.9939727783203125,0.1268157958984375,10920.57444954167,0.01487295573976552,-0.02444701985860038,0.0002284992215287987,10920.53943254167,2.598458216835479,2.400687267836466,-1.408385355472988,0.02965110912919044,-0.04582727327942848,0.00115022121462971,0.007438130676746368,0.01816458068788052,0.01345665939152241,XArbitraryCorrectedZVertical,0.7472708632330552,0.03523193392203548,-0.1039253590638546,-0.6553964354026229,0.1091390177607536,0.9868403077125549,0.1193100661039352,23.78617095947266,34.07807922363281,13.14057731628418,1,10919.70826254167,walking,0,2016-03-02 02:43:06.268,2016-03-02 02:41:14.235,40,40.52893,1,1,2016-03-02 02:43:03.720,10919.41013654167,0,-2.111908,97.42488,192.168.1.101,100.78.239.175,2,1,0.38,0
2016-03-02 02:43:07.196,16,234B9614-18C8-49ED-8B56-CAB6C4F40872,my_iOS_device_1,1456908186.995615,40.79923165500238,-96.68578282007638,370.0332,0.41,306.2109375,4,12.51905780375387,-9999,1456908187.195208,26.45925903320312,38.75447082519531,14.20599365234375,288.9291076660156,285.6519775390625,25,10920.61069454167,0.116180419921875,0.9954681396484375,0.1258697509765625,10920.57444954167,0.01487295573976552,-0.02444701985860038,0.0002284992215287987,10920.57444954167,2.593777587394382,2.39429450902797,-1.408291760308072,0.03488743305206299,-0.05431525781750679,0.006560821086168289,0.007118410430848598,0.01016885414719582,0.01039641443639994,XArbitraryCorrectedZVertical,0.7470438053781657,0.03555831949616352,-0.104799161569281,-0.6554985083850855,0.1099622771143913,0.986825168132782,0.1186776831746101,23.82526016235352,34.0714111328125,13.0869255065918,1,10919.70826254167,walking,0,2016-03-02 02:43:06.268,2016-03-02 02:41:14.235,40,40.52893,1,1,2016-03-02 02:43:03.720,10919.41013654167,0,-2.111908,97.42488,192.168.1.101,100.78.239.175,2,1,0.38,0
2016-03-02 02:43:07.227,17,234B9614-18C8-49ED-8B56-CAB6C4F40872,my_iOS_device_1,1456908186.995615,40.79923165500238,-96.68578282007638,370.0332,0.41,306.2109375,4,12.51905780375387,-9999,1456908187.195208,26.45925903320312,38.75447082519531,14.20599365234375,288.9291076660156,285.6519775390625,25,10920.64099954167,0.115447998046875,1.0001220703125,0.121002197265625,10920.60946054167,-0.006366020269725411,-0.0372325899359618,-0.003270628134726312,10920.60946054167,2.590139603310104,2.388524272743882,-1.408118005651573,0.01364678516983986,-0.06710051745176315,0.003063146257773042,0.008729075081646442,0.009464559145271778,0.0118385823443532,XArbitraryCorrectedZVertical,0.7468489192995059,0.03605332032568103,-0.1057983635763162,-0.655533032042784,0.1107624992728233,0.986797034740448,0.1181662976741791,23.85054016113281,34.06852722167969,13.04833889007568,1,10919.70826254167,walking,0,2016-03-02 02:43:06.268,2016-03-02 02:41:14.235,40,40.52893,1,1,2016-03-02 02:43:03.720,10919.41013654167,0,-2.111908,97.42488,192.168.1.101,100.78.239.175,2,1,0.38,0
2016-03-02 02:43:07.262,18,234B9614-18C8-49ED-8B56-CAB6C4F40872,my_iOS_device_1,1456908186.995615,40.79923165500238,-96.68578282007638,370.0332,0.41,306.2109375,4,12.51905780375387,-9999,1456908187.251883,26.70157241821289,38.85888671875,13.64495849609375,288.9257507324219,285.6486206054688,25,10920.67128754167,0.10870361328125,0.9998321533203125,0.12738037109375,10920.64446354167,-0.0169693961498759,-0.03192943725728701,-0.005558816143322394,10920.64446354167,2.588062954437197,2.384210155708664,-1.407993663587268,0.003042518859729171,-0.06179707124829292,0.0007756299455650151,0.004092447925359011,0.01334517914801836,0.00322567974217236,XArbitraryCorrectedZVertical,0.7466886508196081,0.0366649352817006,-0.1067548248588074,-0.6555266193125385,0.1113555505871773,0.9867768883705139,0.117776520550251,23.90536880493164,34.05614852905273,12.98014068603516,1,10919.70826254167,walking,0,2016-03-02 02:43:06.268,2016-03-02 02:41:14.235,40,40.52893,1,1,2016-03-02 02:43:03.720,10919.41013654167,0,-2.111908,97.42488,192.168.1.101,100.78.239.175,2,1,0.38,0
2016-03-02 02:43:07.287,19,234B9614-18C8-49ED-8B56-CAB6C4F40872,my_iOS_device_1,1456908186.995615,40.79923165500238,-96.68578282007638,370.0332,0.41,306.2109375,4,12.51905780375387,-9999,1456908187.251883,26.70157241821289,38.85888671875,13.64495849609375,288.9257507324219,285.6486206054688,25,10920.70157754167,0.104827880859375,1.002853393554688,0.1201324462890625,10920.67947854167,-0.02012311151274773,-0.02130369082397986,-0.007741542972751338,10920.67947854167,2.589755763870295,2.383935691288567,-1.407806674733551,-0.0001122789617511444,-0.05117081105709076,-0.001407442265190184,-0.002811059588566422,0.01308558695018291,0.009500381536781788,XArbitraryCorrectedZVertical,0.7466895316283354,0.03734619179450055,-0.1074516643839447,-0.6553732868649779,0.1115146726369858,0.9867465496063232,0.1178799867630005,23.95785903930664,34.05025100708008,12.89858055114746,1,10919.70826254167,walking,0,2016-03-02 02:43:06.268,2016-03-02 02:41:14.235,40,40.52893,1,1,2016-03-02 02:43:03.720,10919.41013654167,0,-2.111908,97.42488,192.168.1.101,100.78.239.175,2,1,0.38,0
2016-03-02 02:43:07.346,20,234B9614-18C8-49ED-8B56-CAB6C4F40872,my_iOS_device_1,1456908186.995615,40.79923165500238,-96.68578282007638,370.0332,0.41,306.2109375,4,12.51905780375387,-9999,1456908187.315218,27.22080993652344,38.82411193847656,13.281982421875,288.8880615234375,285.6109313964844,25,10920.73188254167,0.1125640869140625,1.009475708007812,0.117431640625,10920.71447754167,-0.02330931744091853,-0.01492568632934909,-0.007791077769026811,10920.71447754167,2.593047398662149,2.385589729640631,-1.408054631827042,-0.003299150383099914,-0.04479209333658218,-0.001458566286601126,-0.003058428643271327,0.01652438566088676,0.002734472043812275,XArbitraryCorrectedZVertical,0.7466542113687732,0.0380869577755001,-0.1078603330072604,-0.6553037622783991,0.1111516878008842,0.9867867827415466,0.1178862527012825,23.96052551269531,34.05525588989258,12.88040161132812,1,10919.70826254167,walking,0,2016-03-02 02:43:06.268,2016-03-02 02:41:14.235,40,40.52893,1,1,2016-03-02 02:43:03.720,10920.72309454167,0,-2.308105,97.42716,192.168.1.101,100.78.239.175,2,1,0.38,0
2016-03-02 02:43:07.348,21,234B9614-18C8-49ED-8B56-CAB6C4F40872,my_iOS_device_1,1456908186.995615,40.79923165500238,-96.68578282007638,370.0332,0.41,306.2109375,4,12.51905780375387,-9999,1456908187.315218,27.22080993652344,38.82411193847656,13.281982421875,288.8880615234375,285.6109313964844,25,10920.76215354167,0.1132049560546875,1.002548217773438,0.1157379150390625,10920.74950354167,-0.01049445259156625,-0.04470595258694215,-0.01291846181575637,10920.74950354167,2.592420780272979,2.383024500451584,-1.408182954299651,0.009532934986054897,-0.07457831501960754,-0.006590831559151411,0.01297724805772305,0.02288177609443665,0.005583822727203369,XArbitraryCorrectedZVertical,0.7464951878664886,0.03872142655700685,-0.1085854913472955,-0.6553279916853938,0.1113666221499443,0.9868075251579285,0.1175088286399841,23.96243095397949,34.06139373779297,12.86061477661133,1,10919.70826254167,walking,0,2016-03-02 02:43:06.268,2016-03-02 02:41:14.235,40,40.52893,1,1,2016-03-02 02:43:03.720,10920.72309454167,0,-2.308105,97.42716,192.168.1.101,100.78.239.175,2,1,0.38,0
2016-03-02 02:43:07.378,22,234B9614-18C8-49ED-8B56-CAB6C4F40872,my_iOS_device_1,1456908186.995615,40.79923165500238,-96.68578282007638,370.0332,0.41,306.2109375,4,12.51905780375387,-9999,1456908187.370049,27.39389038085938,38.99809265136719,13.51300048828125,288.8524475097656,285.5753173828125,25,10920.79245854167,0.1193389892578125,0.9918670654296875,0.0978851318359375,10920.78452554167,-0.0105330684273724,-0.07660502980780226,-0.01183695209707519,10920.74950354167,2.592420780272979,2.383024500451584,-1.408182954299651,0.009532934986054897,-0.07457831501960754,-0.006590831559151411,0.01297724805772305,0.02288177609443665,0.005583822727203369,XArbitraryCorrectedZVertical,0.7464951878664886,0.03872142655700685,-0.1085854913472955,-0.6553279916853938,0.1113666221499443,0.9868075251579285,0.1175088286399841,23.96243095397949,34.06139373779297,12.86061477661133,1,10919.70826254167,walking,0,2016-03-02 02:43:06.268,2016-03-02 02:41:14.235,40,40.52893,1,1,2016-03-02 02:43:03.720,10920.72309454167,0,-2.308105,97.42716,192.168.1.101,100.78.239.175,2,1,0.38,0
2016-03-02 02:43:07.427,23,234B9614-18C8-49ED-8B56-CAB6C4F40872,my_iOS_device_1,1456908186.995615,40.79923165500238,-96.68578282007638,370.0332,0.41,306.2109375,4,12.51905780375387,-9999,1456908187.370049,27.39389038085938,38.99809265136719,13.51300048828125,288.8524475097656,285.5753173828125,25,10920.82273054167,0.1255340576171875,1.00225830078125,0.0997772216796875,10920.81951054167,-0.03604535272200447,-0.09470786731761588,-0.01432967087738936,10920.78452554167,2.590624800656268,2.377970823981003,-1.408998900043434,0.009495248086750507,-0.1064773574471474,-0.005509571637958288,-0.001584692043252289,0.003859624266624451,-0.0110314479097724,XArbitraryCorrectedZVertical,0.7460499991750176,0.03988525223505036,-0.1097097872820286,-0.6555778580455673,0.1114021986722946,0.9869393110275269,0.1163628697395325,23.99350929260254,34.06271743774414,12.79901504516602,1,10919.70826254167,walking,0,2016-03-02 02:43:06.268,2016-03-02 02:41:14.235,40,40.52893,1,1,2016-03-02 02:43:03.720,10920.72309454167,0,-2.308105,97.42716,192.168.1.101,100.78.239.175,2,1,0.38,0
2016-03-02 02:43:07.439,24,234B9614-18C8-49ED-8B56-CAB6C4F40872,my_iOS_device_1,1456908186.995615,40.79923165500238,-96.68578282007638,370.0332,0.41,306.2109375,4,12.51905780375387,-9999,1456908187.430269,27.56696701049805,39.52008056640625,13.48004150390625,288.8141174316406,285.5369873046875,25,10920.85302654167,0.10748291015625,1.003829956054688,0.1176910400390625,10920.85454654167,-0.01464339125380069,-0.09897185453894175,-0.02360839043133443,10920.81951054167,2.585634395759985,2.36861034558286,-1.409319731335262,-0.01601322740316391,-0.1245812922716141,-0.008000040426850319,0.01670188084244728,0.01239868998527527,-0.02233016304671764,XArbitraryCorrectedZVertical,0.7455533148235132,0.04116339917212094,-0.1114958726416802,-0.6557625330164248,0.112265408039093,0.9869909882545471,0.1150883436203003,24.00684356689453,34.07598876953125,12.7385425567627,1,10919.70826254167,walking,0,2016-03-02 02:43:06.268,2016-03-02 02:41:14.235,40,40.52893,1,1,2016-03-02 02:43:03.720,10920.72309454167,0,-2.308105,97.42716,192.168.1.101,100.78.239.175,2,1,0.38,0
2016-03-02 02:43:07.470,25,234B9614-18C8-49ED-8B56-CAB6C4F40872,my_iOS_device_1,1456908186.995615,40.79923165500238,-96.68578282007638,370.0332,0.41,306.2109375,4,12.51905780375387,-9999,1456908187.430269,27.56696701049805,39.52008056640625,13.48004150390625,288.8141174316406,285.5369873046875,25,10920.88333354167,0.0968170166015625,1.001617431640625,0.123504638671875,10920.85454654167,-0.01464339125380069,-0.09897185453894175,-0.02360839043133443,10920.85454654167,2.584708023672191,2.363013278630544,-1.409954278172267,0.005390597973018885,-0.1288455724716187,-0.01727850176393986,-0.004985042382031679,0.01673717610538006,0.003678742796182632,XArbitraryCorrectedZVertical,0.7451005631616665,0.04279368388176117,-0.1131417232451937,-0.6558908459927477,0.1124679520726204,0.9870927929878235,0.1140122935175896,24.07841873168945,34.08386993408203,12.58140277862549,1,10919.70826254167,walking,0,2016-03-02 02:43:06.268,2016-03-02 02:41:14.235,40,40.52893,1,1,2016-03-02 02:43:03.720,10920.72309454167,0,-2.308105,97.42716,192.168.1.101,100.78.239.175,2,1,0.38,0
2016-03-02 02:43:07.504,26,234B9614-18C8-49ED-8B56-CAB6C4F40872,my_iOS_device_1,1456908186.995615,40.79923165500238,-96.68578282007638,370.0332,0.41,306.2109375,4,12.51905780375387,-9999,1456908187.486903,27.22080993652344,39.65925598144531,13.61212158203125,288.7883911132812,285.5112609863281,25,10920.91362354167,0.09271240234375,1.003921508789062,0.12506103515625,10920.88956354167,-0.007243798165015528,-0.0627960069235234,-0.01819072182578624,10920.88956354167,2.591384324397057,2.365898852089249,-1.410709332274751,0.01278878748416901,-0.09266892075538635,-0.01186349056661129,-0.01479957159608603,0.01440401189029217,0.009700416587293148,XArbitraryCorrectedZVertical,0.7449307124055669,0.04450106422378911,-0.1140942634789754,-0.6558051448708329,0.1116165891289711,0.9872134327888489,0.1138042211532593,24.13339042663574,34.11549758911133,12.38887405395508,1,10919.70826254167,walking,0,2016-03-02 02:43:06.268,2016-03-02 02:41:14.235,40,40.52893,1,1,2016-03-02 02:43:03.720,10920.72309454167,0,-2.308105,97.42716,192.168.1.101,100.78.239.175,2,1,0.38,0
2016-03-02 02:43:07.530,27,234B9614-18C8-49ED-8B56-CAB6C4F40872,my_iOS_device_1,1456908186.995615,40.79923165500238,-96.68578282007638,370.0332,0.41,306.2109375,4,12.51905780375387,-9999,1456908187.486903,27.22080993652344,39.65925598144531,13.61212158203125,288.7883911132812,285.5112609863281,25,10920.94391654167,0.0919647216796875,1.005355834960938,0.1110687255859375,10920.92457354167,-0.002005892933047682,-0.01385216609393815,-0.009613745219077041,10920.88956354167,2.591384324397057,2.365898852089249,-1.410709332274751,0.01278878748416901,-0.09266892075538635,-0.01186349056661129,-0.01479957159608603,0.01440401189029217,0.009700416587293148,XArbitraryCorrectedZVertical,0.7449307124055669,0.04450106422378911,-0.1140942634789754,-0.6558051448708329,0.1116165891289711,0.9872134327888489,0.1138042211532593,24.13339042663574,34.11549758911133,12.38887405395508,1,10919.70826254167,walking,0,2016-03-02 02:43:06.268,2016-03-02 02:41:14.235,40,40.52893,1,1,2016-03-02 02:43:03.720,10920.72309454167,0,-2.308105,97.42716,192.168.1.101,100.78.239.175,2,1,0.38,0
2016-03-02 02:43:07.583,28,234B9614-18C8-49ED-8B56-CAB6C4F40872,my_iOS_device_1,1456908186.995615,40.79923165500238,-96.68578282007638,370.0332,0.41,306.2109375,4,12.51905780375387,-9999,1456908187.545729,26.94388198852539,39.65924072265625,13.48004150390625,287.9227905273438,284.6456604003906,25,10920.97420554167,0.1117706298828125,1.006729125976562,0.1168212890625,10920.95958554167,-0.00298487094976081,0.04037165791283819,-0.01285294805294042,10920.95958554167,2.59941582268434,2.371477933328271,-1.413116731384798,0.01704634726047516,0.01050064526498318,-0.006534408777952194,-0.009883441030979156,0.01954680494964123,-0.001177079044282436,XArbitraryCorrectedZVertical,0.7444635480663061,0.04618916666782759,-0.1141389984213564,-0.6562109992391216,0.1093249693512917,0.9875943064689636,0.11271882802248,24.0988826751709,34.17856597900391,12.28174781799316,1,10919.70826254167,walking,0,2016-03-02 02:43:06.268,2016-03-02 02:41:14.235,40,40.52893,1,1,2016-03-02 02:43:03.720,10920.72309454167,0,-2.308105,97.42716,192.168.1.101,100.78.239.175,2,1,0.38,0
2016-03-02 02:43:07.591,29,234B9614-18C8-49ED-8B56-CAB6C4F40872,my_iOS_device_1,1456908186.995615,40.79923165500238,-96.68578282007638,370.0332,0.41,306.2109375,4,12.51905780375387,-9999,1456908187.545729,26.94388198852539,39.65924072265625,13.48004150390625,287.9227905273438,284.6456604003906,25,10921.00449454167,0.1180419921875,0.9992523193359375,0.1256103515625,10920.99460054167,0.01501516854197575,0.0478466184604726,-0.006200904282140499,10920.95958554167,2.59941582268434,2.371477933328271,-1.413116731384798,0.01704634726047516,0.01050064526498318,-0.006534408777952194,-0.009883441030979156,0.01954680494964123,-0.001177079044282436,XArbitraryCorrectedZVertical,0.7444635480663061,0.04618916666782759,-0.1141389984213564,-0.6562109992391216,0.1093249693512917,0.9875943064689636,0.11271882802248,24.0988826751709,34.17856597900391,12.28174781799316,1,10919.70826254167,walking,0,2016-03-02 02:43:06.268,2016-03-02 02:41:14.235,40,40.52893,1,1,2016-03-02 02:43:03.720,10920.72309454167,0,-2.308105,97.42716,192.168.1.101,100.78.239.175,2,1,0.38,0
2016-03-02 02:43:07.621,30,234B9614-18C8-49ED-8B56-CAB6C4F40872,my_iOS_device_1,1456908186.995615,40.79923165500238,-96.68578282007638,370.0332,0.41,306.2109375,4,12.51905780375387,-9999,1456908187.604613,26.80541801452637,39.17205810546875,13.28204345703125,288.0033264160156,284.7261962890625,25,10921.03478854167,0.1219940185546875,0.99951171875,0.11773681640625,10921.02961154167,0.00861852191971443,0.04784475424770954,-0.005228051535934553,10920.99460054167,2.596878319945304,2.369545794564046,-1.413421797337066,0.03504476323723793,0.01797592081129551,0.0001182485284516588,0.01041860319674015,0.01376164332032204,0.01411229185760021,XArbitraryCorrectedZVertical,0.7443351251356944,0.04594540302500957,-0.1139607208594939,-0.656404749778109,0.109332375228405,0.9876421689987183,0.1122915148735046,24.06687927246094,34.20702743530273,12.26526260375977,1,10919.70826254167,walking,0,2016-03-02 02:43:06.268,2016-03-02 02:41:14.235,40,40.52893,1,1,2016-03-02 02:43:03.720,10920.72309454167,0,-2.308105,97.42716,192.168.1.101,100.78.239.175,2,1,0.38,0
2016-03-02 02:43:07.662,31,234B9614-18C8-49ED-8B56-CAB6C4F40872,my_iOS_device_1,1456908186.995615,40.79923165500238,-96.68578282007638,370.0332,0.41,306.2109375,4,12.51905780375387,-9999,1456908187.604613,26.80541801452637,39.17205810546875,13.28204345703125,288.0033264160156,284.7261962890625,25,10921.06508054167,0.119415283203125,0.9995880126953125,0.108123779296875,10921.02961154167,0.00861852191971443,0.04784475424770954,-0.005228051535934553,10921.02961154167,2.590142998888159,2.363592000993665,-1.4136634174856,0.0286466870456934,0.01797408796846867,0.001093191560357809,0.0143750412389636,0.01195378415286541,0.003185939509421587,XArbitraryCorrectedZVertical,0.7440893046716719,0.04544675424631413,-0.1139135159564398,-0.6567262824679111,0.1098315045237541,0.9876800179481506,0.1114685982465744,24.07594299316406,34.20259475708008,12.25982189178467,1,10919.70826254167,walking,0,2016-03-02 02:43:06.268,2016-03-02 02:41:14.235,40,40.52893,1,1,2016-03-02 02:43:03.720,10920.72309454167,0,-2.308105,97.42716,192.168.1.101,100.78.239.175,2,1,0.38,0
2016-03-02 02:43:07.682,32,234B9614-18C8-49ED-8B56-CAB6C4F40872,my_iOS_device_1,1456908186.995615,40.79923165500238,-96.68578282007638,370.0332,0.41,306.2109375,4,12.51905780375387,-9999,1456908187.662888,27.22080993652344,38.96324157714844,12.68798828125,286.5922546386719,283.3151245117188,25,10921.09537254167,0.1212005615234375,1.003692626953125,0.1064605712890625,10921.06460754167,0.0128220553842955,0.03828613646319715,-0.001964880252260462,10921.06460754167,2.583526405250341,2.357527469234906,-1.413854289579153,0.03284921869635582,0.008415460586547852,0.004358275327831507,0.009638021700084209,0.009390974417328835,0.003224606160074472,XArbitraryCorrectedZVertical,0.7438459087003757,0.04501957184104192,-0.1139552175830692,-0.6570241324689184,0.110372357070446,0.9877098798751831,0.110666997730732,24.09024620056152,34.19889450073242,12.24204063415527,1,10919.70826254167,walking,0,2016-03-02 02:43:06.268,2016-03-02 02:41:14.235,40,40.52893,1,1,2016-03-02 02:43:03.720,10920.72309454167,0,-2.308105,97.42716,192.168.1.101,100.78.239.175,2,1,0.38,0
2016-03-02 02:43:07.712,33,234B9614-18C8-49ED-8B56-CAB6C4F40872,my_iOS_device_1,1456908186.995615,40.79923165500238,-96.68578282007638,370.0332,0.41,306.2109375,4,12.51905780375387,-9999,1456908187.662888,27.22080993652344,38.96324157714844,12.68798828125,286.5922546386719,283.3151245117188,25,10921.12566154167,0.1266632080078125,0.995391845703125,0.11358642578125,10921.09963854167,6.657902725198096e-05,0.01062228432389005,-0.004267449330742972,10921.09963854167,2.574841607471767,2.348760498500692,-1.414217629712745,0.02009529061615467,-0.01924879290163517,0.002058073878288269,0.01011789590120316,0.01592604629695415,-0.002982676029205322,XArbitraryCorrectedZVertical,0.7434506281899879,0.04475250948526461,-0.1142821058000181,-0.6574328685368377,0.1110826656222343,0.9877665638923645,0.1094432473182678,24.10115242004395,34.19777297973633,12.22369384765625,1,10919.70826254167,walking,0,2016-03-02 02:43:06.268,2016-03-02 02:41:14.235,40,40.52893,1,1,2016-03-02 02:43:03.720,10920.72309454167,0,-2.308105,97.42716,192.168.1.101,100.78.239.175,2,1,0.38,0
2016-03-02 02:43:07.743,34,234B9614-18C8-49ED-8B56-CAB6C4F40872,my_iOS_device_1,1456908186.995615,40.79923165500238,-96.68578282007638,370.0332,0.41,306.2109375,4,12.51905780375387,-9999,1456908187.723067,26.90926551818848,38.92842102050781,12.1929931640625,286.0138244628906,282.7366943359375,25,10921.15593654167,0.12652587890625,0.998565673828125,0.1198272705078125,10921.13465054167,-0.01265960255780067,-0.01704742676981522,-0.008701079913506887,10921.09963854167,2.574841607471767,2.348760498500692,-1.414217629712745,0.02009529061615467,-0.01924879290163517,0.002058073878288269,0.01011789590120316,0.01592604629695415,-0.002982676029205322,XArbitraryCorrectedZVertical,0.7434506281899879,0.04475250948526461,-0.1142821058000181,-0.6574328685368377,0.1110826656222343,0.9877665638923645,0.1094432473182678,24.10115242004395,34.19777297973633,12.22369384765625,1,10919.70826254167,walking,0,2016-03-02 02:43:06.268,2016-03-02 02:41:14.235,40,40.52893,1,1,2016-03-02 02:43:03.720,10920.72309454167,0,-2.308105,97.42716,192.168.1.101,100.78.239.175,2,1,0.38,0
2016-03-02 02:43:07.772,35,234B9614-18C8-49ED-8B56-CAB6C4F40872,my_iOS_device_1,1456908186.995615,40.79923165500238,-96.68578282007638,370.0332,0.41,306.2109375,4,12.51905780375387,-9999,1456908187.723067,26.90926551818848,38.92842102050781,12.1929931640625,286.0138244628906,282.7366943359375,25,10921.18622454167,0.122528076171875,0.99822998046875,0.1194000244140625,10921.16966154167,-0.01262258461864857,-0.04577095070686484,-0.01294882185218327,10921.13465054167,2.569220671564349,2.341796999891108,-1.41407412217742,0.007368805352598429,-0.04691871628165245,-0.002372655784711242,0.01471946854144335,0.007647654041647911,0.004820570349693298,XArbitraryCorrectedZVertical,0.7432126869146747,0.0449202590120912,-0.1150538064163077,-0.6575558485546706,0.1119437366724014,0.9877442121505737,0.1087658554315567,24.13690185546875,34.19413757324219,12.16317558288574,1,10919.70826254167,walking,0,2016-03-02 02:43:06.268,2016-03-02 02:41:14.235,40,40.52893,1,1,2016-03-02 02:43:03.720,10920.72309454167,0,-2.308105,97.42716,192.168.1.101,100.78.239.175,2,1,0.38,0
2016-03-02 02:43:07.824,36,234B9614-18C8-49ED-8B56-CAB6C4F40872,my_iOS_device_1,1456908186.995615,40.79923165500238,-96.68578282007638,370.0332,0.41,306.2109375,4,12.51905780375387,-9999,1456908187.781244,26.39002799987793,39.450439453125,12.159912109375,286.0104064941406,282.7332763671875,25,10921.21652954167,0.1261749267578125,0.9921112060546875,0.101715087890625,10921.20465654167,-0.01277758059409118,-0.07658319188686362,-0.003343598748594483,10921.16966154167,2.567573149257762,2.337932779665474,-1.413146796592587,0.007402902934700251,-0.07564213126897812,-0.006616070866584778,0.01492239627987146,0.01546798832714558,0.01064547803252935,XArbitraryCorrectedZVertical,0.743253550495705,0.04536787684411135,-0.1161527321885914,-0.6572856747497923,0.1130225509405136,0.9875990152359009,0.1089681684970856,24.16374778747559,34.18491363525391,12.13577747344971,1,10919.70826254167,walking,0,2016-03-02 02:43:06.268,2016-03-02 02:41:14.235,40,40.52893,1,1,2016-03-02 02:43:03.720,10920.72309454167,0,-2.308105,97.42716,192.168.1.101,100.78.239.175,2,1,0.38,0
2016-03-02 02:43:07.833,37,234B9614-18C8-49ED-8B56-CAB6C4F40872,my_iOS_device_1,1456908186.995615,40.79923165500238,-96.68578282007638,370.0332,0.41,306.2109375,4,12.51905780375387,-9999,1456908187.781244,26.39002799987793,39.450439453125,12.159912109375,286.0104064941406,282.7332763671875,25,10921.24681754167,0.118682861328125,1.003082275390625,0.1109466552734375,10921.20465654167,-0.01277758059409118,-0.07658319188686362,-0.003343598748594483,10921.20465654167,2.566485766718567,2.333579770886406,-1.412862685779509,0.007246014662086964,-0.1064541414380074,0.002991087501868606,0.006082840263843536,0.01026360876858234,0.00586345698684454,XArbitraryCorrectedZVertical,0.7430935841094517,0.04632960400822392,-0.1174757678272381,-0.6571643150850399,0.1136986538767815,0.9875543713569641,0.1086690127849579,24.2234058380127,34.16044998168945,12.08562088012695,1,10919.70826254167,walking,0,2016-03-02 02:43:06.268,2016-03-02 02:41:14.235,40,40.52893,1,1,2016-03-02 02:43:03.720,10920.72309454167,0,-2.308105,97.42716,192.168.1.101,100.78.239.175,2,1,0.38,0
2016-03-02 02:43:07.863,38,234B9614-18C8-49ED-8B56-CAB6C4F40872,my_iOS_device_1,1456908186.995615,40.79923165500238,-96.68578282007638,370.0332,0.41,306.2109375,4,12.51905780375387,-9999,1456908187.841169,26.52849006652832,39.52001953125,12.15997314453125,286.0167236328125,282.7395935058594,25,10921.27710954167,0.1107177734375,1.007705688476562,0.115020751953125,10921.23968654167,-0.05957225042398248,-0.08725527732313815,-0.00508344188874325,10921.23968654167,2.565314378336214,2.32817376753515,-1.412106255416497,-0.03954797983169556,-0.1171265989542007,0.00125374726485461,0.006647985894232988,0.01076433155685663,0.0005191266536712646,XArbitraryCorrectedZVertical,0.7429851716132813,0.04749750456094613,-0.1192672712925045,-0.6568807653004347,0.1148272305727005,0.9874351024627686,0.1085659563541412,24.33382034301758,34.13373947143555,11.93838882446289,1,10919.70826254167,walking,0,2016-03-02 02:43:06.268,2016-03-02 02:41:14.235,40,40.52893,1,1,2016-03-02 02:43:03.720,10920.72309454167,0,-2.308105,97.42716,192.168.1.101,100.78.239.175,2,1,0.38,0
2016-03-02 02:43:07.902,39,234B9614-18C8-49ED-8B56-CAB6C4F40872,my_iOS_device_1,1456908186.995615,40.79923165500238,-96.68578282007638,370.0332,0.41,306.2109375,4,12.51905780375387,-9999,1456908187.898707,26.94387817382812,39.17205810546875,12.35809326171875,286.1576843261719,282.8805541992188,25,10921.30739854167,0.0995330810546875,1.001251220703125,0.1044921875,10921.27468454167,-0.04902053986897953,-0.06383197658756422,0.00251801881066992,10921.27468454167,2.573106145273088,2.332251792379492,-1.410949722550004,-0.02899781242012978,-0.09370266646146774,0.00885430071502924,-0.007132083643227816,0.01906542852520943,0.01279842853546143,XArbitraryCorrectedZVertical,0.7433236979039161,0.04879016731992225,-0.1205658745524301,-0.6561655809326848,0.115210086107254,0.9872516989707947,0.1098212003707886,24.3665771484375,34.12006378173828,11.91062927246094,1,10919.70826254167,walking,0,2016-03-02 02:43:06.268,2016-03-02 02:41:14.235,40,40.52893,1,1,2016-03-02 02:43:03.720,10920.72309454167,0,-2.308105,97.42716,192.168.1.101,100.78.239.175,2,1,0.38,0
2016-03-02 02:43:07.924,40,234B9614-18C8-49ED-8B56-CAB6C4F40872,my_iOS_device_1,1456908186.995615,40.79923165500238,-96.68578282007638,370.0332,0.41,306.2109375,4,12.51905780375387,-9999,1456908187.898707,26.94387817382812,39.17205810546875,12.35809326171875,286.1576843261719,282.8805541992188,25,10921.33769154167,0.1080474853515625,0.9990692138671875,0.1034088134765625,10921.30971354167,-0.02872512183370367,-0.02767290688701336,-0.0014687333411787,10921.30971354167,2.575416926241067,2.331965405888205,-1.411138721314598,-0.008700449019670486,-0.0575433149933815,0.004864558111876249,-0.0155733535066247,0.01396944560110569,-0.005167308729141951,XArbitraryCorrectedZVertical,0.7432032818845531,0.04978583969553377,-0.1213887076953079,-0.6560754785890736,0.1151064336299896,0.9872817993164062,0.1096594929695129,24.38694763183594,34.10923004150391,11.89996719360352,1,10919.70826254167,walking,0,2016-03-02 02:43:06.268,2016-03-02 02:41:14.235,40,40.52893,1,1,2016-03-02 02:43:03.720,10920.72309454167,0,-2.308105,97.42716,192.168.1.101,100.78.239.175,2,1,0.38,0
2016-03-02 02:43:07.954,41,234B9614-18C8-49ED-8B56-CAB6C4F40872,my_iOS_device_1,1456908186.995615,40.79923165500238,-96.68578282007638,370.0332,0.41,306.2109375,4,12.51905780375387,-9999,1456908187.898707,26.94387817382812,39.17205810546875,12.35809326171875,286.1576843261719,282.8805541992188,25,10921.36798354167,0.1065216064453125,1.00628662109375,0.0984344482421875,10921.34472654167,-0.02865907543866971,0.02123764442894589,-0.003624295927488835,10921.30971354167,2.575416926241067,2.331965405888205,-1.411138721314598,-0.008700449019670486,-0.0575433149933815,0.004864558111876249,-0.0155733535066247,0.01396944560110569,-0.005167308729141951,XArbitraryCorrectedZVertical,0.7432032818845531,0.04978583969553377,-0.1213887076953079,-0.6560754785890736,0.1151064336299896,0.9872817993164062,0.1096594929695129,24.38694763183594,34.10923004150391,11.89996719360352,1,10919.70826254167,walking,0,2016-03-02 02:43:06.268,2016-03-02 02:41:14.235,40,40.52893,1,1,2016-03-02 02:43:03.720,10920.72309454167,0,-2.308105,97.42716,192.168.1.101,100.78.239.175,2,1,0.38,0
2016-03-02 02:43:07.987,42,234B9614-18C8-49ED-8B56-CAB6C4F40872,my_iOS_device_1,1456908186.995615,40.79923165500238,-96.68578282007638,370.0332,0.41,306.2109375,4,12.51905780375387,-9999,1456908187.957501,27.5323486328125,39.20684814453125,12.5230712890625,286.2432250976562,282.9660949707031,25,10921.39827554167,0.1142730712890625,1.006622314453125,0.1004486083984375,10921.37973654167,-0.02435194500768455,0.05207358774264637,-0.005709018428802863,10921.37973654167,2.57987246022092,2.335838929759039,-1.412222827107223,-0.004322719294577837,0.02220369130373001,0.0006181128555908799,-0.01048458740115166,0.01887885108590126,-0.009723315015435219,XArbitraryCorrectedZVertical,0.7430611061311626,0.05041623116042177,-0.121172921360706,-0.6562282524545894,0.1139086559414864,0.9874535202980042,0.1093632057309151,24.39414596557617,34.12645721435547,11.8356466293335,1,10919.70826254167,walking,0,2016-03-02 02:43:06.268,2016-03-02 02:41:14.235,40,40.52893,1,1,2016-03-02 02:43:03.720,10920.72309454167,0,-2.308105,97.42716,192.168.1.101,100.78.239.175,2,1,0.38,0
2016-03-02 02:43:08.015,43,234B9614-18C8-49ED-8B56-CAB6C4F40872,my_iOS_device_1,1456908186.995615,40.79923165500238,-96.68578282007638,370.0332,0.41,306.2109375,4,12.51905780375387,-9999,1456908187.994609,27.18618965148926,39.55485534667969,12.58905029296875,286.2429504394531,282.9658203125,25,10921.42856854167,0.12890625,0.9971771240234375,0.0973052978515625,10921.41475254167,-0.01270301208356896,0.06166469609245773,-0.001281779432655137,10921.37973654167,2.57987246022092,2.335838929759039,-1.412222827107223,-0.004322719294577837,0.02220369130373001,0.0006181128555908799,-0.01048458740115166,0.01887885108590126,-0.009723315015435219,XArbitraryCorrectedZVertical,0.7430611061311626,0.05041623116042177,-0.121172921360706,-0.6562282524545894,0.1139086559414864,0.9874535202980042,0.1093632057309151,24.39414596557617,34.12645721435547,11.8356466293335,1,10919.70826254167,walking,0,2016-03-02 02:43:06.268,2016-03-02 02:41:14.235,40,40.52893,1,1,2016-03-02 02:43:03.720,10920.72309454167,0,-2.308105,97.42716,192.168.1.101,100.78.239.175,2,1,0.38,0
2016-03-02 02:43:08.064,44,234B9614-18C8-49ED-8B56-CAB6C4F40872,my_iOS_device_1,1456908186.995615,40.79923165500238,-96.68578282007638,370.0332,0.41,306.2109375,4,12.51905780375387,-9999,1456908188.055219,27.15157508850098,39.86802673339844,12.62200927734375,286.2475891113281,282.970458984375,25,10921.45885754167,0.124664306640625,1.001815795898438,0.0992584228515625,10921.44976354167,-0.007250456067740726,0.064832526209107,-0.01079592242696322,10921.41475254167,2.576541909653581,2.333462214168766,-1.412589746025645,0.00732862064614892,0.03179464861750603,0.005045177415013313,0.005661569070070982,0.01459429319947958,-0.009110411629080772,XArbitraryCorrectedZVertical,0.7429109805045172,0.05004201829858378,-0.1208822577256632,-0.6564804271397188,0.1139063015580177,0.9875113964080811,0.1088418588042259,24.36190414428711,34.15371322631836,11.82342338562012,1,10919.70826254167,walking,0,2016-03-02 02:43:06.268,2016-03-02 02:41:14.235,40,40.52893,1,1,2016-03-02 02:43:03.720,10920.72309454167,0,-2.308105,97.42716,192.168.1.101,100.78.239.175,2,1,0.38,0
2016-03-02 02:43:08.077,45,234B9614-18C8-49ED-8B56-CAB6C4F40872,my_iOS_device_1,1456908186.995615,40.79923165500238,-96.68578282007638,370.0332,0.41,306.2109375,4,12.51905780375387,-9999,1456908188.055219,27.15157508850098,39.86802673339844,12.62200927734375,286.2475891113281,282.970458984375,25,10921.48912454167,0.13037109375,1.002548217773438,0.087432861328125,10921.48477454167,-0.006277070689316764,0.06166070135082262,-0.004385693683142489,10921.44976354167,2.567245848375147,2.325300812788528,-1.41285107463733,0.01278463006019592,0.03496183454990387,-0.004465215839445591,0.01154164131730795,0.01321038138121367,-0.007924108766019344,XArbitraryCorrectedZVertical,0.7425850568602302,0.04932907156660048,-0.1208030210247925,-0.656917579409723,0.114602766931057,0.9875525832176208,0.1077318489551544,24.36906051635742,34.15230941772461,11.81272506713867,1,10919.70826254167,walking,0,2016-03-02 02:43:06.268,2016-03-02 02:41:14.235,40,40.52893,1,1,2016-03-02 02:43:03.720,10920.72309454167,0,-2.308105,97.42716,192.168.1.101,100.78.239.175,2,1,0.38,0
2016-03-02 02:43:08.113,46,234B9614-18C8-49ED-8B56-CAB6C4F40872,my_iOS_device_1,1456908187.995615,40.79923500776365,-96.6857873463041,369.9702,0.41,333.984375,4,14.01761755287903,-9999,1456908188.104598,27.15157508850098,39.52005004882812,12.093994140625,285.3469848632812,282.0698547363281,25,10921.51934441667,0.1295318603515625,0.997039794921875,0.088104248046875,10921.48477454167,-0.006277070689316764,0.06166070135082262,-0.004385693683142489,10921.48477454167,2.559509793140595,2.318764301806262,-1.413304300885352,0.01376084238290787,0.03178952261805534,0.001947467564605176,0.01249554287642241,0.01400894671678543,-0.01429930422455072,XArbitraryCorrectedZVertical,0.7422704414002718,0.04870932780249192,-0.1205863832355905,-0.6573590475429811,0.1149763837456703,0.9876237511634827,0.1066760122776031,24.37261581420898,34.15217971801758,11.80577659606934,1,10919.70826254167,walking,0,2016-03-02 02:43:06.268,2016-03-02 02:41:14.235,40,40.52893,1,1,2016-03-02 02:43:03.720,10920.72309454167,0,-2.308105,97.42716,192.168.1.101,100.78.239.175,2,1,0.38,0
2016-03-02 02:43:08.143,47,234B9614-18C8-49ED-8B56-CAB6C4F40872,my_iOS_device_1,1456908187.995615,40.79923500776365,-96.6857873463041,369.9702,0.41,333.984375,4,14.01761755287903,-9999,1456908188.104598,27.15157508850098,39.52005004882812,12.093994140625,285.3469848632812,282.0698547363281,25,10921.54965341667,0.1201324462890625,0.9959869384765625,0.095703125,10921.51972541667,-0.004224306121083688,0.04040601269090022,-8.202536157444054e-05,10921.51972541667,2.547693065146597,2.307452084485035,-1.41364711380185,0.01581973396241665,0.01053374446928501,0.00625517126172781,0.01360691152513027,0.009362341836094856,-0.01703686825931072,XArbitraryCorrectedZVertical,0.7417914737061782,0.0481244981432767,-0.1208204260639232,-0.6578995872175224,0.1159249469637871,0.9876774549484253,0.1051411181688309,24.37583923339844,34.15268325805664,11.79764556884766,1,10919.70826254167,walking,0,2016-03-02 02:43:06.268,2016-03-02 02:41:14.235,40,40.52893,1,1,2016-03-02 02:43:03.720,10920.72309454167,0,-2.308105,97.42716,192.168.1.101,100.78.239.175,2,1,0.38,0
2016-03-02 02:43:08.177,48,234B9614-18C8-49ED-8B56-CAB6C4F40872,my_iOS_device_1,1456908187.995615,40.79923500776365,-96.6857873463041,369.9702,0.41,333.984375,4,14.01761755287903,-9999,1456908188.16302,27.29004287719727,39.38084411621094,11.7640380859375,285.3322448730469,282.0551147460938,25,10921.57992641667,0.116119384765625,1.006072998046875,0.09613037109375,10921.55473541667,-0.01584820533095254,0.04463617776638208,-0.005581719328697075,10921.55473541667,2.541083467291158,2.301320921821234,-1.414086807778978,0.00419935816898942,0.01476335152983665,0.000757005182094872,0.003888513660058379,0.008240766823291779,-0.008435479365289211,XArbitraryCorrectedZVertical,0.7414748861774724,0.04779430031678129,-0.1208187029000215,-0.6582807448610889,0.1162439361214638,0.9877461791038513,0.1041386052966118,24.4153938293457,34.14812088012695,11.72886371612549,1,10919.70826254167,walking,0,2016-03-02 02:43:06.268,2016-03-02 02:41:14.235,40,40.52893,1,1,2016-03-02 02:43:03.720,10920.72309454167,0,-2.308105,97.42716,192.168.1.101,100.78.239.175,2,1,0.38,0
2016-03-02 02:43:08.223,49,234B9614-18C8-49ED-8B56-CAB6C4F40872,my_iOS_device_1,1456908187.995615,40.79923500776365,-96.6857873463041,369.9702,0.41,333.984375,4,14.01761755287903,-9999,1456908188.16302,27.29004287719727,39.38084411621094,11.7640380859375,285.3322448730469,282.0551147460938,25,10921.61024141667,0.1223907470703125,1.006240844726562,0.0897064208984375,10921.58974741667,-0.02754614041912559,0.04781759000459074,-0.005753226902898178,10921.58974741667,2.540415228074779,2.301208221206567,-1.414162827369561,-0.007497156038880348,0.01794467866420746,0.0005852521862834692,-8.03503135102801e-05,0.01831496506929398,-0.007945033721625805,XArbitraryCorrectedZVertical,0.741465974597972,0.04760158748316286,-0.1206231020106378,-0.6583406144571921,0.1161997318267822,0.9877580404281616,0.1040754020214081,24.41451644897461,34.15089797973633,11.72261238098145,1,10919.70826254167,walking,0,2016-03-02 02:43:06.268,2016-03-02 02:41:14.235,40,40.52893,1,1,2016-03-02 02:43:03.720,10920.72309454167,0,-2.308105,97.42716,192.168.1.101,100.78.239.175,2,1,0.38,0
2016-03-02 02:43:08.237,50,234B9614-18C8-49ED-8B56-CAB6C4F40872,my_iOS_device_1,1456908187.995615,40.79923500776365,-96.6857873463041,369.9702,0.41,333.984375,4,14.01761755287903,-9999,1456908188.222101,27.35927391052246,39.65921020507812,12.02801513671875,285.3187561035156,282.0416259765625,25,10921.64053441667,0.1139373779296875,1.000335693359375,0.0930328369140625,10921.62475641667,-0.01260527407156305,0.05526378841245229,-0.008737298904331964,10921.58974741667,2.540415228074779,2.301208221206567,-1.414162827369561,-0.007497156038880348,0.01794467866420746,0.0005852521862834692,-8.03503135102801e-05,0.01831496506929398,-0.007945033721625805,XArbitraryCorrectedZVertical,0.741465974597972,0.04760158748316286,-0.1206231020106378,-0.6583406144571921,0.1161997318267822,0.9877580404281616,0.1040754020214081,24.41451644897461,34.15089797973633,11.72261238098145,1,10919.70826254167,walking,0,2016-03-02 02:43:06.268,2016-03-02 02:41:14.235,40,40.52893,1,1,2016-03-02 02:43:03.720,10920.72309454167,0,-2.308105,97.42716,192.168.1.101,100.78.239.175,2,1,0.38,0
2016-03-02 02:43:08.264,51,234B9614-18C8-49ED-8B56-CAB6C4F40872,my_iOS_device_1,1456908187.995615,40.79923500776365,-96.6857873463041,369.9702,0.41,333.984375,4,14.01761755287903,-9999,1456908188.222101,27.35927391052246,39.65921020507812,12.02801513671875,285.3187561035156,282.0416259765625,25,10921.67082641667,0.11981201171875,1.001495361328125,0.09613037109375,10921.65977341667,-0.01480105039033338,0.06165723924140552,-0.003443733605581463,10921.62475641667,2.535563615992088,2.297005638529748,-1.41465086658457,0.007447720970958471,0.02539035119116306,-0.002398415701463819,0.00431456882506609,0.01318829227238894,-0.003076816909015179,XArbitraryCorrectedZVertical,0.7412121809373065,0.04730238719099656,-0.1204712434405352,-0.6586756914446334,0.1162756383419037,0.9878340363502502,0.1032660230994225,24.40866088867188,34.15522766113281,11.7221851348877,1,10919.70826254167,walking,0,2016-03-02 02:43:06.268,2016-03-02 02:41:14.235,40,40.52893,1,1,2016-03-02 02:43:03.720,10920.72309454167,0,-2.308105,97.42716,192.168.1.101,100.78.239.175,2,1,0.38,0
2016-03-02 02:43:08.302,52,234B9614-18C8-49ED-8B56-CAB6C4F40872,my_iOS_device_1,1456908187.995615,40.79923500776365,-96.6857873463041,369.9702,0.41,333.984375,4,14.01761755287903,-9999,1456908188.280494,27.18619346618652,39.55482482910156,11.863037109375,285.3094787597656,282.0323486328125,25,10921.70111941667,0.126495361328125,0.9979095458984375,0.0908966064453125,10921.69478441667,-0.01270381103189598,0.0606012958691891,-0.001281246800437122,10921.65977341667,2.532927306417745,2.295509324310671,-1.41524720875368,0.005254209041595459,0.03178355842828751,0.002894404344260693,-0.0008614016114734113,0.01362978760153055,-0.01464291755110025,XArbitraryCorrectedZVertical,0.7410434944043158,0.04695991960600555,-0.1200196385039574,-0.6589723755401263,0.1159889623522758,0.9879266023635864,0.1027013882994652,24.40316390991211,34.16152191162109,11.71529388427734,1,10919.70826254167,walking,0,2016-03-02 02:43:06.268,2016-03-02 02:41:14.235,40,40.52893,1,1,2016-03-02 02:43:03.720,10920.72309454167,0,-2.308105,97.42716,192.168.1.101,100.78.239.175,2,1,0.38,0
2016-03-02 02:43:08.328,53,234B9614-18C8-49ED-8B56-CAB6C4F40872,my_iOS_device_1,1456908187.995615,40.79923500776365,-96.6857873463041,369.9702,0.41,333.984375,4,14.01761755287903,-9999,1456908188.280494,27.18619346618652,39.55482482910156,11.863037109375,285.3094787597656,282.0323486328125,25,10921.73141141667,0.1257476806640625,1.000564575195312,0.096466064453125,10921.69478441667,-0.01270381103189598,0.0606012958691891,-0.001281246800437122,10921.69478441667,2.526456606552564,2.290112140399782,-1.41559211105315,0.007354950066655874,0.03072722256183624,0.005057963076978922,0.008516393601894379,0.01168432366102934,-0.01058655697852373,XArbitraryCorrectedZVertical,0.740789793199875,0.04642380345327478,-0.1198064924894288,-0.65933429845654,0.1162852421402931,0.9879800081253052,0.101849377155304,24.38834381103516,34.17413711547852,11.7093505859375,1,10919.70826254167,walking,0,2016-03-02 02:43:06.268,2016-03-02 02:41:14.235,40,40.52893,1,1,2016-03-02 02:43:03.720,10920.72309454167,0,-2.308105,97.42716,192.168.1.101,100.78.239.175,2,1,0.38,0
2016-03-02 02:43:08.359,54,234B9614-18C8-49ED-8B56-CAB6C4F40872,my_iOS_device_1,1456908187.995615,40.79923500776365,-96.6857873463041,369.9702,0.41,333.984375,4,14.01761755287903,-9999,1456908188.339608,27.08234596252441,39.24162292480469,12.02801513671875,285.3184509277344,282.0413208007812,25,10921.76170241667,0.1235504150390625,1.002609252929688,0.0970458984375,10921.72980341667,-0.02978985363751735,0.04890282814879802,0.002739593813364512,10921.72980341667,2.522157125485547,2.286596353534567,-1.415211867792955,-0.009712890721857548,0.01902258023619652,0.009075053036212921,0.009996541775763035,0.009484872221946716,-0.003419827204197645,XArbitraryCorrectedZVertical,0.7407674871320994,0.04589928564916006,-0.1197799106260159,-0.6594009088523419,0.1169260665774345,0.9879211187362671,0.1016864255070686,24.39208793640137,34.17310333251953,11.70456790924072,1,10919.70826254167,walking,0,2016-03-02 02:43:06.268,2016-03-02 02:41:14.235,40,40.52893,1,1,2016-03-02 02:43:03.720,10920.72309454167,0,-2.308105,97.42716,192.168.1.101,100.78.239.175,2,1,0.38,0
2016-03-02 02:43:08.389,55,234B9614-18C8-49ED-8B56-CAB6C4F40872,my_iOS_device_1,1456908187.995615,40.79923500776365,-96.6857873463041,369.9702,0.41,333.984375,4,14.01761755287903,-9999,1456908188.339608,27.08234596252441,39.24162292480469,12.02801513671875,285.3184509277344,282.0413208007812,25,10921.79199541667,0.122222900390625,1,0.10504150390625,10921.76479641667,-0.02337030382988135,0.04039163162101379,-0.000360059379378713,10921.76479641667,2.518391027621476,2.283314418068415,-1.414831175684599,-0.00329150864854455,0.01051128096878529,0.005977326538413763,0.006006663199514151,0.01474718283861876,-0.00450210040435195,XArbitraryCorrectedZVertical,0.7407457153600949,0.04549488505283997,-0.119842895714729,-0.6594419466157564,0.1175437495112419,0.9878620505332947,0.1015480011701584,24.42273330688477,34.1467399597168,11.71759986877441,1,10919.70826254167,walking,0,2016-03-02 02:43:06.268,2016-03-02 02:41:14.235,40,40.52893,1,1,2016-03-02 02:43:03.720,10920.72309454167,0,-2.308105,97.42716,192.168.1.101,100.78.239.175,2,1,0.38,0
